     3.04           OBSERVATION DATA    M: Mixed            RINEX VERSION / TYPE
sbp2rinex v2.3 (RTKL                    20240531 140048 UTC PGM / RUN BY / DATE 
format: Swift Navigation SBP-JSON, option:                  COMMENT             
log: .\swift-gnss-20240529-132206.sbp.json                  COMMENT             
                                                            MARKER NAME         
                                                            MARKER NUMBER       
                                                            MARKER TYPE         
                                                            OBSERVER / AGENCY   
                                                            REC # / TYPE / VERS 
                                                            ANT # / TYPE        
  4388917.4893   924775.8032  4519531.3868                  APPROX POSITION XYZ 
        0.0000        0.0000        0.0000                  ANTENNA: DELTA H/E/N
G    8 C1C L1C D1C S1C C2S L2S D2S S2S                      SYS / # / OBS TYPES 
R    8 C1C L1C D1C S1C C2C L2C D2C S2C                      SYS / # / OBS TYPES 
E    8 C1B L1B D1B S1B C7I L7I D7I S7I                      SYS / # / OBS TYPES 
C    8 C2I L2I D2I S2I C7I L7I D7I S7I                      SYS / # / OBS TYPES 
  2024    05    29    11    22   25.0000000     GPS         TIME OF FIRST OBS   
  2024    05    29    11    32   34.0000000     GPS         TIME OF LAST OBS    
G L1C                                                       SYS / PHASE SHIFT   
G L2S  0.00000                                              SYS / PHASE SHIFT   
R L1C                                                       SYS / PHASE SHIFT   
R L2C                                                       SYS / PHASE SHIFT   
E L1B                                                       SYS / PHASE SHIFT   
E L7I                                                       SYS / PHASE SHIFT   
C L2I                                                       SYS / PHASE SHIFT   
C L7I                                                       SYS / PHASE SHIFT   
  8 R01  1 R02 -4 R09 -2 R15  0 R16 -1 R17  4 R18 -3 R24  2 GLONASS SLOT / FRQ #
 C1C    0.000 C1P    0.000 C2C    0.000 C2P    0.000        GLONASS COD/PHS/BIS 
                                                            END OF HEADER       
> 2024 05 29 11 22 25.0000000  0 29       0.000000000000
G18  24468793.700   128584380.613       -3140.441          46.750    24468800.340   100195654.055       -2447.270          43.250  
G27  20093820.480   105593740.172        -172.656          54.000    20093824.000    82280853.777        -135.258          50.000  
G08  21174395.580   111272206.074        2008.836          51.500    21174401.200    86705648.031        1565.707          50.750  
G10  20806752.740   109340224.523         529.348          54.250    20806756.620    85200200.730         413.035          49.000  
G16  22013015.120   115679169.348       -2934.711          48.750                                                                  
G21  22883765.920   120255001.9381       2439.238          46.750                                                                  
G23  21530463.660   113143351.555       -1851.891          51.250    21530466.140    88163663.637       -1444.617          49.250  
G26  24626607.160   129413649.160       -3690.727          42.000    24626618.960   100841903.500       -2875.441          36.250  
R17  19690763.840   105369295.746        -550.750          53.000    19690771.920    81953891.082        -428.797          51.750  
R02  21119374.840   112697097.309        2601.082          53.000    21119383.840    87653322.672        2023.527          50.250  
R18  20863320.700   111369863.816        2090.660          54.000    20863328.540    86621018.711        1625.691          53.250  
R16  21112957.660   112781661.473        -493.852          53.000    21112965.520    87719085.262        -384.250          52.250  
R15  22048302.580   117819467.480       -3805.469          49.250    22048314.400    91637374.055       -2961.363          47.750  
R01  21401935.460   114405649.129       -1310.781          48.500    21401945.500    88982182.234       -1021.203          45.000  
R24  22546696.500   120567343.781       -2946.609          43.250    22546707.920    93774591.066       -2289.598          42.750  
C36  24604108.800   128120041.676       -1361.957          46.750                                                                  
C27  21787518.880   113453324.848        -879.930          53.750                                                                  
C30  22631307.460   117847160.660        1659.254          52.000                                                                  
C33  25264081.000   131556693.090       -2021.086          47.000                                                                  
C13  39160904.700   203921099.020       -1117.668          45.000    39160915.260   157684756.984        -864.996          42.250  
C32  24762444.920   128944579.816        3222.672          46.000                                                                  
C28  24731305.640   128782400.4801      -2533.426          47.250                                                                  
E11  22578034.760   118648375.984         291.652          47.500    22578035.520    90912381.145         222.945          48.500  
E02  26065917.220   136977325.184        1731.352          45.250    26065923.100   104956672.895        1325.379          47.250  
E12  25247877.160   132678484.484       -1919.629          45.750    25247880.020   101662730.781       -1469.512          46.500  
E24  26391676.420   138689177.395       -3063.879          43.750    26391684.840   106268338.859       -2345.027          45.500  
E25  24216987.200   127261124.684        -964.152          49.500    24216993.020    97511775.039        -740.145          51.750  
E36  26245318.420   137920082.3671       2075.633          44.500    26245327.340   105679065.629        1590.676          47.750  
E19  26983829.960   141800988.035        1087.563          35.000    26983838.580   108652723.254         831.797          41.500  
> 2024 05 29 11 22 26.0000000  0 29       0.000000000000
G18  24469381.620   128587469.887       -3139.953          47.250    24469388.280   100198061.332       -2445.922          44.750  
G27  20093843.520   105593861.238        -170.820          54.000    20093847.180    82280948.129        -133.457          50.250  
G08  21174003.600   111270145.355        2010.594          52.000    21174008.800    86704042.270        1567.223          50.500  
G10  20806642.400   109339644.129         529.906          54.000    20806646.100    85199748.465         413.578          48.750  
G16  22013564.160   115682053.773       -2934.754          49.250                                                                  
G21  22883292.240   120252511.895        2441.410          47.250                                                                  
G23  21530806.660   113145153.203       -1851.234          51.500    21530809.000    88165067.508       -1442.160          49.500  
G26  24627299.880   129417289.934       -3689.625          40.500    24627312.340   100844740.441       -2876.082          37.000  
R17  19690856.960   105369793.711        -548.891          53.250    19690864.680    81954278.383        -426.277          51.750  
R02  21118878.200   112694443.973        2602.285          53.000    21118886.280    87651258.965        2024.535          50.000  
R18  20862919.260   111367720.945        2092.121          53.750    20862927.300    86619352.066        1626.969          53.500  
R16  21113039.940   112782102.848        -492.168          53.000    21113048.260    87719428.531        -383.426          52.000  
R15  22049004.880   117823222.035       -3805.980          47.000    22049017.220    91640294.301       -2960.031          44.500  
R01  21402171.040   114406907.891       -1309.906          48.500    21402181.940    88983161.242       -1016.684          45.500  
R24  22547237.760   120570238.418       -2944.570          42.000    22547249.480    93776842.375       -2290.223          41.000  
C36  24604360.740   128121352.574       -1360.680          47.750                                                                  
C27  21787677.820   113454153.215        -877.414          53.500                                                                  
C30  22630979.080   117845450.309        1661.293          52.250                                                                  
C33  25264459.360   131558663.063       -2018.910          47.500                                                                  
C13  39161109.680   203922165.109       -1115.980          45.500    39161119.980   157685581.297        -863.391          42.000  
C32  24761816.380   128941306.516        3223.016          45.250                                                                  
C28  24731782.440   128784882.859       -2532.320          48.000                                                                  
E11  22577969.260   118648032.996         293.172          47.250    22577970.240    90912118.316         224.391          48.500  
E02  26065577.960   136975543.434        1731.473          44.750    26065584.140   104955307.668        1326.910          48.500  
E12  25248232.320   132680351.824       -1916.469          45.500    25248235.460   101664161.578       -1468.520          46.750  
E24  26392249.960   138692189.508       -3061.348          44.250    26392258.300   106270646.855       -2344.328          45.500  
E25  24217161.260   127262039.027        -964.352          49.500    24217166.960    97512475.637        -739.316          51.750  
E36  26244913.240   137917954.625        2078.238          44.000    26244922.640   105677435.219        1591.852          48.000  
E19  26983613.340   141799850.516        1086.480          34.250    26983622.240   108651851.684         832.750          42.750  
> 2024 05 29 11 22 27.0000000  0 29       0.000000000000
G18  24469969.660   128590560.770       -3137.727          46.500    24469976.320   100200469.793       -2445.965          44.750  
G27  20093867.060   105593984.613        -170.457          54.000    20093870.680    82281044.242        -132.328          50.000  
G08  21173611.840   111268086.773        2011.219          52.000    21173617.160    86702438.172        1567.520          50.500  
G10  20806532.420   109339066.066         529.922          53.750    20806536.180    85199298.047         414.527          48.500  
G16  22014113.540   115684940.238       -2934.977          48.750                                                                  
G21  22882818.960   120250023.664        2440.742          47.000                                                                  
G23  21531150.100   113146957.102       -1851.859          51.750    21531152.240    88166473.145       -1442.945          49.500  
G26  24627992.800   129420932.148       -3690.328          40.750    24628005.160   100847578.500       -2871.699          37.000  
R17  19690950.340   105370293.836        -547.828          53.500    19690958.640    81954667.383        -426.090          52.000  
R02  21118381.140   112691792.977        2601.848          52.750    21118389.660    87649197.086        2024.113          50.000  
R18  20862518.000   111365580.164        2092.559          53.750    20862526.260    86617686.980        1628.625          52.750  
R16  21113123.400   112782546.879        -491.590          53.750    21113131.280    87719773.895        -383.156          51.500  
R15  22049708.360   117826978.586       -3806.180          46.750    22049719.680    91643216.023       -2959.707          45.500  
R01  21402407.060   114408169.250       -1310.109          48.750    21402417.240    88984142.336       -1019.980          45.500  
R24  22547779.460   120573134.750       -2942.582          40.000    22547790.280    93779095.066       -2289.438          39.250  
C36  24604612.700   128122665.527       -1359.352          47.500                                                                  
C27  21787837.360   113454983.598        -876.641          53.500                                                                  
C30  22630650.920   117843741.906        1661.285          52.250                                                                  
C33  25264837.860   131560635.164       -2018.590          46.750                                                                  
C13  39161314.480   203923232.871       -1115.172          45.250    39161325.280   157686407.035        -862.273          42.750  
C32  24761188.460   128938034.879        3223.586          45.750                                                                  
C28  24732259.560   128787366.785       -2530.992          47.250                                                                  
E11  22577904.520   118647692.051         294.109          47.500    22577905.320    90911857.078         225.461          48.250  
E02  26065239.160   136973763.852        1731.500          44.500    26065245.400   104953944.074        1327.023          48.250  
E12  25248588.000   132682221.020       -1917.090          45.250    25248591.140   101665593.797       -1468.418          47.250  
E24  26392823.300   138695203.301       -3059.309          43.500    26392831.520   106272956.121       -2344.992          44.500  
E25  24217335.600   127262955.570        -964.508          49.500    24217341.520    97513177.926        -738.508          51.750  
E36  26244509.020   137915828.629        2078.828          44.500    26244517.960   105675806.223        1594.250          47.250  
E19  26983397.260   141798715.078        1084.711          35.250    26983406.160   108650981.641         835.141          42.000  
> 2024 05 29 11 22 28.0000000  0 29       0.000000000000
G18  24470558.100   128593652.887       -3138.984          47.250    24470564.760   100202879.246       -2445.156          45.500  
G27  20093890.920   105594109.719        -171.488          54.000    20093894.480    82281141.754        -132.305          50.000  
G08  21173220.540   111266029.813        2011.199          52.000    21173225.420    86700835.367        1567.125          50.000  
G10  20806422.900   109338489.953         530.191          54.000    20806426.680    85198849.109         413.383          48.750  
G16  22014663.280   115687828.809       -2934.566          47.750                                                                  
G21  22882345.700   120247537.496        2438.891          46.000                                                                  
G23  21531493.620   113148762.598       -1851.938          52.250    21531495.820    88167880.035       -1443.957          49.250  
G26  24628686.780   129424576.262       -3688.375          41.500    24628699.120   100850418.074       -2875.934          36.750  
R17  19691044.220   105370795.359        -548.555          53.750    19691052.220    81955057.449        -426.883          52.000  
R02  21117884.060   112689144.070        2601.855          53.000    21117893.660    87647136.844        2023.684          50.500  
R18  20862117.400   111363440.953        2092.602          53.250    20862125.300    86616023.172        1628.883          53.000  
R16  21113206.760   112782993.215        -492.938          52.750    21113214.940    87720121.059        -383.520          51.500  
R15  22050411.660   117830737.539       -3806.113          40.750    22050422.680    91646139.625       -2959.930          41.000  
R01  21402643.140   114409432.531       -1311.258          49.250    21402653.700    88985124.891       -1017.602          46.500  
R24  22548322.480   120576032.551       -2945.422          37.000                                                                  
C36  24604865.240   128123980.578       -1359.547          47.000                                                                  
C27  21787997.160   113455815.367        -877.438          53.500                                                                  
C30  22630323.020   117842035.016        1662.242          51.500                                                                  
C33  25265216.820   131562608.703       -2018.836          45.750                                                                  
C13  39161519.720   203924301.672       -1114.820          44.250    39161530.700   157687233.465        -861.438          43.000  
C32  24760560.080   128934765.188        3223.301          44.500                                                                  
C28  24732736.680   128789852.176       -2531.188          48.000                                                                  
E11  22577839.880   118647352.574         292.738          47.250    22577840.800    90911596.965         225.008          48.500  
E02  26064900.540   136971985.887        1732.262          42.250    26064907.260   104952581.750        1328.387          47.000  
E12  25248944.020   132684091.309       -1917.285          46.000    25248946.920   101667026.902       -1467.648          47.250  
E24  26393397.260   138698219.156       -3060.531          43.250    26393405.060   106275266.957       -2345.746          43.750  
E25  24217510.120   127263874.113        -966.250          48.750    24217516.440    97513881.766        -738.820          52.000  
E36  26244104.720   137913704.422        2080.215          44.000    26244113.600   105674178.629        1594.000          46.000  
E19  26983182.100   141797581.133        1087.086          36.250    26983190.240   108650112.848         832.574          40.750  
> 2024 05 29 11 22 29.0000000  0 28       0.000000000000
G18  24471146.180   128596744.227       -3140.129          46.000    24471153.500   100205288.082       -2446.980          46.500  
G27  20093914.460   105594234.113        -171.305          53.750    20093918.140    82281238.684        -133.145          50.000  
G08  21172829.080   111263971.770        2012.293          51.750    21172833.740    86699231.707        1568.355          49.500  
G10  20806313.200   109337913.258         529.660          55.000    20806316.940    85198399.746         413.332          48.750  
G16  22015212.540   115690716.027       -2932.738          48.750                                                                  
G21  22881872.280   120245049.520        2443.227          46.000                                                                  
G23  21531837.060   113150567.813       -1852.227          51.750    21531839.420    88169286.719       -1444.098          49.500  
G26  24629379.740   129428218.539       -3690.438          42.000    24629392.380   100853256.254       -2875.078          39.500  
R17  19691137.640   105371296.211        -548.703          53.250    19691145.620    81955447.008        -427.516          51.750  
R02  21117387.960   112686494.781        2601.008          53.750    21117396.820    87645076.293        2023.332          50.500  
R18  20861715.880   111361300.402        2093.125          52.750    20861724.280    86614358.309        1628.449          52.750  
R16  21113290.460   112783438.801        -492.789          53.000    21113298.140    87720467.605        -383.688          51.500  
R01  21402879.420   114410695.918       -1312.523          48.500    21402889.600    88986107.508       -1020.625          45.500  
R24  22548864.880   120578954.8633      -2944.332          28.500                                                                  
C36  24605117.420   128125294.250       -1359.383          46.500                                                                  
C27  21788156.720   113456646.430        -878.496          53.750                                                                  
C30  22629994.940   117840326.832        1663.031          51.000                                                                  
C33  25265595.300   131564581.945       -2022.395          45.250                                                                  
C13  39161724.820   203925369.746       -1114.855          44.250    39161735.940   157688059.418        -861.891          42.250  
C32  24759932.200   128931494.098        3225.172          46.750                                                                  
C28  24733213.760   128792336.789       -2531.371          47.500                                                                  
E11  22577775.200   118647011.988         294.148          47.000    22577776.060    90911336.000         225.258          48.500  
E02  26064561.960   136970206.789        1732.223          41.750    26064568.580   104951218.555        1328.883          45.750  
E12  25249300.120   132685960.926       -1917.199          46.000    25249302.740   101668459.473       -1468.148          47.000  
E24  26393971.220   138701233.320       -3060.078          44.750    26393978.860   106277576.527       -2345.605          46.500  
E25  24217684.760   127264791.414        -962.871          48.750    24217690.860    97514584.645        -739.367          50.750  
E36  26243700.260   137911578.477        2078.734          44.000    26243709.020   105672549.641        1592.461          45.500  
E19  26982966.080   141796446.965        1086.887          35.750    26982974.540   108649243.785         834.332          42.000  
> 2024 05 29 11 22 30.0000000  0 28       0.000000000000
G18  24471735.340   128599840.051       -3139.070          46.250    24471742.260   100207700.375       -2447.344          45.000  
G27  20093938.800   105594361.711        -171.789          54.000    20093942.320    82281338.129        -134.664          50.250  
G08  21172437.740   111261915.820        2011.430          51.000    21172442.480    86697629.691        1568.094          49.250  
G10  20806204.040   109337340.395         528.707          54.250    20806207.780    85197953.402         411.156          49.250  
G16  22015762.440   115693605.766       -2934.391          49.000                                                                  
G21  22881398.960   120242562.809        2443.277          45.500                                                                  
G23  21532181.320   113152377.324       -1854.902          51.250    21532183.960    88170696.734       -1445.242          49.500  
G26  24630073.040   129431863.305       -3688.238          42.750    24630085.560   100856096.324       -2877.055          39.250  
R17  19691231.860   105371800.570        -549.406          53.250    19691239.880    81955839.277        -427.027          51.500  
R02  21116892.680   112683850.160        2599.695          54.250    21116901.040    87643019.375        2022.324          51.000  
R18  20861315.300   111359161.590        2094.637          53.000    20861323.160    86612694.797        1629.352          52.000  
R16  21113374.340   112783886.641        -492.633          53.000    21113382.400    87720815.973        -383.543          51.750  
R15  22051817.940   117838272.5943      -3804.066          42.250    22051828.860    91652003.4613      -2959.344          43.500  
R01  21403116.980   114411964.125       -1312.875          48.250    21403127.160    88987093.918       -1024.230          44.750  
C36  24605369.760   128126609.309       -1359.723          46.250                                                                  
C27  21788317.020   113457481.051        -878.695          53.500                                                                  
C30  22629667.120   117838620.539        1663.375          51.000                                                                  
C33  25265975.380   131566559.523       -2022.094          45.500                                                                  
C13  39161930.380   203926441.672       -1114.500          43.250    39161941.520   157688888.289        -864.117          42.000  
C32  24759304.820   128928226.141        3223.180          46.750                                                                  
C28  24733691.560   128794825.820       -2531.879          48.000                                                                  
E11  22577710.680   118646673.891         295.762          46.750    22577711.680    90911076.957         225.516          48.250  
E02  26064224.140   136968429.641        1733.270          42.500    26064230.300   104949856.844        1329.199          45.250  
E12  25249656.560   132687834.492       -1917.492          45.750    25249659.320   101669895.086       -1468.902          47.000  
E24  26394544.820   138704250.082       -3061.402          44.750    26394553.140   106279888.047       -2344.875          47.000  
E25  24217859.720   127265710.789        -963.355          48.250    24217865.700    97515289.113        -737.699          51.250  
E36  26243295.960   137909453.664        2080.703          45.000    26243304.760   105670921.520        1593.492          46.000  
E19                                                                  26982759.580   108648378.324         830.484          42.250  
> 2024 05 29 11 22 31.0000000  0 28       0.000000000000
G18  24472324.780   128602937.879       -3140.266          46.250    24472331.920   100210114.320       -2448.199          44.750  
G27  20093963.340   105594490.348        -172.527          53.250    20093966.760    82281438.371        -135.145          50.500  
G08  21172046.360   111259859.609        2012.715          50.250    21172051.260    86696027.438        1568.773          49.500  
G10  20806095.300   109336769.484         526.391          53.750    20806099.020    85197508.531         409.871          49.000  
G16  22016312.500   115696496.789       -2934.445          47.500                                                                  
G21  22880925.820   120240075.582        2443.645          46.250                                                                  
G23  21532526.020   113154188.676       -1855.957          50.750    21532528.420    88172108.184       -1445.582          50.000  
G26  24630767.140   129435509.871       -3689.863          40.750    24630779.020   100858937.770       -2873.785          39.500  
R17  19691326.660   105372305.770        -549.191          53.500    19691333.940    81956232.262        -428.430          52.000  
R02  21116397.860   112681208.488        2596.160          54.250    21116406.220    87640964.781        2020.285          51.250  
R18  20860914.940   111357022.188        2095.938          53.000    20860922.120    86611030.781        1629.105          51.250  
R16  21113458.280   112784334.547        -490.867          52.500    21113466.320    87721164.359        -381.262          50.750  
R15  22052522.100   117842032.1802      -3804.398          43.750    22052533.180    91654927.5742      -2958.211          44.750  
R01  21403354.240   114413234.445       -1315.313          48.750    21403364.460    88988081.988       -1022.801          45.750  
C36  24605622.360   128127923.953       -1356.527          46.750                                                                  
C27  21788477.380   113458316.988        -879.727          53.500                                                                  
C30  22629339.320   117836913.793        1663.898          50.750                                                                  
C33  25266355.400   131568538.738       -2022.516          46.500                                                                  
C13  39162136.480   203927514.668       -1115.160          44.750    39162147.700   157689718.039        -863.707          45.250  
C32  24758677.100   128924960.375        3222.590          45.000                                                                  
C28  24734170.340   128797317.367       -2536.730          48.500                                                                  
E11  22577646.560   118646336.051         293.855          47.000    22577647.520    90910818.102         226.074          48.750  
E02  26063885.660   136966651.840        1733.203          43.750    26063891.880   104948494.633        1328.875          45.000  
E12  25250013.160   132689709.594       -1919.496          46.000    25250016.060   101671331.871       -1470.910          47.250  
E24  26395119.640   138707268.465       -3061.813          44.000    26395127.520   106282200.879       -2345.926          46.000  
E25  24218035.180   127266630.527        -962.551          49.000    24218040.700    97515993.840        -736.875          50.500  
E36  26242892.000   137907328.328        2083.133          44.000    26242900.160   105669293.125        1596.363          42.750  
E19  26982537.200   141794197.4491       1081.695          40.250    26982544.900   108647514.793         828.547          41.250  
> 2024 05 29 11 22 32.0000000  0 28       0.000000000000
G18  24472922.980   128606080.637       -3140.699          46.000    24472929.780   100212563.246       -2448.820          43.250  
G27  20093996.260   105594663.684        -171.430          53.500    20093999.780    82281573.445        -134.406          50.250  
G08  21171663.120   111257846.910        2014.645          50.000    21171668.180    86694459.121        1570.730          48.500  
G10  20805995.380   109336243.980         526.824          54.000    20805999.060    85197099.066         411.418          49.250  
G16  22016871.120   115699432.586       -2933.168          47.500                                                                  
G21  22880460.800   120237631.652        2446.492          42.750                                                                  
G23  21532879.300   113156045.129       -1854.605          51.250    21532881.680    88173554.801       -1444.801          50.500  
G26  24631469.460   129439201.207       -3688.141          40.000    24631481.880   100861814.219       -2875.832          37.250  
R17  19691429.160   105372856.160        -549.090          53.500    19691437.380    81956660.348        -426.313          52.250  
R02  21115911.260   112678613.547        2595.734          54.750    21115920.000    87638946.508        2018.813          51.750  
R18  20860521.480   111354926.594        2097.648          52.500    20860529.680    86609400.938        1630.945          50.500  
R16  21113549.980   112784827.012        -489.816          51.750    21113558.300    87721547.340        -381.480          49.500  
R01  21403601.400   114414550.898       -1316.375          49.000    21403611.040    88989105.875       -1024.324          46.250  
R15                                                                  22053245.120    91657886.824       -2956.648          39.500  
C36  24605883.000   128129281.605       -1355.313          46.250                                                                  
C27  21788646.620   113459197.332        -879.273          53.750                                                                  
C30  22629019.900   117835250.141        1665.852          50.250                                                                  
C33  25266744.000   131570562.313       -2023.363          46.750                                                                  
C13  39162351.220   203928631.605       -1115.313          45.250    39162362.440   157690581.742        -862.027          46.750  
C32  24758058.500   128921739.582        3221.777          45.500                                                                  
C28  24734657.440   128799853.871       -2535.066          48.000                                                                  
E11  22577590.560   118646042.227         295.586          46.750    22577591.640    90910592.984         226.367          48.500  
E02  26063555.380   136964917.125        1736.727          44.500    26063561.800   104947165.488        1329.230          45.500  
E12  25250378.440   132691629.445       -1918.652          45.750    25250381.360   101672802.906       -1470.414          47.750  
E24  26395702.440   138710331.793       -3060.508          44.750    26395710.100   106284548.051       -2348.195          46.000  
E25  24218218.320   127267594.375        -963.023          48.500    24218224.140    97516732.375        -737.590          50.500  
E36  26242496.120   137905246.387        2084.719          39.250    26242504.040   105667697.855        1596.293          42.750  
E19  26982331.460   141793115.813        1083.309          42.500    26982338.720   108646686.004         830.809          39.750  
> 2024 05 29 11 22 33.0000000  0 27       0.000000000000
G18  24473513.440   128609183.852       -3143.238          46.000    24473519.940   100214981.289       -2449.629          43.250  
G27  20094021.820   105594797.672        -175.316          53.500    20094025.280    82281677.863        -136.395          50.000  
G08  21171272.520   111255793.789        2012.262          50.000    21171277.760    86692859.320        1567.980          49.250  
G10  20805888.000   109335679.801         522.590          54.250    20805891.700    85196659.469         406.496          49.000  
G16  22017422.420   115702329.621       -2939.367          48.250                                                                  
G21  22879987.700   120235147.355        2444.031          42.750                                                                  
G23  21533224.920   113157862.313       -1858.492          51.250    21533227.320    88174970.785       -1447.551          50.750  
G26  24632164.280   129442853.988       -3693.348          39.500    24632177.520   100864660.516       -2877.605          39.250  
R17  19691524.300   105373365.891        -551.309          53.250    19691532.520    81957056.801        -428.598          52.250  
R02  21115417.960   112675979.910        2591.633          55.250    21115426.780    87636898.129        2015.285          52.250  
R18  20860122.000   111352789.711        2096.426          52.250    20860129.760    86607738.926        1629.660          49.000  
R16  21113635.020   112785278.813        -494.023          52.500    21113643.000    87721898.781        -383.566          49.250  
R01  21403839.500   114415827.500       -1318.922          48.500    21403849.360    88990098.805       -1025.344          45.750  
C36  24606136.180   128130599.258       -1358.637          44.750                                                                  
C27  21788808.200   113460038.617        -881.547          53.500                                                                  
C30  22628692.900   117833546.340        1663.555          50.250                                                                  
C33  25267125.200   131572546.438       -2023.879          46.250                                                                  
C13  39162558.320   203929708.715       -1117.480          45.250    39162569.420   157691414.625        -863.961          46.500  
C32  24757432.780   128918480.750        3215.398          46.250                                                                  
C28  24735137.100   128802351.871       -2537.250          47.750                                                                  
E11  22577526.540   118645708.441         291.801          46.250    22577528.080    90910337.230         224.504          47.750  
E02  26063217.500   136963141.598        1736.027          44.500    26063223.860   104945805.008        1330.563          46.000  
E12  25250736.300   132693509.574       -1919.629          45.750    25250739.060   101674243.563       -1470.977          47.750  
E24  26396278.160   138713356.508       -3066.035          45.500    26396285.480   106286865.770       -2349.129          45.500  
E25  24218394.140   127268518.621        -966.941          48.000    24218400.060    97517440.586        -740.461          50.250  
E36  26242091.620   137903124.066        2081.117          42.500    26242100.420   105666071.688        1595.375          41.750  
E19  26982118.420   141791995.078        1080.660          42.750    26982125.260   108645827.242         830.047          40.750  
> 2024 05 29 11 22 34.0000000  0 27       0.000000000000
G18  24474103.780   128612286.301       -3143.348          45.750    24474110.360   100217398.750       -2449.250          43.250  
G27  20094047.060   105594931.227        -175.082          53.250    20094050.740    82281781.941        -135.992          50.250  
G08  21170881.560   111253739.273        2014.219          50.000    21170886.780    86691258.402        1568.582          48.500  
G10  20805780.680   109335115.938         521.152          54.500    20805784.460    85196220.109         406.879          49.750  
G16  22017974.040   115705227.418       -2940.715          47.750                                                                  
G21  22879514.860   120232662.230        2442.770          43.500                                                                  
G23  21533570.640   113159678.887       -1857.566          50.500    21533573.100    88176386.289       -1446.184          50.500  
G26  24632860.040   129446507.902       -3695.711          42.000    24632872.860   100867507.781       -2877.031          37.250  
R17  19691619.460   105373874.422        -549.711          53.000    19691627.680    81957452.340        -426.965          52.250  
R02  21114924.240   112673347.188        2591.406          54.750    21114933.340    87634850.473        2015.031          52.000  
R18  20859721.760   111350651.215        2097.715          52.250    20859728.800    86606075.691        1631.855          49.500  
R16  21113719.180   112785729.859        -492.152          52.000    21113727.320    87722249.652        -383.406          49.750  
R01  21404078.720   114417103.547       -1317.234          48.500    21404087.400    88991091.277       -1023.754          46.000  
C36  24606389.040   128131916.160       -1359.523          46.000                                                                  
C27  21788969.700   113460879.297        -881.441          53.500                                                                  
C30  22628365.320   117831841.105        1664.535          50.250                                                                  
C33  25267505.860   131574529.445       -2021.328          46.500                                                                  
C13  39162764.660   203930784.184       -1115.164          44.500    39162775.920   157692246.227        -860.910          45.000  
C32  24756807.180   128915223.168        3215.484          47.000                                                                  
C28  24735616.860   128804849.863       -2537.824          47.500                                                                  
E11  22577463.300   118645373.656         293.195          47.000    22577464.400    90910080.738         224.453          48.000  
E02  26062880.000   136961364.188        1738.152          44.750    26062886.020   104944443.133        1329.719          45.750  
E12  25251094.220   132695388.680       -1920.355          45.750    25251096.660   101675683.398       -1472.215          47.500  
E24  26396853.920   138716382.277       -3067.055          46.250    26396861.580   106289184.160       -2349.563          46.500  
E25  24218569.760   127269442.602        -964.934          48.750    24218575.740    97518148.594        -740.086          50.500  
E36  26241686.980   137901001.004        2079.512          40.250    26241696.280   105664444.906        1594.785          44.750  
E19  26981904.880   141790874.012        1078.879          42.500    26981912.040   108644968.199         829.539          41.750  
> 2024 05 29 11 22 35.0000000  0 27       0.000000000000
G18  24474693.740   128615386.191       -3140.988          45.250    24474700.180   100219814.355       -2447.875          43.000  
G27  20094072.180   105595063.598        -173.441          53.250    20094076.020    82281885.078        -135.359          50.000  
G08  21170490.460   111251683.043        2015.688          49.750    21170495.520    86689656.164        1570.488          48.500  
G10  20805673.180   109334551.266         522.809          54.500    20805677.020    85195780.102         409.414          49.750  
G16  22018525.340   115708125.125       -2939.715          47.000                                                                  
G21  22879041.680   120230175.980        2446.219          44.000                                                                  
G23  21533915.920   113161493.586       -1854.484          50.250    21533918.360    88177800.363       -1446.156          50.250  
G26  24633555.720   129450161.535       -3696.875          39.500                                                                  
R17  19691714.220   105374380.926        -548.059          53.000    19691722.460    81957846.293        -426.730          51.500  
R02  21114430.300   112670713.719        2591.262          54.750    21114439.740    87632802.242        2014.953          52.500  
R18  20859320.200   111348510.895        2098.688          51.250    20859328.400    86604411.008        1633.195          50.250  
R16  21113803.300   112786179.941        -492.813          51.250    21113811.720    87722599.719        -381.789          48.750  
R01  21404316.920   114418377.648       -1316.105          48.000    21404326.680    88992082.258       -1024.223          45.750  
C36  24606641.580   128133232.008       -1357.230          45.500                                                                  
C27  21789130.800   113461718.309        -879.082          53.500                                                                  
C30  22628037.720   117830134.195        1666.008          51.000                                                                  
C33  25267886.460   131576509.906       -2020.031          47.250                                                                  
C13  39162970.860   203931856.680       -1114.336          45.750    39162981.740   157693075.590        -862.008          45.500  
C32  24756181.800   128911965.230        3217.563          48.000                                                                  
C28  24736096.000   128807346.098       -2537.422          47.000                                                                  
E11  22577399.420   118645037.355         293.855          46.500    22577400.360    90909823.055         225.758          48.250  
E02  26062540.740   136959584.781        1738.828          44.250    26062547.360   104943079.684        1332.691          45.750  
E12  25251450.900   132697265.465       -1917.977          45.250    25251453.760   101677121.438       -1469.711          47.500  
E24  26397429.400   138719408.016       -3067.238          42.750    26397437.240   106291502.625       -2350.875          45.250  
E25  24218745.800   127270365.930        -963.836          48.500    24218751.480    97518856.102        -738.883          49.750  
E36  26241283.580   137898876.824        2083.895          42.000    26241292.520   105662817.254        1596.535          45.000  
E19  26981690.920   141789750.813        1082.348          41.500    26981698.260   108644107.566         828.273          41.500  
> 2024 05 29 11 22 36.0000000  0 28       0.000000000000
G18  24475283.480   128618485.953       -3140.781          41.500    24475289.680   100222229.445       -2444.008          37.500  
G27  20094097.520   105595196.871        -174.461          53.000    20094101.160    82281988.953        -136.223          50.000  
G08  21170099.200   111249627.473        2015.273          50.250    21170104.420    86688054.410        1569.965          48.750  
G10  20805565.880   109333987.730         521.289          54.500    20805569.920    85195340.980         407.523          49.750  
G16  22019076.900   115711024.340       -2941.477          42.250                                                                  
G21  22878568.740   120227690.922        2444.895          44.250                                                                  
G23  21534261.240   113163308.711       -1856.313          50.000    21534263.680    88179214.734       -1446.488          50.750  
G26  24634250.240   129453816.582       -3696.973          37.750                                                                  
R17  19691808.880   105374887.781        -548.523          52.500    19691817.180    81958240.508        -426.867          51.500  
R02  21113937.180   112668081.520        2590.301          54.500    21113946.560    87630754.953        2014.102          51.750  
R18  20858919.380   111346371.125        2098.555          51.250    20858927.600    86602746.723        1632.066          50.250  
R16  21113887.880   112786631.387        -493.219          51.250    21113895.780    87722950.848        -383.711          48.750  
R01  21404554.960   114419652.371       -1317.227          47.750    21404564.740    88993073.727       -1024.258          45.250  
R15                                                                  22056072.640    91669645.4183      -2963.004          37.500  
C36  24606894.540   128134549.051       -1356.711          45.500                                                                  
C27  21789291.800   113462557.773        -880.730          53.000                                                                  
C30  22627710.080   117828427.832        1665.309          50.500                                                                  
C33  25268266.920   131578490.402       -2020.500          47.250                                                                  
C13  39163176.920   203932928.855       -1113.313          44.500    39163187.340   157693904.633        -861.871          44.250  
C32  24755556.040   128908708.758        3216.102          48.250                                                                  
C28  24736575.600   128809842.633       -2537.141          48.250                                                                  
E11  22577335.340   118644701.648         293.473          46.500    22577336.500    90909565.855         226.570          48.000  
E02  26062202.200   136957805.777        1737.023          42.500    26062208.780   104941716.590        1331.227          46.000  
E12  25251808.380   132699142.199       -1919.047          46.000    25251810.960   101678559.469       -1469.332          47.250  
E24  26398005.720   138722434.906       -3069.500          42.500    26398013.280   106293822.059       -2347.941          43.750  
E25  24218921.780   127271290.559        -965.637          49.000    24218927.380    97519564.555        -739.996          49.750  
E36  26240879.100   137896753.602        2083.605          42.750    26240888.200   105661190.465        1595.113          45.250  
E19  26981477.240   141788627.926        1080.793          39.750    26981484.760   108643247.172         827.324          41.750  
> 2024 05 29 11 22 37.0000000  0 25       0.000000000000
G27  20094124.440   105595337.910        -174.375          53.250    20094128.060    82282098.863        -136.438          50.250  
G08  21169709.420   111247579.445        2013.902          49.750    21169714.680    86686458.578        1568.543          49.000  
G10  20805460.260   109333432.137         521.176          54.500    20805464.260    85194908.063         405.777          49.750  
G16  22019630.460   115713931.984       -2940.332          43.250                                                                  
G21  22878097.240   120225213.672        2443.418          44.500                                                                  
G23  21534608.160   113165131.379       -1855.891          50.250    21534610.680    88180634.996       -1446.957          50.750  
R17  19691904.940   105375402.098        -548.805          52.500    19691913.040    81958640.535        -426.910          51.500  
R02  21113445.320   112665457.496        2590.242          54.250    21113454.620    87628714.086        2013.898          52.250  
R18  20858519.860   111344238.980        2097.355          51.750    20858528.380    86601088.402        1631.152          50.500  
R16  21113973.680   112787091.227        -495.324          51.250    21113981.840    87723308.512        -382.961          49.250  
R01  21404795.300   114420935.008       -1316.395          47.500    21404804.900    88994071.320       -1024.141          45.750  
C36  24607148.980   128135874.012       -1359.828          45.000                                                                  
C27  21789454.520   113463404.590        -881.141          53.000                                                                  
C30  22627383.760   117826728.871        1666.660          50.750                                                                  
C33  25268648.400   131580478.188       -2020.996          45.000                                                                  
C13  39163383.920   203934007.848       -1112.555          43.750    39163394.860   157694738.949        -859.031          43.750  
C32  24754932.440   128905460.219        3215.813          46.000                                                                  
C28  24737056.660   128812346.469       -2536.832          48.500                                                                  
E11  22577272.920   118644373.457         295.801          46.500    22577273.840    90909314.359         227.016          48.000  
E02  26061865.340   136956034.371        1736.020          43.500    26061871.680   104940359.258        1332.336          46.000  
E12  25252166.680   132701026.020       -1916.336          45.500    25252169.360   101680002.898       -1470.168          47.000  
E25  24219099.020   127272223.199        -967.176          49.750    24219104.800    97520279.191        -741.629          50.250  
E36  26240476.720   137894638.281        2081.902          44.000    26240485.700   105659569.672        1595.664          47.250  
E19  26981264.640   141787512.484        1083.906          39.250    26981272.700   108642392.551         832.027          41.250  
E24                                                                  26398590.660   106296147.750       -2350.477          40.250  
> 2024 05 29 11 22 38.0000000  0 27       0.000000000000
G27  20094154.980   105595498.191        -174.141          53.250    20094158.680    82282223.758        -136.359          50.000  
G08  21169323.280   111245550.555        2014.324          49.500    21169328.680    86684877.598        1569.492          48.500  
G10  20805358.060   109332895.828         522.043          54.500    20805362.020    85194490.160         408.066          49.500  
G16  22020187.400   115716858.418       -2943.168          44.250                                                                  
G21  22877629.220   120222755.551        2441.145          44.000                                                                  
G23  21534958.720   113166973.152       -1855.707          50.250    21534961.300    88182070.145       -1446.418          50.750  
R17  19692004.580   105375935.762        -548.238          52.500    19692012.520    81959055.609        -426.488          50.750  
R02  21112957.560   112662852.973        2590.309          54.500    21112966.360    87626688.352        2014.574          52.250  
R18  20858124.020   111342126.184        2097.391          51.250    20858131.980    86599445.125        1630.746          49.750  
R16  21114063.920   112787571.098        -495.770          51.750    21114071.500    87723681.707        -386.203          48.750  
R15  22057470.720                       -3810.156          39.500                                                                  
R01  21405038.240   114422237.406       -1316.734          47.500    21405048.640    88995084.242       -1026.086          45.250  
R24                                                                  22553779.820    93804032.8053      -2293.473          37.250  
C36  24607407.060   128137218.016       -1361.188          45.250                                                                  
C27  21789620.580   113464270.172        -879.137          53.000                                                                  
C30  22627060.920   117825048.699        1665.414          50.500                                                                  
C33  25269033.520   131582484.809       -2021.461          45.250                                                                  
C13  39163594.300   203935105.125       -1111.133          43.250    39163605.520   157695587.480        -859.359          43.500  
C32  24754312.200   128902230.203        3215.609          47.000                                                                  
C28  24737541.000   128814868.754       -2536.969          48.500                                                                  
E11  22577214.340   118644064.223         294.922          46.750    22577215.120    90909077.410         224.250          47.750  
E02  26061531.880   136954282.031        1737.840          44.250    26061537.740   104939016.547        1329.289          44.000  
E12  25252528.880   132702928.512       -1917.453          45.750    25252531.280   101681460.660       -1469.086          47.000  
E24  26399163.900   138728542.1331      -3069.230          39.250    26399172.340   106298487.824       -2350.816          42.000  
E25  24219280.220   127273175.039        -967.273          49.000    24219285.960    97521008.551        -741.406          51.000  
E36  26240077.560   137892541.898        2079.234          44.000    26240086.520   105657963.301        1594.289          46.000  
E19  26981055.680   141786415.848        1081.023          40.000    26981063.540   108641552.254         824.637          37.500  
> 2024 05 29 11 22 39.0000000  0 29       0.000000000000
G18  24477064.340   128627848.4963      -3139.391          36.750    24477073.940   100229540.5351      -2446.617          33.500  
G27  20094184.720   105595654.168        -178.121          53.250    20094188.260    82282345.297        -139.895          50.000  
G08  21168936.720   111243517.281        2011.324          49.750    21168941.960    86683293.219        1567.266          48.750  
G10  20805255.160   109332355.281         519.688          54.250    20805259.080    85194068.984         404.371          49.500  
G16  22020743.360   115719780.672       -2942.934          44.500                                                                  
G21  22877160.840   120220292.973        2441.848          43.500                                                                  
G23  21535308.320   113168810.480       -1858.129          50.000    21535310.960    88183501.805       -1448.039          50.750  
G26  24636345.460   129464873.0043      -3697.527          33.250                                                                  
R17  19692103.500   105376464.742        -549.742          52.250    19692111.620    81959467.039        -427.707          51.250  
R02  21112468.580   112660244.152        2586.488          55.500    21112477.700    87624659.285        2011.699          52.750  
R18  20857727.680   111340008.832        2095.621          52.000    20857735.340    86597798.305        1630.121          49.750  
R16  21114152.840   112788047.059        -498.160          51.750    21114161.080    87724051.941        -384.078          49.000  
R15  22058177.760   117872271.9843      -3810.871          40.250    22058189.320    91678436.7032      -2966.789          44.250  
R01  21405281.240   114423535.535       -1320.469          47.000    21405290.820    88996093.934       -1026.785          45.500  
R24  22554317.220   120608088.6372      -2948.387          38.250    22554327.740    93806310.6172      -2294.578          36.500  
C36  24607664.260   128138557.984       -1360.973          45.500                                                                  
C27  21789786.040   113465131.184        -881.660          53.750                                                                  
C30  22626737.540   117823364.082        1663.766          51.500                                                                  
C33  25269417.860   131584486.883       -2022.551          45.250                                                                  
C13  39163804.260   203936197.523       -1110.730          44.250    39163815.260   157696432.172        -860.875          43.750  
C32  24753691.420   128898995.848        3213.723          45.000                                                                  
C28  24738024.240   128817386.199       -2538.094          48.000                                                                  
E11  22577154.580   118643750.445         292.953          46.500    22577155.500    90908836.988         224.523          47.750  
E02  26061197.660   136952525.402        1736.875          44.250    26061203.600   104937670.555        1329.629          44.500  
E12  25252889.900   132704826.129       -1918.047          45.750    25252892.620   101682914.684       -1468.887          47.250  
E24  26399745.040   138731591.789       -3073.301          38.750    26399752.300   106300824.328       -2351.879          41.750  
E25  24219460.480   127274122.762        -969.234          49.250    24219466.260    97521734.703        -741.938          50.500  
E36  26239677.880   137890441.137        2080.660          44.500    26239686.740   105656353.645        1594.641          45.500  
E19  26980846.840   141785314.758        1080.270          40.750    26980853.820   108640708.527         828.945          38.750  
> 2024 05 29 11 22 40.0000000  0 27       0.000000000000
G18  24477657.280   128630965.6682      -3138.957          38.750                                                                  
G27  20094213.940   105595807.379        -177.063          53.250    20094217.260    82282464.691        -137.754          49.750  
G08  21168549.260   111241480.828        2012.934          49.750    21168554.040    86681706.398        1567.504          48.000  
G10  20805151.920   109331812.328         518.879          54.750    20805155.660    85193645.879         403.488          49.500  
G16  22021298.520   115722700.277       -2943.965          46.500                                                                  
G21  22876691.900   120217827.301        2443.344          43.250                                                                  
G23  21535657.500   113170645.160       -1857.766          50.250    21535660.260    88184931.461       -1447.914          51.000  
R17  19692202.000   105376990.707        -550.102          52.500    19692209.520    81959876.086        -428.371          50.750  
R02  21111979.280   112657633.223        2586.242          54.750    21111988.320    87622628.535        2012.051          52.500  
R18  20857330.200   111337888.055        2096.613          51.250    20857337.800    86596148.801        1631.008          49.750  
R16  21114241.160   112788520.391        -497.156          51.250    21114249.820    87724420.051        -386.828          49.000  
R15  22058887.300   117876059.797       -3813.188          43.500    22058898.560    91681383.020       -2963.957          43.250  
R01  21405523.460   114424831.266       -1319.480          47.500    21405534.480    88997101.719       -1027.340          45.750  
R24  22554864.000   120611014.918       -2949.777          40.250    22554874.060    93808586.176       -2292.809          39.250  
C36  24607921.040   128139894.914       -1361.125          45.250                                                                  
C27  21789950.880   113465989.289        -882.113          53.250                                                                  
C30  22626413.540   117821676.168        1663.949          50.750                                                                  
C33  25269802.140   131586486.133       -2023.480          45.750                                                                  
C13  39164013.320   203937286.676       -1111.570          44.000    39164024.540   157697274.383        -860.797          44.000  
C32  24753069.680   128895758.980        3213.945          44.000                                                                  
C28  24738506.900   128819900.957       -2538.801          47.250                                                                  
E11  22577094.080   118643433.531         293.543          46.500    22577095.100    90908594.152         224.340          47.750  
E02  26060862.600   136950765.410        1737.145          42.750    26060868.860   104936322.059        1329.758          44.250  
E12  25253250.160   132706720.699       -1918.012          45.500    25253253.120   101684366.344       -1470.480          47.500  
E25  24219640.180   127275067.602        -967.844          49.250    24219646.200    97522458.695        -742.871          51.000  
E36  26239277.440   137888337.055        2080.406          44.500    26239286.520   105654741.441        1594.391          46.250  
E19  26980636.080   141784210.984        1081.082          37.500    26980644.060   108639862.836         826.652          41.750  
> 2024 05 29 11 22 41.0000000  0 28       0.000000000000
G18  24478249.420   128634075.5312      -3142.227          40.000                                                                  
G27  20094241.720   105595954.168        -176.984          53.000    20094245.240    82282579.066        -138.754          49.750  
G08  21168160.280   111239437.863        2014.629          49.500    21168165.480    86680114.484        1567.816          48.750  
G10  20805047.400   109331262.887         519.133          54.750    20805051.180    85193217.750         403.438          49.500  
G16  22021853.320   115725613.508       -2941.949          48.500                                                                  
G21  22876221.000   120215355.051        2441.363          44.250                                                                  
G23  21536005.340   113172473.184       -1857.629          50.000    21536008.040    88186355.875       -1447.438          50.250  
R17  19692299.260   105377509.828        -550.277          52.500    19692306.720    81960279.902        -427.672          50.750  
R02  21111488.520   112655015.559        2586.551          55.000    21111497.900    87620592.605        2012.434          52.000  
R18  20856931.620   111335760.570        2096.211          51.250    20856939.340    86594494.102        1631.695          50.500  
R16  21114328.680   112788987.762        -499.344          51.250    21114337.040    87724783.531        -387.309          49.250  
R15  22059594.300   117879840.547       -3810.805          44.750    22059605.540    91684323.527       -2965.770          46.000  
R01  21405765.440   114426120.461       -1321.004          47.750    21405776.180    88998104.434       -1028.207          45.500  
R24  22555409.660   120613933.223       -2950.586          43.000    22555419.820    93810855.910       -2294.070          43.250  
C36  24608176.700   128141225.590       -1359.820          45.750                                                                  
C27  21790114.420   113466840.668        -880.430          53.250                                                                  
C30  22626087.780   117819981.660        1663.684          50.250                                                                  
C33  25270184.800   131588478.637       -2023.043          45.250                                                                  
C13  39164221.280   203938368.617       -1112.250          44.000    39164232.160   157698110.953        -857.387          43.750  
C32  24752446.680   128892515.066        3212.445          44.250                                                                  
C28  24738988.960   128822408.465       -2537.746          49.500                                                                  
E11  22577032.560   118643109.965         293.273          46.500    22577033.580    90908346.219         224.539          47.750  
E02  26060526.500   136948998.922        1736.141          43.500    26060532.560   104934968.527        1330.582          43.750  
E12  25253609.260   132708608.082       -1917.906          45.500    25253612.500   101685812.543       -1470.219          47.500  
E24  26400902.400   138737685.4101      -3067.086          39.000    26400910.440   106305512.1801      -2352.941          36.000  
E25  24219818.840   127276006.121        -969.027          49.000    24219824.740    97523177.820        -741.750          50.750  
E36  26238875.460   137886226.375        2080.617          43.500    26238884.520   105653124.152        1595.313          45.000  
E19  26980425.680   141783100.328        1080.684          38.500    26980432.760   108639011.777         828.977          41.500  
> 2024 05 29 11 22 42.0000000  0 28       0.000000000000
G18  24478839.360   128637179.4842      -3138.418          39.000    24478846.060   100236792.2031      -2447.352          38.500  
G27  20094268.640   105596095.539        -177.023          53.000    20094272.100    82282689.207        -137.824          50.000  
G08  21167770.280   111237389.383        2013.109          49.250    21167775.600    86678518.258        1569.078          48.500  
G10  20804941.720   109330708.176         519.070          54.500    20804945.640    85192785.512         404.664          49.750  
G16  22022406.640   115728521.434       -2942.477          50.000                                                                  
G21  22875749.480   120212877.273        2442.887          44.250                                                                  
G23  21536352.200   113174295.738       -1859.168          50.000    21536354.620    88187776.047       -1447.715          50.500  
R17  19692395.040   105378023.250        -549.379          52.500    19692402.840    81960679.199        -426.922          51.250  
R02  21110996.940   112652392.629        2586.602          54.250    21111006.060    87618552.535        2012.133          52.000  
R18  20856532.220   111333627.332        2097.512          51.750    20856540.320    86592834.930        1631.938          51.250  
R16  21114415.340   112789450.020        -497.641          51.750    21114423.640    87725143.098        -387.613          48.500  
R15  22060301.180   117883616.008       -3811.387          46.250    22060311.980    91687259.906       -2965.289          44.250  
R01  21406005.320   114427404.410       -1320.477          47.500    21406016.060    88999103.059       -1028.699          45.250  
R24  22555954.460   120616845.578       -2948.172          44.250    22555965.180    93813121.090       -2292.297          45.500  
C36  24608431.240   128142551.000       -1363.262          45.000                                                                  
C27  21790276.740   113467686.418        -881.543          53.250                                                                  
C30  22625761.360   117818281.531        1666.328          50.250                                                                  
C33  25270566.540   131590465.586       -2021.891          46.000                                                                  
C13  39164427.640   203939444.594       -1112.398          43.250    39164438.720   157698943.004        -858.641          44.250  
C32  24751822.500   128889265.715        3214.676          43.250                                                                  
C28  24739469.380   128824910.262       -2536.832          49.250                                                                  
E11  22576969.880   118642780.703         293.781          46.500    22576970.940    90908093.938         223.840          47.750  
E02  26060189.020   136947227.000        1738.109          43.250    26060195.280   104933610.762        1329.844          44.000  
E12  25253967.420   132710489.609       -1918.496          45.750    25253970.600   101687254.234       -1469.281          47.750  
E24  26401480.380   138740719.879       -3069.070          36.000                                                                  
E25  24219996.460   127276939.297        -969.777          49.250    24220002.420    97523892.828        -741.480          51.000  
E36  26238473.060   137884110.047        2080.098          43.500    26238482.080   105651502.555        1595.395          46.250  
E19  26980212.880   141781984.094        1081.258          38.750    26980220.480   108638156.434         828.457          40.000  
> 2024 05 29 11 22 43.0000000  0 28       0.000000000000
G18  24479436.020   128640319.0232      -3138.012          40.750    24479442.380   100239238.613       -2443.785          39.250  
G27  20094302.400   105596272.719        -175.449          53.250    20094305.840    82282827.285        -137.625          49.500  
G08  21167387.200   111235376.449        2015.039          49.000    21167392.740    86676949.758        1569.875          48.500  
G10  20804843.020   109330189.406         520.125          54.500    20804846.780    85192381.262         405.184          49.500  
G16  22022966.820   115731464.980       -2941.164          50.250                                                                  
G21  22875284.840   120210434.949        2443.793          44.250                                                                  
G23  21536705.640   113176154.211       -1856.324          49.750    21536708.360    88189224.238       -1445.977          50.000  
R17  19692497.740   105378572.973        -547.625          52.500    19692505.500    81961106.793        -425.594          51.250  
R02  21110512.200   112649806.355        2587.758          54.500    21110521.460    87616541.004        2013.738          52.250  
R18  20856139.280   111331530.172        2099.688          51.750    20856147.440    86591203.832        1633.898          50.250  
R16  21114508.700   112789948.961        -497.574          51.500    21114516.900    87725531.156        -387.605          48.500  
R15  22061014.800   117887427.473       -3808.578          47.500    22061025.260    91690224.410       -2962.363          44.000  
R01  21406252.860   114428725.309       -1318.773          47.250    21406262.260    89000130.449       -1026.102          45.250  
R24  22556505.240   120619794.191       -2945.246          43.750    22556516.240    93815414.445       -2292.070          45.250  
C36  24608692.920   128143911.723       -1360.074          46.000                                                                  
C27  21790446.060   113468567.477        -879.344          53.250                                                                  
C30  22625441.600   117816616.496        1666.906          49.750                                                                  
C33  25270954.680   131592488.148       -2020.527          45.000                                                                  
C13  39164641.020   203940555.711       -1109.363          43.250    39164652.160   157699802.219        -857.902          44.250  
C32  24751205.180   128886051.602        3216.160          42.750                                                                  
C28  24739956.260   128827447.379       -2534.223          46.500                                                                  
E11  22576913.820   118642486.922         295.871          46.250    22576915.020    90907868.840         225.426          47.750  
E02  26059859.520   136945490.645        1740.246          42.750    26059865.160   104932280.305        1332.879          44.250  
E12  25254332.460   132712406.715       -1912.773          45.500    25254335.240   101688723.176       -1467.398          48.000  
E24  26402064.300   138743789.594       -3066.215          40.250    26402072.700   106310192.559       -2350.164          45.750  
E25  24220180.900   127277908.133        -966.070          49.500    24220186.760    97524635.184        -740.477          51.000  
E36  26238076.880   137882029.047        2082.094          43.750    26238085.900   105649908.051        1596.051          46.000  
E19  26980008.040   141780903.824        1082.086          38.500    26980015.100   108637328.691         829.324          41.750  
> 2024 05 29 11 22 44.0000000  0 28       0.000000000000
G18  24480024.380   128643411.719       -3136.234          41.250    24480031.000   100241648.469       -2443.973          40.250  
G27  20094327.220   105596403.398        -176.645          53.000    20094330.820    82282929.105        -136.051          50.000  
G08  21166995.300   111233316.832        2015.164          49.500    21167000.560    86675344.844        1569.391          48.500  
G10  20804735.680   109329624.270         520.637          54.750    20804739.320    85191940.902         406.066          49.500  
G16  22023517.940   115734361.949       -2942.250          50.000                                                                  
G21  22874811.120   120207945.742        2445.102          44.250                                                                  
G23  21537050.620   113177966.289       -1855.633          50.250    21537053.020    88190636.242       -1446.512          50.000  
R17  19692591.140   105379075.211        -547.297          52.000    19692599.320    81961497.406        -426.293          51.750  
R02  21110018.940   112647173.094        2587.684          54.750    21110027.620    87614492.898        2011.668          52.500  
R18  20855737.660   111329385.441        2100.207          51.250    20855745.640    86589535.668        1632.543          51.000  
R16  21114593.460   112790400.914        -497.965          52.750    21114601.240    87725882.668        -387.250          48.750  
R15  22061719.020   117891191.594       -3810.609          49.750    22061729.680    91693152.020       -2962.605          47.500  
R01  21406490.960   114429999.309       -1318.188          47.000    21406499.920    89001121.305       -1026.023          45.000  
R24  22557048.820   120622695.133       -2946.109          46.000    22557058.860    93817670.703       -2293.316          45.000  
C36  24608945.540   128145226.238       -1360.008          45.750                                                                  
C27  21790606.380   113469402.223        -878.246          53.000                                                                  
C30  22625113.100   117814905.023        1667.020          51.000                                                                  
C33  25271334.420   131594464.656       -2021.379          46.000                                                                  
C13  39164845.760   203941620.359       -1107.887          42.750    39164856.600   157700625.449        -856.703          43.750  
C32  24750578.960   128882791.027        3215.051          40.750                                                                  
C28  24740434.700   128829938.113       -2534.797          47.750                                                                  
E11  22576849.100   118642146.332         296.961          46.250    22576850.120    90907607.875         227.488          47.750  
E02  26059518.860   136943707.488        1738.387          39.500    26059525.820   104930914.117        1332.145          42.250  
E12  25254688.360   132714276.902       -1915.285          45.250    25254691.120   101690156.199       -1468.395          48.000  
E24  26402639.220   138746812.543       -3068.102          43.750    26402647.600   106312508.730       -2351.930          45.500  
E25  24220356.300   127278830.363        -967.234          49.250    24220362.220    97525341.836        -741.305          51.000  
E36  26237672.220   137879901.063        2081.984          43.750    26237681.320   105648277.484        1594.000          46.250  
E19  26979793.080   141779776.945        1083.242          39.500    26979800.720   108636465.250         832.813          41.000  
> 2024 05 29 11 22 45.0000000  0 28       0.000000000000
G18  24480613.040   128646502.734       -3134.660          40.500    24480619.200   100244057.055       -2443.379          42.250  
G27  20094351.960   105596533.703        -174.641          52.750    20094355.660    82283030.648        -137.008          50.000  
G08  21166603.120   111231256.953        2016.023          49.250    21166608.500    86673739.770        1571.230          48.500  
G10  20804627.940   109329058.668         520.699          54.250    20804631.800    85191500.188         407.398          49.750  
G16  22024069.200   115737258.680       -2941.578          49.750                                                                  
G21  22874337.620   120205456.426        2445.090          44.250                                                                  
G23  21537395.440   113179777.555       -1854.574          50.250    21537397.460    88192047.598       -1445.539          49.500  
R17  19692685.000   105379576.746        -546.273          51.250    19692693.160    81961887.473        -425.324          51.000  
R02  21109525.360   112644539.207        2588.762          55.250    21109534.400    87612444.340        2013.402          52.500  
R18  20855335.820   111327240.344        2101.137          51.750    20855343.460    86587867.270        1633.273          49.000  
R16  21114678.240   112790853.313        -497.648          52.000    21114686.860    87726234.555        -388.074          49.000  
R15  22062423.460   117894955.711       -3810.992          51.250    22062434.100    91696079.715       -2962.809          49.000  
R01  21406729.040   114431272.695       -1317.867          46.750    21406739.400    89002111.762       -1024.672          45.250  
R24  22557590.440   120625594.590       -2943.723          46.500    22557601.020    93819925.918       -2289.527          45.750  
C36  24609197.560   128146540.863       -1359.348          45.250                                                                  
C27  21790766.520   113470236.152        -876.805          53.000                                                                  
C30  22624784.480   117813193.176        1668.613          50.750                                                                  
C33  25271713.760   131596440.156       -2018.238          45.750                                                                  
C13  39165049.620   203942683.465       -1107.520          43.250    39165060.700   157701447.551        -852.527          43.500  
C32  24749952.440   128879529.832        3216.273          40.750                                                                  
C28  24740913.020   128832427.371       -2533.230          49.250                                                                  
E11  22576784.040   118641805.223         297.480          46.250    22576785.300    90907346.512         228.176          47.750  
E02  26059179.200   136941924.277        1738.758          36.750    26059186.640   104929547.707        1333.070          43.500  
E12  25255044.020   132716145.805       -1912.496          44.750    25255046.760   101691588.207       -1465.734          47.250  
E24  26403214.780   138749834.859       -3066.082          46.000    26403222.520   106314824.508       -2351.324          46.500  
E25  24220531.860   127279752.539        -966.883          49.250    24220537.800    97526048.445        -740.063          51.000  
E36  26237266.280   137877772.891        2083.270          43.000    26237276.260   105646646.832        1595.336          46.250  
E19  26979578.380   141778648.875        1082.859          39.000    26979585.960   108635600.934         832.508          40.750  
> 2024 05 29 11 22 46.0000000  0 29       0.000000000000
G18  24481200.220   128649589.691       -3132.930          41.000    24481206.620   100246462.398       -2441.508          42.000  
G27  20094376.140   105596660.215        -174.102          53.000    20094379.800    82283129.258        -136.289          50.000  
G08  21166210.740   111229193.086        2015.395          49.500    21166215.720    86672131.504        1570.684          47.250  
G10  20804519.940   109328489.488         520.680          54.500    20804523.460    85191056.664         406.660          50.000  
G16  22024619.880   115740151.750       -2940.746          50.000                                                                  
G21  22873863.120   120202963.254        2445.961          44.500                                                                  
G23  21537739.520   113181585.039       -1855.641          50.500    21537741.360    88193456.000       -1444.398          49.500  
G26  24641228.340   129490540.5783      -3691.020          43.500    24641240.800   100901775.7701      -2874.668          39.250  
R17  19692778.000   105380074.172        -545.105          50.000    19692786.060    81962274.371        -425.426          50.000  
R02  21109031.280   112641901.906        2588.992          54.750    21109040.420    87610393.109        2014.168          53.250  
R18  20854933.280   111325091.047        2101.488          49.000    20854941.300    86586195.680        1637.871          47.250  
R16  21114762.120   112791302.273        -496.941          51.000    21114770.700    87726583.688        -387.902          49.750  
R15  22063127.060   117898716.141       -3809.191          49.500    22063137.940    91699004.484       -2962.691          49.500  
R01  21406966.300   114432542.504       -1317.535          47.250    21406976.680    89003099.402       -1024.207          45.000  
R24  22558132.040   120628489.949       -2942.973          47.500    22558143.380    93822177.852       -2287.656          48.250  
C36  24609449.360   128147851.707       -1356.566          46.250                                                                  
C27  21790925.880   113471066.078        -877.293          53.250                                                                  
C30  22624454.880   117811477.215        1668.707          49.250                                                                  
C33  25272092.400   131598411.910       -2019.496          43.250                                                                  
C13  39165253.280   203943742.434       -1105.582          39.750    39165263.780   157702266.434        -853.617          41.000  
C32  24749325.600   128876264.762        3219.004          43.500                                                                  
C28  24741389.840   128834912.691       -2532.426          46.500                                                                  
E11  22576718.560   118641460.012         297.402          46.000    22576719.540    90907081.992         228.520          47.500  
E02  26058839.980   136940136.953        1739.453          42.250    26058846.400   104928178.164        1333.207          42.500  
E12  25255398.240   132718010.508       -1909.777          44.750    25255401.620   101693017.027       -1464.422          46.750  
E24  26403789.260   138752853.520       -3065.199          47.000    26403796.900   106317137.504       -2348.262          47.250  
E25  24220706.680   127280670.996        -965.664          49.250    24220712.480    97526752.203        -740.371          50.750  
E36  26236861.600   137875640.656        2086.094          44.250    26236870.360   105645013.031        1598.676          45.750  
E19  26979363.440   141777517.094        1086.652          39.250    26979370.500   108634733.668         830.855          41.000  
> 2024 05 29 11 22 47.0000000  0 29       0.000000000000
G18  24481786.480   128652670.801       -3133.770          42.500    24481793.040   100248863.273       -2438.227          40.500  
G27  20094399.240   105596781.441        -171.637          52.750    20094402.820    82283223.715        -134.555          49.750  
G08  21165816.680   111227123.793        2019.242          45.750    21165822.140    86670519.207        1574.527          47.750  
G10  20804410.580   109327915.102         522.926          54.500    20804414.200    85190609.074         406.445          49.500  
G16  22025169.280   115743039.391       -2939.793          49.750                                                                  
G21  22873387.660   120200464.328        2446.965          43.500                                                                  
G23  21538082.320   113183387.223       -1852.152          49.500    21538084.460    88194860.316       -1443.176          49.500  
G26  24641920.360   129494179.6292      -3688.434          44.250    24641933.180   100904611.414       -2875.934          40.250  
R17  19692870.120   105380566.133        -542.789          48.500    19692877.900    81962657.078        -423.465          47.750  
R02  21108535.300   112639259.336        2590.641          54.250    21108545.160    87608337.793        2015.941          52.750  
R18  20854529.040   111322936.234        2103.438          49.000    20854537.580    86584519.582        1634.176          47.500  
R16  21114844.740   112791746.191        -496.109          50.250    21114853.880    87726929.012        -384.980          49.500  
R15  22063829.400   117902470.902       -3806.500          50.750    22063840.860    91701924.836       -2960.824          48.750  
R01  21407203.400   114433807.543       -1315.824          45.750    21407213.620    89004083.316       -1026.223          41.250  
R24  22558672.640   120631379.488       -2940.773          48.000    22558683.080    93824425.215       -2287.793          48.500  
C36  24609700.260   128149157.203       -1356.883          45.500                                                                  
C27  21791084.120   113471890.551        -874.512          52.750                                                                  
C30  22624124.200   117809755.730        1672.082          48.500                                                                  
C33  25272469.460   131600378.109       -2014.086          39.000                                                                  
C32  24748697.460   128872993.875        3220.418          43.750                                                                  
C28  24741865.800   128837392.371       -2528.664          46.250                                                                  
C13                                                                  39165466.360   157703080.930        -855.059          40.250  
E11  22576652.120   118641109.285         300.504          45.750    22576652.680    90906813.242         229.746          47.500  
E02  26058498.520   136938344.059        1742.844          40.750    26058505.160   104926804.402        1334.785          43.500  
E12  25255751.900   132719869.488       -1908.883          44.250    25255755.260   101694441.426       -1463.863          45.500  
E24  26404362.640   138755866.332       -3063.340          47.500    26404370.080   106319446.035       -2348.367          48.500  
E25  24220880.500   127281584.051        -963.078          48.750    24220886.340    97527451.813        -737.727          50.750  
E36  26236454.440   137873502.672        2087.957          44.000    26236463.520   105643374.863        1599.355          47.250  
E19  26979146.720   141776379.895        1084.805          38.000    26979154.120   108633862.297         832.906          40.000  
> 2024 05 29 11 22 48.0000000  0 28       0.000000000000
G18  24482373.000   128655753.750       -3134.320          41.250    24482380.180   100251265.570       -2438.996          42.750  
G27  20094422.760   105596905.047        -170.840          49.250    20094426.120    82283320.113        -132.906          47.000  
G08  21165422.960   111225056.352        2023.078          43.250    21165428.360    86668908.117        1574.141          45.250  
G10  20804301.520   109327343.395         524.586          51.250    20804305.600    85190163.621         406.945          47.500  
G16  22025719.220   115745929.328       -2937.754          49.000                                                                  
G21  22872912.640   120197967.340        2449.258          44.250                                                                  
G23  21538425.800   113185191.730       -1849.402          45.500                                                                  
G26  24642613.400   129497820.5512      -3687.578          43.500    24642625.220   100907448.547       -2874.563          38.500  
R17  19692962.100   105381059.891        -540.117          42.500    19692968.080    81963036.6053       -422.957          37.000  
R02  21108041.300   112636619.352        2591.305          54.750    21108049.840    87606284.414        2015.969          52.250  
R18  20854125.620   111320783.004        2104.520          50.000    20854134.760    86582844.941        1636.527          48.750  
R16  21114928.280   112792192.582        -495.941          50.500    21114936.860    87727276.191        -385.258          47.000  
R15  22064532.980   117906227.859       -3804.969          50.250    22064544.260    91704846.883       -2960.094          49.250  
R01  21407440.120   114435074.836       -1313.727          42.750                                                                  
R24  22559213.540   120634271.074       -2939.469          44.250    22559223.760    93826674.227       -2285.867          46.500  
C36  24609951.660   128150464.766       -1354.707          45.750                                                                  
C27  21791243.020   113472717.203        -871.746          50.750                                                                  
C30  22623793.560   117808035.988        1674.758          45.750                                                                  
C32  24748070.020   128869725.164        3221.832          45.250                                                                  
C28  24742342.860   128839873.848       -2528.484          49.250                                                                  
C13                                                                  39165669.440   157703896.273        -852.848          36.000  
E11  22576585.320   118640760.547         302.684          45.500    22576586.420    90906545.988         228.559          46.000  
E02  26058158.040   136936553.051        1745.242          41.000    26058164.460   104925432.117        1335.113          43.000  
E12  25256105.880   132721730.508       -1908.734          42.500    25256109.240   101695867.379       -1458.586          44.000  
E24  26404936.120   138758881.160       -3062.238          48.000    26404943.980   106321756.125       -2345.621          48.250  
E25  24221054.460   127282499.359        -962.902          47.750    24221060.280    97528153.133        -736.762          49.500  
E36  26236048.120   137871366.504        2090.316          43.000    26236057.300   105641738.055        1600.977          47.250  
E19                                                                  26978937.940   108632992.621         835.605          39.750  
> 2024 05 29 11 22 49.0000000  0 27       0.000000000000
G27  20094451.440   105597056.316        -171.941          51.250    20094455.200    82283437.836        -134.387          49.500  
G08  21165034.940   111223016.523        2017.617          45.250    21165040.320    86667318.637        1573.070          45.250  
G10  20804198.040   109326798.949         522.805          52.000    20804202.060    85189739.348         408.000          46.000  
G16  22026274.300   115748846.551       -2938.336          49.750                                                                  
G21  22872442.840   120195497.785        2447.660          43.250                                                                  
G23  21538774.540   113187023.871       -1853.582          43.000    21538777.180    88197697.1291      -1443.566          43.750  
G26  24643311.540   129501488.6522      -3686.953          42.500    24643323.500   100910306.684       -2873.574          39.250  
R17  19693060.060   105381580.0863       -543.016          42.000    19693066.360    81963442.5122       -423.008          41.250  
R02  21107551.660   112634007.375        2588.547          51.500    21107560.780    87604252.988        2014.297          50.500  
R18  20853727.860   111318657.906        2104.211          51.000    20853736.380    86581192.047        1637.055          50.000  
R16  21115017.000   112792667.676        -495.531          50.250    21115025.920    87727645.758        -385.500          48.500  
R15  22065240.880   117910012.660       -3806.559          51.250    22065252.180    91707790.664       -2960.652          48.750  
R01  21407682.760   114436370.859       -1319.250          42.000    21407691.640    89006076.4263      -1025.043          40.500  
R24                                                                  22559769.100    93828944.773       -2288.281          44.750  
C36  24610207.780   128151799.789       -1355.723          45.500                                                                  
C27  21791406.940   113473570.852        -875.301          49.000                                                                  
C30  22623468.720   117806343.395        1672.672          49.500                                                                  
C33  25273230.900   131604340.4413      -2017.141          42.250                                                                  
C13  39165865.620   203946953.6253      -1105.285          39.250                                                                  
C32  24747447.080   128866483.293        3220.930          46.000                                                                  
C28  24742824.240   128842382.438       -2530.336          46.250                                                                  
E11  22576523.920   118640439.219         298.211          43.250    22576525.440    90906299.785         229.219          46.000  
E12  25256465.860   132723618.426       -1908.449          40.000    25256468.200   101697313.961       -1466.258          40.500  
E24  26405515.420   138761923.074       -3063.047          47.750    26405522.960   106324086.926       -2346.410          49.000  
E25  24221234.140   127283442.168        -964.313          49.250    24221239.960    97528875.543        -739.281          50.750  
E36  26235646.760   137869257.656        2087.949          45.000    26235655.820   105640122.219        1599.309          47.000  
E02                                                                  26057828.900   104924081.223        1333.816          42.250  
> 2024 05 29 11 22 50.0000000  0 26       0.000000000000
G18  24483554.300   128661950.2273      -3130.664          44.500    24483560.780   100256103.8321      -2434.750          41.750  
G27  20094477.420   105597192.156        -172.805          49.250    20094481.000    82283543.688        -133.691          48.250  
G08  21164644.320   111220961.797        2018.809          49.500    21164649.440    86665717.605        1573.980          47.250  
G10  20804091.380   109326239.375         523.902          50.250    20804095.160    85189303.355         406.559          46.000  
G16  22026826.620   115751748.660       -2938.203          49.750                                                                  
G21  22871970.080   120193013.473        2449.363          43.250                                                                  
G23  21539120.180   113188840.734       -1852.512          46.500    21539122.460    88199112.676       -1443.188          43.250  
G26  24644006.740   129505140.816       -3687.297          40.000    24644018.720   100913152.602       -2874.820          39.000  
R17  19693154.960   105382085.973        -543.883          45.500    19693162.200    81963836.844        -421.516          43.250  
R02  21107059.280   112631379.656        2590.738          50.750    21107067.620    87602209.133        2014.270          48.000  
R18  20853326.580   111316517.520        2106.703          50.750    20853334.520    86579527.277        1638.117          48.250  
R16  21115103.180   112793128.293        -497.793          50.250    21115111.860    87728004.039        -385.559          47.500  
R15  22065946.000   117913782.336       -3806.977          50.750    22065957.580    91710722.555       -2959.059          49.250  
R01  21407921.660   114437651.547       -1317.469          40.500    21407931.240    89007072.6022      -1022.590          41.000  
R24  22560305.140   120640138.6993      -2937.480          43.250                                                                  
C36  24610461.340   128153120.344       -1355.074          44.500                                                                  
C27  21791567.700   113474408.891        -871.813          46.000                                                                  
C30  22623141.200   117804635.895        1672.645          50.250                                                                  
C32  24746821.700   128863225.836        3222.133          45.500                                                                  
C28  24743303.120   128844873.9693      -2530.242          43.000                                                                  
E11  22576460.280   118640102.316         301.770          45.000    22576461.140    90906041.633         230.527          46.250  
E02  26057484.100   136933000.1291       1741.441          39.250    26057490.180   104922718.891        1333.910          43.000  
E12  25256822.560   132725490.809       -1907.500          40.750    25256824.920   101698748.637       -1461.340          42.750  
E24  26406091.040   138764949.504       -3060.844          48.000    26406098.860   106326405.887       -2347.203          48.000  
E25  24221410.580   127284370.152        -963.867          49.500    24221416.220    97529586.594        -739.125          49.750  
E36  26235242.460   137867133.750        2085.699          44.250    26235251.760   105638494.836        1598.926          46.250  
> 2024 05 29 11 22 51.0000000  0 24       0.000000000000
G18  24484144.600   128665052.0202      -3128.141          45.250                                                                  
G27  20094505.300   105597337.918        -171.500          49.000    20094508.940    82283657.301        -134.258          45.500  
G08  21164255.280   111218917.012        2020.184          47.750    21164259.880    86664124.215        1572.191          46.250  
G10  20803987.060   109325689.559         523.941          50.750    20803990.740    85188874.938         408.758          45.500  
G16  22027380.940   115754661.227       -2938.281          50.500                                                                  
G21  22871499.440   120190539.359        2448.621          44.000                                                                  
G26  24644703.360   129508802.754       -3685.867          40.500    24644715.740   100916006.117       -2875.945          38.000  
G23                                                                  21539470.080    88200535.293       -1443.309          41.750  
R02  21106568.120   112628761.684        2592.402          48.250    21106577.900    87600173.051        2016.527          48.250  
R18  20852927.840   111314387.203        2103.727          48.500    20852935.200    86577870.465        1637.434          47.750  
R16  21115191.640   112793599.699        -498.953          49.000    21115199.680    87728370.602        -388.344          47.500  
R15  22066653.500   117917562.758       -3808.152          50.000    22066664.980    91713662.922       -2961.285          49.000  
R24  22560846.760   120643049.6992      -2934.883          41.250                                                                  
R17                                                                  19693259.600    81964237.770        -422.344          45.500  
C36  24610717.220   128154451.199       -1353.516          44.500                                                                  
C27  21791730.440   113475256.172        -874.840          46.250                                                                  
C30  22622814.720   117802938.086        1672.660          48.250                                                                  
C32  24746198.280   128859978.113        3222.547          48.000                                                                  
E11  22576397.740   118639775.137         299.969          42.250    22576398.880    90905791.055         230.703          45.500  
E02  26057148.120   136931231.820        1741.227          42.750    26057153.780   104921363.934        1335.020          42.750  
E12  25257178.820   132727371.145       -1904.277          37.000    25257182.940   101700189.477       -1460.332          41.750  
E24  26406668.380   138767985.965       -3062.172          47.000    26406676.780   106328732.551       -2347.664          49.000  
E25  24221589.420   127285308.461        -962.910          49.500    24221594.900    97530305.582        -738.844          51.000  
E36  26234840.480   137865020.246        2087.508          44.750    26234849.520   105636875.316        1600.852          46.000  
> 2024 05 29 11 22 52.0000000  0 26       0.000000000000
G18  24484735.920   128668158.9062      -3125.223          38.250                                                                  
G27  20094533.860   105597489.020        -171.488          49.500    20094537.300    82283775.070        -135.684          44.500  
G08  21163866.820   111216876.996        2019.762          48.750    21163872.020    86662534.551        1573.406          46.750  
G10  20803883.400   109325145.453         523.270          51.500    20803886.780    85188450.922         407.070          45.750  
G16  22027936.140   115757579.520       -2939.230          50.000                                                                  
G21  22871029.120   120188070.309        2447.637          43.250                                                                  
G23  21539816.520   113192508.6953      -1850.961          42.250    21539818.280    88201962.004       -1442.859          41.500  
G26  24645401.700                       -3687.859          35.500    24645413.540   100918863.984       -2872.891          35.750  
R17  19693347.120   105383125.3161       -542.824          45.000    19693356.580    81964642.719        -421.207          47.500  
R02  21106078.780   112626149.672        2592.066          48.500    21106088.020    87598141.477        2015.508          47.000  
R18  20852529.980   111312261.555        2104.559          50.250    20852537.340    86576217.090        1636.063          48.250  
R16  21115281.060   112794076.520        -497.816          50.750    21115289.520    87728737.5661       -387.820          47.750  
R15  22067361.980   117921348.914       -3807.934          48.750    22067373.340    91716607.742       -2960.898          47.500  
R01  21408405.500   114440245.4613      -1313.211          40.000    21408408.500    89009053.7153      -1023.738          39.500  
R24  22561391.460   120645966.809       -2937.918          39.750                                                                  
C36  24610973.620   128155787.211       -1356.352          46.000                                                                  
C27  21791894.120   113476108.379        -872.930          45.250                                                                  
C30  22622489.480   117801244.988        1672.664          49.250                                                                  
C32  24745575.700   128856736.129        3219.852          46.500                                                                  
C28  24744265.480   128849888.2342      -2525.887          44.000                                                                  
E02  26056812.060   136929468.082        1740.063          43.500    26056818.440   104920012.602        1335.168          44.250  
E24  26407247.320   138771028.113       -3063.195          47.000    26407255.560   106331063.586       -2346.348          47.250  
E25  24221769.020   127286252.309        -964.684          49.250    24221774.520    97531028.773        -739.520          49.500  
E36  26234439.780   137862911.496        2087.742          45.250    26234448.280   105635259.629        1598.664          44.750  
E12                                                                  25257541.600   101701634.180       -1459.324          37.250  
E11                                                                  22576337.840    90905544.309         230.660          44.000  
> 2024 05 29 11 22 53.0000000  0 26       0.000000000000
G18  24485324.520   128671251.6992      -3125.875          41.500    24485331.360   100263350.7661      -2436.910          40.750  
G27  20094559.960   105597626.066        -170.688          49.750    20094563.260    82283881.891        -133.883          44.750  
G08  21163475.620   111214823.188        2018.746          47.750    21163481.140    86660934.246        1571.902          47.250  
G10  20803776.800   109324587.223         524.074          50.250    20803780.680    85188015.871         406.715          44.500  
G16  22028488.800   115760483.152       -2937.121          49.750                                                                  
G21  22870557.000   120185587.352        2450.820          44.000                                                                  
G23  21540161.800   113194325.9492      -1850.734          48.000    21540164.320    88203377.961       -1443.477          46.750  
G26                                                                  24646109.600   100921709.945       -2870.906          36.250  
R17  19693442.320   105383631.867        -543.078          47.500    19693450.780    81965036.730        -420.555          45.750  
R02  21105586.760   112623523.301        2591.625          53.250    21105595.880    87596098.773        2013.270          46.250  
R18  20852128.460   111310121.922        2103.008          50.750    20852136.760    86574553.047        1636.063          50.750  
R16  21115368.260   112794539.969        -499.801          50.750    21115375.540    87729097.992        -388.711          48.000  
R15  22068067.500   117925120.301       -3806.895          48.750    22068078.860    91719540.984       -2960.855          46.750  
R01  21408644.000   114441527.5982      -1316.660          38.500    21408653.280    89010050.8362      -1022.781          37.500  
C36  24611227.240   128157109.488       -1355.855          46.000                                                                  
C27  21792053.920   113476946.711        -871.801          42.250                                                                  
C30  22622161.660   117799538.035        1671.781          50.500                                                                  
C33  25274757.880   131612295.7703      -2012.629          38.250                                                                  
C13  39166688.380   203951226.0083      -1098.992          37.500    39166700.040   157708059.9653       -849.816          42.250  
C32  24744949.900   128853479.141        3224.691          47.000                                                                  
E11  22576272.360   118639109.9301        304.020          42.000    22576273.300    90905286.582         231.992          44.000  
E02  26056473.840   136927691.168        1741.113          40.750    26056480.420   104918651.129        1336.695          43.250  
E12  25257894.800   132731134.0701      -1904.668          39.500    25257897.520   101703068.156       -1461.184          42.250  
E24  26407823.880   138774055.203       -3061.199          46.750    26407831.860   106333382.938       -2347.359          47.750  
E25  24221945.740   127287181.906        -964.730          47.750    24221951.500    97531741.066        -738.668          51.000  
E36  26234035.920   137860788.680        2090.473          45.500    26234043.280   105633633.020        1599.391          44.000  
> 2024 05 29 11 22 54.0000000  0 27       0.000000000000
G18  24485919.540   128674378.8592      -3125.078          40.250    24485926.820   100265787.570       -2435.699          38.000  
G27  20094592.680   105597798.672        -172.434          49.250    20094596.440    82284016.387        -133.219          45.500  
G08  21163091.640   111212804.578        2019.637          50.500    21163097.040    86659361.305        1573.367          48.500  
G10  20803677.340   109324064.402         525.344          52.000    20803681.700    85187608.555         407.863          45.250  
G16  22029047.940   115763422.094       -2936.680          49.500                                                                  
G21  22870090.860   120183139.098        2449.145          44.500                                                                  
G23                                                                  21540516.540    88204821.426       -1440.332          39.750  
R17  19693544.260   105384174.379        -538.938          47.500    19693551.560    81965458.695        -420.551          47.000  
R02  21105101.620   112620933.012        2591.871          50.000    21105110.840    87594083.961        2017.379          46.750  
R18  20851734.300   111308017.914        2107.434          51.250    20851742.720    86572916.547        1638.398          50.500  
R16  21115462.040   112795039.680        -499.738          52.000    21115469.460    87729486.688        -387.031          49.750  
R15  22068779.720   117928927.555       -3805.613          50.500    22068791.580    91722502.230       -2960.395          49.250  
R01  21408890.760   114442845.785       -1317.168          42.000    21408900.740    89011075.996       -1025.508          39.500  
R24  22562487.100   120651802.1993      -2935.461          37.250    22562496.040    93840308.8713      -2282.813          41.500  
C36  24611488.020   128158466.844       -1356.832          47.250                                                                  
C27  21792222.120   113477819.605        -869.887          49.750                                                                  
C30  22621840.560   117797865.805        1674.414          50.750                                                                  
C13  39166899.480   203952324.8552      -1098.195          41.500    39166911.460   157708909.7542       -847.254          41.750  
C32  24744330.840   128850256.895        3223.379          47.250                                                                  
C28  24745228.360   128854903.2773      -2523.277          37.000                                                                  
E11  22576214.980   118638808.688         304.234          45.250    22576215.940    90905055.801         231.648          45.500  
E02  26056142.760   136925949.477        1744.816          40.250    26056149.120   104917316.566        1337.379          42.750  
E24  26408406.120   138777117.449       -3061.035          47.000    26408414.460   106335729.391       -2344.441          48.250  
E25  24222129.420   127288146.918        -962.996          49.500    24222135.400    97532480.484        -737.336          50.750  
E36  26233637.880   137858700.773        2087.719          43.750    26233646.940   105632033.207        1600.480          47.500  
E12                                                                  25258260.200   101704528.578       -1457.703          40.500  
E19                                                                  26977670.160   108627887.3551        837.125          36.750  
> 2024 05 29 11 22 55.0000000  0 26       0.000000000000
G18  24486507.040   128677465.0982      -3130.609          37.500                                                                  
G27  20094617.800   105597930.5203       -174.629          52.250    20094621.420    82284119.078        -135.695          48.750  
G08  21162699.820   111210745.398        2016.613          50.500    21162704.780    86657756.750        1571.223          47.750  
G10  20803570.080   109323501.102         519.602          49.500    20803574.540    85187169.602         403.855          43.000  
G16  22029599.380   115766320.457       -2941.969          50.250                                                                  
G21  22869617.540   120180650.551        2447.438          46.500                                                                  
G23                                                                  21540861.740    88206233.375       -1445.102          47.000  
R17  19693638.080   105384675.105        -545.590          49.250    19693645.640    81965848.145        -424.148          48.500  
R02  21104608.400   112618301.785        2585.750          45.750    21104617.660    87592037.496        2012.168          45.250  
R18  20851332.560   111305872.629        2102.824          52.250    20851340.880    86571247.953        1635.555          51.500  
R16  21115547.800   112795498.879        -501.742          51.750    21115556.000    87729843.820        -392.078          49.750  
R15  22069485.240   117932693.609       -3810.516          52.000    22069496.660    91725431.293       -2963.773          50.000  
R01  21409130.920   114444122.695       -1321.813          43.000    21409141.340    89012069.156       -1027.859          40.750  
R24  22563025.960   120654697.6452      -2938.387          40.000    22563036.980    93842561.0002      -2285.727          44.250  
C36  24611741.160   128159784.152       -1361.789          48.250                                                                  
C27  21792382.480   113478652.164        -876.176          47.500                                                                  
C30  22621511.820   117796153.297        1670.539          51.500                                                                  
C13  39167102.440   203953383.0862      -1103.016          43.750    39167114.020   157709728.1292       -850.555          43.750  
C32  24743704.480   128846994.258        3217.281          46.000                                                                  
C28  24745706.340   128857388.6562      -2528.266          38.500                                                                  
E11  22576149.920   118638466.602         297.813          45.500    22576150.880    90904793.715         227.598          46.250  
E02  26055803.960   136924167.324        1740.637          41.750    26055809.740   104915950.938        1331.340          44.000  
E24  26408981.440   138780138.590       -3063.879          47.250    26408988.980   106338044.262       -2348.410          47.000  
E25  24222305.080   127289071.379        -968.238          49.750    24222311.360    97533188.836        -741.059          50.750  
E36  26233232.480   137856572.117        2085.844          44.000    26233241.340   105630402.176        1600.234          44.500  
E12                                                                  25258615.520   101705957.871       -1465.891          41.000  
> 2024 05 29 11 22 56.0000000  0 27       0.000000000000
G18  24487095.760   128680558.695       -3130.547          37.250                                                                  
G27  20094644.460   105598069.6372       -176.539          51.750    20094647.640    82284227.535        -137.133          47.750  
G08  21162309.560   111208693.504        2015.734          51.250    21162314.520    86656157.895        1571.027          48.000  
G10  20803464.660   109322945.180         519.121          49.250    20803468.540    85186736.379         403.699          41.750  
G16  22030152.500   115769226.137       -2941.688          52.000                                                                  
G21  22869145.340   120178169.121        2444.621          46.500                                                                  
G23  21541204.440   113199800.3322      -1856.879          47.500    21541207.660    88207650.809       -1447.102          46.500  
R17  19693732.980   105385183.238        -544.973          51.250    19693740.700    81966243.367        -422.875          50.500  
R02  21104116.780   112615677.656        2588.297          48.250    21104125.960    87589996.445        2011.754          47.000  
R18  20850932.200   111303734.598        2100.000          52.250    20850939.820    86569585.039        1633.313          50.250  
R16  21115634.880   112795966.000        -505.828          51.750    21115643.860    87730207.129        -392.590          51.250  
R15  22070191.340   117936467.105       -3810.973          52.000    22070202.860    91728366.238       -2963.930          50.750  
R01  21409371.500   114445407.637       -1321.828          45.750    21409381.120    89013068.594       -1027.797          42.000  
R24  22563568.300   120657600.230       -2939.770          43.250    22563578.960    93844818.371       -2284.289          41.000  
C36  24611995.440   128161108.867       -1361.730          48.250                                                                  
C27  21792543.700   113479491.629        -874.750          49.000                                                                  
C30  22621184.320   117794447.723        1669.047          51.750                                                                  
C33  25275904.280   131618265.7072      -2019.742          45.500                                                                  
C13  39167307.040   203954448.2622      -1103.051          43.750    39167318.460   157710551.7462       -851.215          42.000  
C32  24743079.600   128843738.453        3220.273          43.750                                                                  
C28  24746184.720   128859881.2342      -2526.445          43.750                                                                  
E11  22576086.660   118638131.664         298.664          47.000    22576087.120    90904537.105         228.809          47.250  
E12  25258968.620   132736775.254       -1910.281          42.250    25258971.520   101707392.082       -1461.527          43.750  
E24  26409557.680   138783166.832       -3063.813          46.750    26409565.600   106340364.625       -2348.855          47.500  
E25  24222482.380   127290003.223        -967.594          50.500    24222488.760    97533902.844        -742.723          52.000  
E36  26232828.680   137854450.578        2083.172          44.500    26232837.840   105628776.566        1597.477          45.500  
E02                                                                  26055472.080   104914590.766        1332.445          41.000  
> 2024 05 29 11 22 57.0000000  0 27       0.000000000000
G27  20094671.400   105598211.5392       -176.203          54.000    20094674.700    82284338.066        -136.473          49.750  
G08  21161919.560   111206643.930        2015.523          50.000    21161924.580    86654560.785        1570.855          49.000  
G10  20803359.340   109322391.941         519.055          50.500    20803363.180    85186305.344         404.273          46.750  
G16  22030705.940   115772134.727       -2944.977          50.500                                                                  
G21  22868673.240   120175690.188        2445.371          46.500                                                                  
G23  21541551.060   113201621.6642      -1855.609          49.500    21541554.320    88209070.098       -1446.801          50.000  
G26                                                                  24648896.240   100933124.4731      -2876.313          31.000  
R17  19693828.000   105385693.496        -545.309          52.000    19693835.760    81966640.223        -424.199          50.500  
R02  21103625.740   112613056.352        2586.230          47.000    21103633.940    87587957.816        2009.594          47.250  
R18  20850531.820   111301598.734        2100.734          50.000    20850539.800    86567923.848        1634.176          49.750  
R16  21115722.860   112796436.141        -505.195          51.750    21115731.920    87730572.781        -392.648          49.500  
R15  22070898.000   117940243.598       -3812.773          51.500    22070909.260    91731303.566       -2964.734          49.250  
R01  21409612.600   114446694.848       -1321.988          46.500    21409621.600    89014069.742       -1028.770          43.000  
R24  22564111.760   120660504.375       -2939.254          45.500    22564121.860    93847077.199       -2284.879          44.000  
C36  24612250.320   128162436.176       -1361.633          47.500                                                                  
C27  21792705.300   113480333.270        -875.047          51.000                                                                  
C30  22620856.940   117792744.398        1670.055          50.750                                                                  
C33  25276284.980   131620249.6802      -2017.953          45.750                                                                  
C13  39167511.860   203955514.7032      -1100.324          45.000    39167523.260   157711376.3242       -851.504          42.250  
C32  24742455.040   128840485.230        3218.566          46.000                                                                  
C28  24746663.660   128862375.2732      -2528.445          44.250                                                                  
E11  22576023.280   118637799.117         299.543          46.750    22576023.940    90904282.270         227.652          47.250  
E12  25259325.360   132738648.930       -1905.891          43.750    25259328.380   101708827.707       -1463.000          46.750  
E24  26410134.200   138786197.910       -3065.449          45.500    26410142.420   106342687.113       -2348.719          46.750  
E25  24222660.260   127290937.922        -967.984          49.500    24222666.380    97534619.063        -743.797          51.000  
E36  26232425.960   137852331.551        2086.152          45.500    26232434.400   105627152.895        1599.141          45.500  
E19                                                                  26977028.160   108625300.555         832.801          37.750  
> 2024 05 29 11 22 58.0000000  0 27       0.000000000000
G27  20094702.300   105598374.3952       -180.520          54.000    20094705.600    82284464.941        -141.316          49.500  
G08  21161533.360   111204615.301        2011.191          48.750    21161538.600    86652980.051        1565.359          48.000  
G10  20803258.220   109321859.742         514.684          53.000    20803261.860    85185890.672         401.473          49.250  
G16  22031263.480   115775064.176       -2946.039          50.500                                                                  
G21  22868205.260   120173232.031        2442.918          46.500                                                                  
G23  21541901.880   113203464.1882      -1861.289          49.500    21541904.960    88210505.766       -1448.684          49.500  
G26                                                                  24649595.020   100935987.5431      -2875.094          30.750  
R17  19693927.400   105386225.086        -549.973          52.000    19693935.480    81967053.660        -426.777          51.000  
R02  21103136.200                        2584.625          41.500    21103146.820    87585935.941        2008.824          49.000  
R18  20850135.660   111299484.156        2097.223          50.000    20850143.700    86566279.074        1630.656          48.000  
R16  21115815.080   112796928.047        -510.598          51.750    21115823.620    87730955.391        -395.582          48.250  
R15  22071608.800   117944041.305       -3813.590          51.250    22071619.760    91734257.313       -2967.582          49.250  
R01  21409857.160   114448003.980       -1326.406          46.000    21409867.620    89015087.996       -1032.500          43.500  
R24  22564658.920   120663429.852       -2943.730          47.500    22564668.920    93849352.641       -2288.098          45.750  
C36  24612509.180   128163784.270       -1366.012          48.000                                                                  
C27  21792870.800   113481195.613        -878.754          52.250                                                                  
C30  22620533.960   117791061.621        1664.492          51.250                                                                  
C33  25276670.140   131622254.676       -2021.551          46.750                                                                  
C13  39167721.040   203956602.230       -1105.301          44.250    39167731.840   157712216.875        -854.387          41.500  
C32  24741834.280   128837252.477        3217.574          45.500                                                                  
C28  24747146.340   128864890.129       -2532.320          44.500                                                                  
E11  22575963.800   118637487.223         294.996          46.250    22575964.640    90904043.285         224.504          47.250  
E12  25259685.980   132740543.320       -1911.469          44.750    25259688.860   101710279.344       -1464.254          46.250  
E24  26410715.220   138789249.449       -3069.223          47.000    26410723.300   106345025.281       -2349.715          47.750  
E25  24222842.040   127291893.539        -973.809          49.750    24222848.220    97535351.285        -745.746          51.250  
E36  26232026.380   137850233.113        2078.582          46.250    26232035.220   105625544.996        1593.227          46.500  
E19  26976811.180   141764099.5161       1083.547          39.500    26976818.900   108624458.648         830.367          39.500  
> 2024 05 29 11 22 59.0000000  0 27       0.000000000000
G27  20094732.360   105598532.4922       -181.918          53.750    20094735.700    82284588.180        -142.398          49.750  
G08  21161146.300   111202581.840        2009.957          49.500    21161151.600    86651395.566        1566.676          48.750  
G10  20803155.980   109321322.980         512.926          54.500    20803159.640    85185472.383         399.953          49.750  
G16  22031819.920   115777988.641       -2948.711          51.000                                                                  
G21  22867736.820   120170768.918        2439.320          48.000                                                                  
G23  21542251.980   113205302.0702      -1859.887          49.750    21542254.660    88211937.906       -1448.270          48.500  
R17  19694025.740   105386751.848        -550.277          52.250    19694033.840    81967463.363        -427.621          50.500  
R02  21102649.800   112607809.5633       2580.281          49.500    21102659.080    87583910.367        2007.984          49.750  
R18  20849738.460   111297364.574        2096.875          45.750    20849746.000    86564630.668        1629.547          47.000  
R16  21115906.200   112797415.695        -512.457          47.250    21115915.020    87731334.664        -397.961          46.250  
R15  22072318.780   117947833.848       -3817.023          52.000    22072329.860    91737207.090       -2968.664          50.750  
R01  21410101.400   114449308.824       -1327.781          45.750    21410111.660    89016102.863       -1032.770          43.500  
R24  22565205.300   120666350.266       -2943.609          47.000    22565215.320    93851623.984       -2289.438          45.250  
C36  24612767.420   128165127.781       -1367.422          45.750                                                                  
C27  21793035.620   113482053.023        -880.219          52.500                                                                  
C30  22620209.960   117789373.930        1664.684          51.000                                                                  
C33  25277054.220   131624255.098       -2021.613          46.750                                                                  
C13  39167928.500   203957684.270       -1104.883          43.500    39167939.400   157713053.543        -853.996          41.000  
C32  24741212.400   128834014.418        3215.090          46.500                                                                  
C28  24747628.000   128867399.820       -2533.668          45.750                                                                  
E11  22575903.360   118637170.363         293.020          46.500    22575904.360    90903800.512         226.656          47.500  
E12  25260045.280   132742432.738       -1909.957          44.000    25260048.140   101711727.063       -1464.863          45.250  
E24  26411295.000   138792295.813       -3068.074          46.750    26411302.840   106347359.484       -2352.000          48.250  
E25  24223023.140   127292844.340        -974.883          50.500    24223029.140    97536079.805        -747.285          51.750  
E36  26231625.660   137848129.559        2079.516          45.250    26231634.660   105623933.242        1593.746          46.250  
E19  26976600.920   141762995.965        1080.512          38.250    26976608.880   108623613.113         829.828          38.750  
E02                                                                  26054467.300   104910525.2701       1326.648          45.000  
> 2024 05 29 11 23 00.0000000  0 25       0.000000000000
G27  20094761.460   105598685.4222       -183.117          54.000    20094765.040    82284707.379        -141.645          50.000  
G08  21160758.540   111200542.801        2008.973          49.750    21160763.680    86649806.645        1565.469          47.500  
G10  20803052.800   109320781.219         511.438          54.500    20803056.660    85185050.234         398.469          50.250  
G16  22032375.720   115780908.344       -2948.980          51.500                                                                  
G21  22867267.080   120168300.496        2436.270          44.250                                                                  
G23  21542600.740   113207134.3792      -1861.949          50.000    21542603.080    88213365.688       -1451.793          48.500  
R17  19694123.100   105387272.742        -551.648          52.250    19694131.360    81967868.496        -428.652          51.250  
R02  21102161.040   112605200.3402       2578.520          49.500    21102170.240    87581880.977        2005.164          50.250  
R18  20849340.360   111295239.113        2094.480          45.000    20849348.840    86562977.457        1628.090          43.500  
R16  21115996.800   112797898.367        -512.031          47.500    21116004.900    87731710.031        -400.035          47.000  
R15  22073027.360   117951621.449       -3819.230          50.500    22073038.800    91740153.000       -2970.258          49.250  
R01  21410344.580   114450608.145       -1331.574          47.000    21410354.880    89017113.418       -1033.848          43.250  
R24  22565750.220   120669264.559       -2946.563          47.500    22565759.960    93853890.680       -2290.539          45.500  
C36  24613024.400   128166466.055       -1370.484          44.500                                                                  
C27  21793199.040   113482904.922        -881.746          52.750                                                                  
C30  22619884.940   117787680.570        1663.387          50.750                                                                  
C33  25277436.860   131626249.641       -2024.695          44.750                                                                  
C13  39168135.080   203958759.895       -1105.285          42.750    39168145.780   157713885.348        -855.105          41.250  
C28  24748108.780   128869903.848       -2534.141          47.250                                                                  
E11  22575842.280   118636847.973         292.473          46.750    22575842.900    90903553.488         225.336          47.250  
E12  25260403.100   132744316.078       -1913.563          44.250    25260406.500   101713170.152       -1463.793          45.500  
E24  26411873.600   138795337.086       -3071.199          47.000    26411881.640   106349689.844       -2352.746          48.750  
E25  24223203.140   127293790.051        -976.621          50.250    24223208.960    97536804.480        -746.930          51.000  
E36  26231224.880   137846020.676        2080.063          45.250    26231233.740   105622317.207        1593.559          47.500  
E19  26976390.740   141761886.707        1079.188          38.750    26976398.080   108622763.113         829.496          39.750  
> 2024 05 29 11 23 01.0000000  0 27       0.000000000000
G27  20094790.900   105598840.0352       -186.371          54.000    20094794.320    82284827.820        -145.527          50.000  
G08  21160370.620   111198505.617        2006.066          45.250    21160375.940    86648219.348        1562.008          46.000  
G10  20802950.040   109320241.082         508.461          55.000    20802954.060    85184629.355         396.168          50.500  
G16  22032931.520   115783829.203       -2952.422          51.000                                                                  
G21  22866797.380   120165833.582        2438.270          42.250                                                                  
G23  21542949.680   113208968.5552      -1865.414          49.250    21542952.160    88214794.855       -1455.020          49.250  
R17  19694220.560   105387795.445        -554.711          51.500    19694228.860    81968275.047        -431.727          51.250  
R02  21101672.560   112602592.5202       2575.129          52.250    21101681.380    87579852.680        2002.207          51.250  
R18  20848942.260   111293115.512        2093.422          43.750    20848951.540    86561325.699        1628.688          42.500  
R15  22073736.380   117955410.324       -3820.059          51.500    22073746.900    91743099.906       -2971.813          47.250  
R01  21410588.260   114451909.758       -1336.281          46.250    21410597.900    89018125.859       -1037.074          43.250  
R24  22566295.080   120672180.117       -2948.324          46.750    22566305.720    93856158.367       -2293.168          46.250  
R16                                                                  21116095.980    87732087.160        -402.117          43.750  
C36  24613281.640   128167805.949       -1369.699          42.000                                                                  
C27  21793363.120   113483758.242        -884.996          53.250                                                                  
C30  22619559.800   117785988.922        1659.563          49.750                                                                  
C33  25277820.620   131628246.203       -2026.223          43.750                                                                  
C13  39168342.600   203959837.227       -1109.941          39.000    39168352.840   157714718.324        -855.887          39.250  
C32  24739966.100   128827491.3833       3210.613          41.000                                                                  
C28  24748589.600   128872408.914       -2538.125          47.500                                                                  
E11  22575781.020   118636527.074         290.078          46.000    22575781.720    90903307.637         222.281          47.000  
E02  26053790.320   136913590.1761       1728.941          41.500    26053797.720   104907830.855        1324.223          40.750  
E12  25260761.940   132746200.836       -1917.410          43.250    25260765.580   101714614.316       -1467.297          46.500  
E24  26412452.020   138798379.270       -3074.168          45.250    26412460.360   106352020.820       -2353.973          49.000  
E25  24223383.400   127294737.438        -978.816          50.250    24223389.340    97537530.352        -750.441          51.750  
E36  26230823.760   137843913.227        2077.379          42.750    26230832.360   105620702.492        1591.586          45.000  
E19  26976179.660   141760779.082        1075.609          38.250    26976187.300   108621914.391         824.641          39.750  
> 2024 05 29 11 23 02.0000000  0 26       0.000000000000
G27  20094820.620   105598996.160        -187.316          53.750    20094824.140    82284949.488        -145.754          50.000  
G08  21159983.440   111196469.719        2003.926          49.500    21159988.560    86646632.863        1562.867          48.500  
G10  20802847.620   109319702.527         507.273          54.750    20802851.620    85184209.707         395.672          50.500  
G16  22033487.500   115786751.754       -2954.086          50.750                                                                  
G21  22866328.760   120163367.965        2433.406          43.750                                                                  
G23  21543298.840   113210804.508       -1866.301          50.000    21543301.440    88216225.133       -1454.289          48.000  
R17  19694318.420   105388319.258        -556.043          51.750    19694326.700    81968682.504        -431.453          51.000  
R02  21101184.260   112599986.508        2573.977          54.250    21101193.080    87577825.730        2002.664          51.500  
R18  20848544.660   111290992.918        2088.078          46.000    20848554.040    86559674.918        1625.660          41.250  
R15  22074445.900   117959200.957       -3822.961          52.500    22074457.120    91746048.090       -2973.035          50.250  
R01  21410832.280   114453213.012       -1333.129          44.000    21410842.480    89019139.516       -1038.262          42.250  
R24  22566840.100   120675096.695       -2946.738          46.750    22566851.380    93858426.758       -2292.059          47.000  
R16                                                                  21116186.840    87732465.859        -404.012          45.250  
C36  24613539.020   128169147.625       -1373.734          43.500                                                                  
C27  21793526.980   113484612.719        -885.523          52.000                                                                  
C30  22619235.180   117784298.434        1658.281          47.500                                                                  
C33  25278204.440   131630244.020       -2023.480          37.750                                                                  
C13  39168549.060   203960914.859       -1111.137          35.250    39168560.020   157715552.020        -861.156          34.750  
C28  24749071.000   128874915.137       -2538.621          48.000                                                                  
E11  22575720.160   118636207.371         288.695          46.250    22575721.020    90903062.633         220.965          48.250  
E02  26053455.300   136911831.129        1728.746          41.750    26053462.380   104906483.031        1326.098          45.000  
E12  25261121.160   132748086.457       -1917.336          44.500    25261124.320   101716059.215       -1469.848          44.250  
E24  26413031.400   138801422.840       -3074.402          45.750    26413039.660   106354352.953       -2355.902          49.000  
E25  24223563.740   127295686.398        -980.406          49.500    24223569.940    97538257.508        -751.574          51.750  
E19  26975969.060   141759672.766        1077.016          39.250    26975976.760   108621066.695         823.758          39.750  
E36                                                                  26230432.180   105619088.391        1587.680          40.250  
> 2024 05 29 11 23 03.0000000  0 26       0.000000000000
G27  20094850.180   105599150.703        -187.789          53.500    20094853.460    82285069.887        -145.637          50.000  
G08  21159595.580   111194432.000        2003.273          47.000    21159601.060    86645045.055        1561.445          46.500  
G10  20802744.920   109319162.605         507.289          54.000    20802748.660    85183788.992         394.578          50.000  
G16  22034043.520   115789673.195       -2954.996          50.250                                                                  
G21  22865859.060   120160900.891        2432.160          41.000                                                                  
G23  21543647.860   113212638.094       -1867.039          48.000    21543650.300    88217653.930       -1455.059          47.500  
G26  24653069.640   129552767.9533      -3699.473          33.750                                                                  
R17  19694416.100   105388841.027        -556.742          52.000    19694423.840    81969088.320        -430.371          49.750  
R02  21100695.320   112597379.078        2573.730          53.250    21100704.780    87575797.742        2002.125          51.750  
R18  20848147.700   111288868.477        2090.234          43.750    20848155.880    86558022.617        1625.805          47.750  
R16  21116271.280   112799375.5083       -519.781          47.250    21116277.660    87732843.391        -404.094          45.500  
R15  22075155.060   117962990.574       -3822.648          51.250    22075166.160    91748995.641       -2974.031          49.250  
R01  21411074.840   114454514.590       -1336.121          41.750    21411085.420    89020151.754       -1039.102          38.250  
R24  22567384.660   120678010.918       -2948.086          46.000    22567396.460    93860693.383       -2292.406          47.000  
C36  24613796.560   128170487.898       -1371.008          42.000                                                                  
C27  21793690.840   113485465.293        -885.129          52.750                                                                  
C30  22618910.260   117782605.992        1659.570          49.250                                                                  
C32  24738722.000   128821011.7272       3209.441          42.000                                                                  
C28  24749552.080   128877419.184       -2537.980          48.250                                                                  
E11  22575659.040   118635885.898         287.184          47.250    22575659.860    90902816.316         221.273          48.000  
E02  26053120.600   136910070.207        1727.059          45.500    26053126.780   104905133.691        1322.379          45.750  
E12  25261478.760   132749969.840       -1915.734          42.750    25261482.380   101717502.273       -1469.551          44.000  
E24  26413610.940   138804465.215       -3074.441          46.250    26413618.280   106356684.059       -2355.035          46.250  
E25  24223744.000   127296634.113        -980.000          50.000    24223750.200    97538983.656        -751.816          51.250  
E36  26230022.160   137839704.0511       2074.715          44.250    26230030.680   105617473.418        1588.875          42.750  
E19  26975757.480   141758564.203        1075.039          37.750    26975765.820   108620217.293         821.617          40.250  
> 2024 05 29 11 23 04.0000000  0 25       0.000000000000
G27  20094881.000   105599312.762        -190.008          52.750    20094884.340    82285196.191        -149.074          49.750  
G08  21159209.280   111192402.047        2003.359          48.750    21159214.640    86643463.242        1561.711          46.750  
G10  20802643.660   109318630.035         505.258          53.500    20802647.200    85183374.039         394.051          49.500  
G16  22034601.080   115792601.648       -2956.559          50.000                                                                  
G21  22865390.840   120158441.324        2431.926          39.750                                                                  
G23  21543998.400   113214479.395       -1869.004          46.000    21544000.580    88219088.699       -1455.641          47.250  
R17  19694515.220   105389370.602        -556.859          51.500    19694523.100    81969500.191        -434.027          49.750  
R02  21100208.080   112594778.980        2572.438          53.750    21100217.220    87573775.449        2001.445          52.250  
R18  20847750.480   111286751.906        2089.188          50.000    20847759.240    86556376.332        1623.555          50.750  
R16  21116362.440   112799869.789        -522.297          50.000    21116370.040    87733227.840        -406.484          47.500  
R01  21411320.180   114455824.492       -1337.477          37.250    21411331.020    89021170.559       -1039.898          37.000  
R24  22567931.440   120680932.219       -2950.602          44.000    22567942.340    93862965.504       -2294.457          46.250  
R15                                                                  22075875.500    91751948.871       -2979.109          43.000  
C36  24614055.120   128171835.770       -1377.020          42.250                                                                  
C27  21793855.980   113486325.074        -886.773          53.000                                                                  
C30  22618586.620   117780920.992        1656.879          50.000                                                                  
C32  24738100.780   128817776.223        3206.613          42.250                                                                  
C28  24750034.640   128879930.020       -2538.672          49.250                                                                  
E11  22575599.280   118635571.793         286.148          46.500    22575600.020    90902575.633         219.078          47.750  
E02  26052787.640   136908317.324        1724.398          45.500    26052793.220   104903790.566        1321.379          46.750  
E12  25261839.280   132751860.352       -1920.125          39.750    25261842.120   101718950.902       -1469.574          42.250  
E24  26414190.780   138807514.031       -3076.355          46.500    26414198.960   106359020.164       -2357.582          49.000  
E25  24223926.440   127297589.211        -983.480          49.000    24223932.160    97539715.539        -753.602          49.750  
E36  26229622.520   137837603.523        2073.285          41.000    26229630.920   105615863.965        1587.215          43.750  
E19  26975552.760   141757488.3751       1074.246          34.000    26975556.380   108619373.766         822.480          37.750  
> 2024 05 29 11 23 05.0000000  0 24       0.000000000000
G27  20094917.400   105599503.984        -191.809          52.500    20094920.720    82285345.199        -149.848          49.500  
G08  21158828.800   111190401.379        1998.543          50.000    21158833.840    86641904.262        1557.805          48.500  
G10  20802547.940   109318126.703         502.535          53.250    20802551.640    85182981.793         391.488          49.750  
G16  22035163.580   115795559.191       -2959.660          48.750                                                                  
G21  22864927.920   120156010.988        2429.367          41.250                                                                  
G23  21544354.540   113216349.570       -1869.410          39.750    21544356.600    88220546.137       -1461.480          42.000  
G26                                                                  24654487.100   100956023.4341      -2887.129          38.000  
R17  19694619.760   105389929.824        -559.844          51.250    19694627.580    81969935.086        -437.051          50.500  
R02  21099726.740   112592208.621        2569.707          54.000    21099735.520    87571776.262        1998.645          52.000  
R18  20847359.900   111284664.824        2085.738          52.250    20847367.400    86554753.016        1623.059          50.000  
R16  21116460.180   112800394.145        -525.473          52.000    21116468.320    87733635.691        -408.305          50.000  
R15  22076583.860   117970623.2343      -3829.281          43.500    22076592.400    91754928.4063      -2979.426          40.500  
R24  22568483.760   120683882.996       -2952.527          43.250    22568494.580    93865260.527       -2295.973          46.750  
C36  24614319.960   128173212.773       -1378.461          43.750                                                                  
C27  21794026.580   113487213.496        -889.094          51.750                                                                  
C30  22618268.460   117779264.801        1655.273          51.500                                                                  
C32  24737484.660   128814569.023        3206.754          45.500                                                                  
C28  24750522.480   128882469.223       -2539.016          49.250                                                                  
E11  22575545.060   118635286.582         284.094          46.750    22575545.900    90902357.086         218.270          47.250  
E02  26052458.720   136906593.684        1723.738          44.000    26052465.020   104902469.887        1320.941          46.250  
E24  26414776.860   138810591.699       -3078.379          47.000    26414784.660   106361378.453       -2359.176          48.000  
E25  24224113.640   127298573.676        -984.691          46.250    24224119.500    97540469.797        -755.309          48.000  
E36  26229228.660   137835531.805        2069.375          41.000    26229237.120   105614276.695        1588.098          41.500  
E12                                                                  25262207.600   101720421.453       -1471.434          37.750  
> 2024 05 29 11 23 06.0000000  0 23       0.000000000000
G27  20094948.700   105599669.055        -193.266          53.000    20094951.940    82285473.789        -152.070          49.250  
G08  21158442.960   111188373.980        1999.285          50.000    21158448.140    86640324.449        1555.844          48.250  
G10  20802447.020   109317597.438         501.008          53.250    20802450.860    85182569.383         390.242          50.000  
G16  22035721.480   115798490.848       -2959.813          49.750                                                                  
G21  22864460.100   120153553.930        2428.270          40.750                                                                  
G23  21544706.180   113218194.020       -1871.203          40.000    21544707.440    88221983.211       -1459.605          43.250  
G26                                                                  24655186.120   100958887.047       -2886.164          37.000  
R17  19694718.920   105390461.852        -560.340          50.250    19694727.340    81970348.996        -435.652          49.500  
R02  21099240.100   112589612.141        2567.313          53.500    21099248.880    87569756.816        1996.648          52.000  
R18  20846963.880   111282550.582        2085.250          52.250    20846971.520    86553108.668        1622.922          51.000  
R16  21116553.460   112800892.094        -528.188          51.500    21116561.820    87734022.906        -411.031          49.750  
R15  22077293.940   117974409.1723      -3828.441          42.000    22077304.640    91757884.539       -2977.867          42.500  
R24  22569031.260   120686806.508       -2950.965          38.500    22569040.220    93867534.457       -2295.434          42.000  
C36  24614578.860   128174563.914       -1379.504          44.000                                                                  
C27  21794192.200   113488075.656        -890.129          52.500                                                                  
C30  22617945.380   117777582.094        1654.816          50.750                                                                  
C32  24736863.740   128811336.266        3204.082          46.500                                                                  
C28  24751004.700   128884982.434       -2541.391          46.000                                                                  
E11  22575485.340   118634974.777         283.941          46.250    22575486.780    90902118.188         216.539          47.750  
E02  26052125.900   136904843.230        1721.984          43.500    26052132.140   104901128.715        1320.168          47.000  
E24  26415356.700   138813643.414       -3079.781          46.250    26415365.320   106363716.785       -2362.328          48.000  
E25  24224295.780   127299531.879        -987.031          46.750    24224301.740    97541204.086        -756.895          49.250  
E36  26228828.720   137833433.918        2069.602          41.000    26228836.680   105612669.070        1584.457          40.000  
> 2024 05 29 11 23 07.0000000  0 22       0.000000000000
G27  20094979.880   105599832.695        -192.961          53.250    20094983.220    82285601.301        -150.496          49.250  
G08  21158056.800   111186344.801        2000.832          49.750    21158061.920    86638743.297        1558.324          47.750  
G10  20802346.240   109317066.988         499.914          54.750    20802350.060    85182156.039         388.844          49.000  
G16  22036279.020   115801420.824       -2959.711          50.000                                                                  
G21  22863992.940   120151094.863        2428.723          43.750                                                                  
G23  21545056.520   113220036.887       -1869.809          38.000                                                                  
G26                                                                  24655885.220   100961748.824       -2886.078          39.500  
R17  19694818.220   105390992.426        -560.832          50.250    19694825.740    81970761.617        -435.016          50.000  
R02  21098753.020   112587014.773        2566.246          51.750    21098762.280    87567736.672        1995.453          50.750  
R18  20846567.220   111280434.344        2085.992          51.500    20846574.860    86551462.719        1621.941          50.250  
R16  21116645.920   112801388.531        -529.191          51.750    21116655.100    87734409.145        -408.395          49.750  
R15  22078002.980   117978207.0232      -3829.715          43.250    22078014.920    91760838.531       -2977.328          43.750  
C36  24614837.920   128175912.801       -1380.016          45.500                                                                  
C27  21794357.560   113488936.398        -890.180          51.750                                                                  
C30  22617622.020   117775897.500        1655.105          51.250                                                                  
C32  24736242.260   128808101.863        3205.934          46.500                                                                  
C28  24751487.660   128887493.832       -2541.805          43.500                                                                  
E11  22575426.060   118634661.250         284.086          46.500    22575426.900    90901877.945         217.895          46.750  
E02  26051792.240   136903091.008        1721.426          44.000    26051798.760   104899786.004        1319.984          46.750  
E24  26415937.700   138816693.211       -3079.785          47.250    26415945.700   106366053.570       -2360.285          47.750  
E25  24224477.920   127300488.203        -986.078          48.250    24224483.640    97541936.852        -756.566          48.750  
E36  26228429.340   137831333.375        2070.277          40.000    26228437.580   105611059.676        1584.715          41.500  
> 2024 05 29 11 23 08.0000000  0 22       0.000000000000
G27  20095014.320   105600013.867        -194.832          53.750    20095017.800    82285742.480        -151.484          49.250  
G08  21157673.640   111184332.473        2000.117          50.000    21157679.200    86637175.258        1558.004          48.750  
G10  20802248.620   109316554.473         498.621          54.250    20802252.420    85181756.699         387.734          48.500  
G16  22036839.880   115804368.113       -2961.254          51.250                                                                  
G21  22863528.180   120148652.098        2430.445          44.500                                                                  
G26  24656574.800   129571183.129       -3703.738          41.500    24656587.680   100964624.027       -2884.945          37.250  
R17  19694920.400   105391540.664        -561.219          50.750    19694928.920    81971188.000        -438.059          48.250  
R02  21098269.940   112584436.051        2562.625          43.500    21098280.080    87565731.129        1993.262          45.500  
R18  20846173.760   111278335.016        2084.781          51.750    20846181.700    86549829.828        1623.195          50.500  
R16  21116742.480   112801902.559        -527.297          52.000    21116750.840    87734808.910        -410.113          49.000  
R15  22078716.600   117982022.293       -3828.883          43.250    22078728.620    91763806.035       -2978.645          42.750  
R24  22570127.320   120692643.8833      -2953.641          40.000                                                                  
C36  24615100.240   128177278.223       -1379.813          46.750                                                                  
C27  21794526.420   113489814.512        -892.961          50.250                                                                  
C30  22617301.660   117774229.395        1655.676          51.500                                                                  
C32  24735624.560   128804884.703        3204.594          46.750                                                                  
C28  24751972.680   128890023.332       -2545.258          39.750                                                                  
E11  22575369.620   118634364.699         284.289          46.000    22575370.440    90901650.707         217.508          47.250  
E02  26051461.720   136901355.398        1722.816          43.500    26051468.720   104898456.184        1318.230          46.250  
E24  26416521.420   138819760.250       -3081.914          47.500    26416529.160   106368403.645       -2362.129          47.500  
E25  24224663.180   127301461.723        -986.801          49.500    24224668.980    97542682.730        -756.793          49.500  
E36  26228032.980   137829249.453        2070.109          43.750    26228041.480   105609462.762        1586.176          45.250  
> 2024 05 29 11 23 09.0000000  0 21       0.000000000000
G27  20095048.120   105600191.695        -197.930          53.750    20095051.840    82285881.027        -153.184          50.250  
G08  21157290.120   111182316.680        1996.023          50.500    21157295.640    86635604.488        1557.137          48.500  
G10  20802150.400   109316038.648         496.035          54.000    20802154.140    85181354.758         386.418          48.750  
G16  22037399.860   115807311.391       -2963.574          49.750                                                                  
G21  22863062.320   120146205.555        2428.012          45.250                                                                  
G26  24657275.920   129574868.566       -3703.309          41.500    24657288.720   100967495.816       -2887.293          38.250  
R17  19695022.600   105392085.758        -566.516          50.500    19695030.880    81971611.977        -440.043          49.250  
R18  20845779.940   111276231.918        2083.297          51.250    20845787.920    86548194.113        1619.129          50.250  
R16  21116838.420   112802413.457        -531.508          51.250    21116846.660    87735206.266        -412.957          49.000  
R15  22079430.360   117985833.426       -3830.789          48.750    22079442.140    91766770.055       -2980.137          46.250  
R02                                                                  21097796.560    87563722.934        1992.582          46.250  
C36  24615361.660   128178640.090       -1381.469          45.750                                                                  
C27  21794694.220   113490689.227        -894.898          51.250                                                                  
C30  22616980.580   117772557.688        1652.969          50.750                                                                  
C32  24735005.680   128801663.508        3202.340          45.500                                                                  
C28  24752458.280   128892549.207       -2545.156          43.000                                                                  
E11  22575312.080   118634064.488         281.617          45.750    22575313.500    90901420.695         214.477          47.500  
E02  26051131.380   136899616.500        1718.848          44.250    26051137.480   104897123.762        1315.734          45.500  
E24  26417104.240   138822823.043       -3082.066          47.500    26417112.020   106370750.371       -2362.676          49.250  
E25  24224847.680   127302431.531        -990.195          49.750    24224853.540    97543425.836        -757.805          50.750  
E36  26227635.380   137827161.355        2069.973          45.500    26227644.160   105607862.797        1584.594          47.000  
> 2024 05 29 11 23 10.0000000  0 22       0.000000000000
G27  20095080.220   105600359.852        -198.770          54.250    20095083.740    82286012.074        -154.813          49.500  
G08  21156904.740   111180291.273        1994.656          50.500    21156910.220    86634026.254        1554.051          48.750  
G10  20802050.260   109315513.203         494.801          53.750    20802054.080    85180945.340         387.051          49.000  
G16  22037958.120   115810245.398       -2964.457          50.000                                                                  
G21  22862595.040   120143749.547        2426.797          46.000                                                                  
G23  21546114.960   113225603.1883      -1879.137          41.250    21546117.840    88227759.6801      -1464.273          43.000  
G26  24657975.220   129578544.086       -3705.480          38.500    24657989.020   100970360.004       -2887.934          36.500  
R17  19695122.300   105392620.555        -565.410          47.750    19695130.300    81972027.945        -438.867          48.000  
R02  21097300.560   112579282.7893       2559.770          43.500                                                                  
R18  20845383.600   111274118.992        2082.535          51.500    20845392.080    86546550.742        1619.652          49.500  
R16  21116932.440   112802915.352        -531.934          52.250    21116940.280    87735596.625        -413.707          48.750  
C36  24615621.640   128179992.922       -1383.371          46.000                                                                  
C27  21794860.100   113491554.000        -893.152          51.750                                                                  
C30  22616657.880   117770876.273        1650.848          51.250                                                                  
C32  24734385.320   128798432.410        3201.457          47.750                                                                  
C28  24752941.200   128895064.875       -2544.383          44.250                                                                  
E11  22575253.600   118633754.395         279.754          46.750    22575254.380    90901183.133         213.551          47.500  
E02  26050798.480   136897867.965        1717.664          43.250    26050804.820   104895784.078        1316.590          46.250  
E12  25264010.860   132763274.2931      -1926.090          35.750    25264014.220   101727702.2501      -1472.152          39.750  
E24  26417685.300   138825876.082       -3084.418          47.000    26417693.300   106373089.781       -2362.828          48.000  
E25  24225030.220   127303392.012        -989.820          49.750    24225036.300    97544161.773        -758.805          51.000  
E36  26227235.500   137825063.750        2067.891          45.500    26227245.120   105606255.578        1583.973          46.250  
> 2024 05 29 11 23 11.0000000  0 23       0.000000000000
G27  20095110.500   105600518.848        -196.422          54.000    20095113.920    82286136.016        -152.602          49.000  
G08  21156517.560   111178256.660        1995.371          51.500    21156522.860    86632440.871        1556.199          48.250  
G10  20801948.720   109314978.559         496.574          53.250    20801952.360    85180528.797         386.547          47.250  
G16  22038514.840   115813170.164       -2962.508          50.750                                                                  
G21  22862125.640   120141284.418        2426.371          46.000                                                                  
G23  21546465.380   113227441.8592      -1876.023          43.750    21546467.460    88229192.379       -1462.293          45.000  
G26                                                                  24658686.140   100973216.531       -2886.660          39.000  
R17  19695220.560   105393145.707        -563.898          51.750    19695228.280    81972436.371        -438.270          50.000  
R18  20844986.420   111271996.734        2083.844          52.000    20844994.660    86544900.176        1620.766          51.000  
R16  21117024.640   112803408.406        -532.371          52.000    21117032.540    87735980.129        -413.961          49.500  
R15  22080851.300   117993423.5743      -3832.086          41.750                                                                  
R24                                                                  22571777.880    93878886.0393      -2298.648          42.750  
C36  24615879.120   128181336.773       -1381.605          46.000                                                                  
C27  21795024.400   113492409.195        -892.352          47.250                                                                  
C30  22616333.200   117769185.652        1653.137          51.250                                                                  
C32  24733762.940   128795191.906        3204.063          46.750                                                                  
C28  24753422.440   128897570.578       -2543.746          41.000                                                                  
E11  22575192.420   118633435.000         282.809          46.500    22575193.480    90900938.367         215.320          47.250  
E02  26050464.040   136896110.414        1720.305          44.500    26050470.360   104894437.367        1316.863          46.500  
E24  26418264.220   138828919.578       -3082.348          47.250    26418272.220   106375421.758       -2362.000          45.000  
E25  24225211.580   127304343.398        -988.965          50.500    24225217.460    97544890.816        -757.395          51.750  
E36  26226834.780   137822956.965        2069.621          46.000    26226843.840   105604641.289        1584.289          46.500  
E12                                                                  25264373.300   101729146.613       -1471.590          35.250  
> 2024 05 29 11 23 12.0000000  0 24       0.000000000000
G27  20095139.360   105600670.383        -197.094          54.750    20095142.660    82286254.094        -153.402          49.250  
G08  21156128.940   111176214.684        1995.516          51.250    21156134.220    86630849.707        1554.574          48.500  
G10  20801845.440   109314436.477         497.172          53.250    20801849.380    85180106.309         387.625          47.500  
G16  22039070.020   115816087.535       -2962.805          51.500                                                                  
G21  22861655.740   120138811.949        2427.320          47.750                                                                  
G23  21546813.360   113229272.6022      -1875.844          46.500    21546815.700    88230618.797       -1462.238          44.750  
G26                                                                  24659381.940   100976066.848       -2885.254          40.000  
R17  19695317.040   105393662.969        -564.668          52.000    19695325.420    81972838.668        -438.766          50.250  
R02  21096321.480   112574026.9183       2562.422          46.500                                                                  
R18  20844587.240   111269866.930        2083.781          52.000    20844595.280    86543243.586        1620.973          50.250  
R16  21117115.300   112803894.688        -532.496          52.000    21117123.120    87736358.320        -415.414          49.000  
R15  22081560.620   117997208.6172      -3831.383          44.250    22081572.760    91775631.0783      -2980.070          44.250  
R01  21413295.560   114466393.8753      -1346.191          40.250                                                                  
R24                                                                  22572322.340    93881147.547       -2296.121          41.500  
C36  24616136.520   128182673.680       -1380.980          47.250                                                                  
C27  21795187.040   113493256.664        -892.332          50.750                                                                  
C30  22616006.920   117767487.551        1652.039          51.250                                                                  
C32  24733139.380   128791943.672        3205.047          47.250                                                                  
C28  24753901.820   128900062.9383      -2540.133          40.500                                                                  
E11  22575130.500   118633108.059         281.813          47.000    22575131.500    90900687.816         214.961          48.250  
E02  26050128.140   136894345.371        1718.254          44.250    26050134.500   104893084.910        1318.430          46.750  
E24  26418842.000   138831955.422       -3083.078          45.000    26418849.480   106377747.980       -2359.430          44.000  
E25  24225391.260   127305287.660        -989.387          50.500    24225397.140    97545614.289        -758.598          51.750  
E36  26226433.100   137820842.680        2068.176          46.750    26226441.440   105603021.320        1585.004          46.250  
> 2024 05 29 11 23 13.0000000  0 26       0.000000000000
G27  20095165.380   105600807.789        -198.715          53.750    20095168.820    82286361.129        -155.047          49.250  
G08  21155737.580   111174158.719        1995.133          50.500    21155742.900    86629247.695        1553.105          48.250  
G10  20801739.580   109313880.145         496.598          53.750    20801743.360    85179672.801         386.234          47.000  
G16  22039622.560   115818990.555       -2964.172          52.250                                                                  
G21  22861182.320   120136325.492        2427.324          47.250                                                                  
G23  21547158.820   113231089.0902      -1875.629          48.750    21547161.360    88232034.332       -1462.090          47.500  
G26  24660060.760   129589501.4773      -3702.852          41.000    24660074.960   100978905.660       -2886.727          39.750  
R17  19695411.220   105394165.809        -563.594          52.500    19695419.280    81973229.742        -438.898          49.750  
R02  21095832.360   112571403.4652       2561.992          39.250    21095842.580    87555591.3983       1991.391          37.750  
R18  20844185.900   111267722.797        2083.730          52.000    20844194.000    86541575.918        1620.438          51.000  
R16  21117203.860   112804367.285        -533.453          51.750    21117212.680    87736725.906        -415.480          49.750  
R15  22082266.020   118000979.2302      -3830.965          48.500    22082278.580    91778563.8442      -2980.219          48.500  
R01  21413535.460   114467681.4022      -1350.410          42.000    21413546.380    89030426.0663      -1046.891          38.750  
R24                                                                  22572864.280    93883397.445       -2296.422          41.500  
C36  24616390.640   128183996.828       -1383.934          47.250                                                                  
C27  21795346.980   113494089.738        -893.238          52.500                                                                  
C30  22615678.100   117765775.453        1651.781          51.750                                                                  
C32  24732512.580   128788680.836        3202.566          45.000                                                                  
C28  24754378.980   128902546.0002      -2540.984          38.500                                                                  
C13                                                                  39170848.400   157724767.0553       -860.207          37.000  
E11  22575065.560   118632766.621         279.160          46.500    22575066.300    90900426.207         215.652          47.250  
E02  26049789.740   136892566.648        1716.574          43.500    26049795.920   104891721.910        1318.531          45.750  
E12  25265080.720   132768897.660       -1922.977          38.000    25265083.680   101732006.1411      -1472.742          43.500  
E24  26419416.860   138834976.570       -3082.074          46.250    26419423.960   106380062.930       -2360.789          43.500  
E25  24225568.080   127306217.793        -990.262          50.000    24225574.160    97546327.027        -759.273          51.250  
E36  26226027.720   137818714.219        2068.715          45.500    26226036.660   105601390.395        1584.684          47.500  
> 2024 05 29 11 23 14.0000000  0 26       0.000000000000
G27  20095189.260   105600932.859        -194.520          55.250    20095192.640    82286458.566        -151.797          50.000  
G08  21155344.180   111172090.473        1998.695          51.250    21155349.500    86627636.098        1557.848          49.000  
G10  20801631.380   109313311.324         499.652          53.750    20801634.960    85179229.613         389.801          48.000  
G16  22040172.480   115821881.594       -2959.594          52.000                                                                  
G21  22860706.720   120133826.977        2428.711          47.250                                                                  
G23  21547502.260   113232892.758       -1873.473          49.000    21547504.640    88233439.789       -1459.086          47.000  
R17  19695502.560   105394655.633        -560.555          52.000    19695511.140    81973610.738        -435.930          50.500  
R02  21095337.860   112568767.066        2565.305          42.250                                                                  
R18  20843782.100   111265566.109        2085.715          52.750    20843789.520    86539898.535        1622.570          51.000  
R16  21117290.080   112804828.172        -531.801          52.250    21117299.560    87737084.375        -412.730          50.750  
R15  22082969.420   118004737.879       -3830.480          51.250    22082981.080    91781487.688       -2976.992          49.250  
R01  21413773.800   114468956.711       -1346.047          43.000    21413783.320    89031418.211       -1045.488          40.250  
R24  22573393.440                       -2948.773          36.500                                                                  
C36  24616642.580   128185308.336       -1381.758          47.750                                                                  
C27  21795504.720   113494910.160        -889.137          52.750                                                                  
C30  22615347.080   117764051.027        1655.445          51.750                                                                  
C33  25282819.560   131654275.1253      -2032.281          40.250                                                                  
C13  39171037.540   203973881.4573      -1109.625          37.750                                                                  
C32  24731883.440   128785405.590        3206.094          45.000                                                                  
C28  24754852.780   128905015.5592      -2539.289          39.250                                                                  
E11  22574998.200   118632412.754         284.871          46.500    22574998.880    90900155.086         218.516          47.000  
E02  26049449.020   136890775.578        1720.063          44.500    26049455.260   104890349.566        1319.406          47.000  
E12  25265432.680   132770746.270       -1919.293          42.000    25265435.520   101733422.547       -1467.957          44.250  
E24  26419989.220   138837985.418       -3077.750          46.500    26419996.700   106382368.352       -2357.211          47.000  
E25  24225743.000   127307136.012        -988.738          50.250    24225749.080    97547030.598        -756.543          51.750  
E36  26225619.780   137816573.699        2070.777          45.750    26225629.600   105599750.246        1587.699          48.250  
> 2024 05 29 11 23 15.0000000  0 25       0.000000000000
G27  20095214.960   105601067.695        -193.375          54.500    20095218.200    82286563.660        -150.766          49.500  
G08  21154952.540   111170032.133        1999.801          51.000    21154957.600    86626032.199        1558.734          47.750  
G10  20801525.080   109312752.371         501.027          55.750    20801528.640    85178793.977         390.730          50.000  
G16  22040724.280   115824781.980       -2958.238          51.000                                                                  
G21  22860233.060   120131338.148        2430.445          47.000                                                                  
G23  21547847.300   113234706.242       -1872.281          49.250    21547849.680    88234852.883       -1457.637          49.250  
G26  24661445.420   129596782.7463      -3697.930          35.750    24661457.120   100984557.3321      -2880.391          35.500  
R17  19695596.200   105395155.348        -558.695          51.750    19695604.140    81973999.441        -434.516          50.000  
R02  21094845.560   112566140.590        2565.520          47.000    21094853.080    87551468.0312       1997.086          44.250  
R18  20843379.660   111263419.465        2088.082          52.500    20843387.680    86538228.898        1624.703          51.000  
R16  21117378.460   112805299.641        -531.094          52.250    21117387.060    87737451.086        -412.875          50.500  
R15  22083674.500   118008506.094       -3828.488          50.250    22083685.380    91784418.516       -2975.691          48.750  
R01  21414013.920   114470241.766       -1345.336          43.750    21414023.340    89032417.648       -1046.332          41.750  
C36  24616896.320   128186629.602       -1378.555          46.500                                                                  
C27  21795664.100   113495740.027        -887.805          52.750                                                                  
C30  22615017.480   117762336.320        1657.703          50.750                                                                  
C33  25283198.220   131656249.7462      -2033.891          37.750                                                                  
C13  39171238.480   203974930.8012      -1108.824          38.000    39171249.440   157726381.2382       -857.371          38.750  
C32  24731256.920   128782139.109        3205.969          44.250                                                                  
E11  22574932.740   118632068.512         286.371          46.750    22574933.560    90899891.340         220.547          47.250  
E02  26049110.020   136888994.570        1722.988          44.250    26049116.540   104888984.875        1319.625          47.250  
E12  25265785.820   132772604.195       -1915.617          43.500    25265789.160   101734846.125       -1468.793          44.250  
E24  26420563.260   138841003.121       -3075.969          46.500    26420571.500   106384680.586       -2357.266          48.500  
E25  24225919.580   127308064.004        -985.496          50.500    24225925.500    97547741.648        -756.066          51.000  
E36  26225213.980   137814442.625        2073.133          45.000    26225223.840   105598117.316        1588.906          47.500  
> 2024 05 29 11 23 16.0000000  0 27       0.000000000000
G27  20095251.880   105601262.035        -194.262          53.750    20095255.380    82286715.129        -151.820          50.250  
G08  21154571.960   111168033.168        1999.934          51.000    21154577.180    86624474.547        1558.000          48.500  
G10  20801430.060   109312252.859         499.414          55.000    20801433.820    85178404.809         389.164          50.750  
G16  22041287.700   115827741.809       -2960.164          51.500                                                                  
G21  22859770.980   120128908.594        2431.336          47.250                                                                  
G23  21548203.700   113236579.273       -1871.980          50.000    21548206.300    88236312.348       -1459.020          49.250  
G26  24662148.820   129600481.0822      -3697.945          37.000    24662157.620   100987424.0901      -2878.664          35.500  
R17  19695700.500   105395715.473        -559.266          52.250    19695708.840    81974435.102        -434.352          50.000  
R02  21094364.680   112563610.5823       2566.031          41.250    21094373.480    87549472.820        1995.664          41.750  
R18  20842988.620   111261332.984        2089.254          52.250    20842997.400    86536606.105        1623.449          51.250  
R16  21117477.660   112805832.051        -531.512          51.750    21117486.940    87737865.137        -413.355          50.250  
R15  22084390.820   118012334.750       -3827.273          51.000    22084401.320    91787396.379       -2976.301          48.750  
R01  21414266.020   114471587.750       -1344.277          42.750    21414275.840    89033464.508       -1046.949          39.750  
R24                                                                  22574493.360    93890192.2423      -2293.547          39.000  
C36  24617161.360   128188009.852       -1379.195          47.750                                                                  
C27  21795834.760   113496628.469        -886.680          52.750                                                                  
C30  22614699.460   117760680.180        1658.492          51.500                                                                  
C33  25283589.020   131658284.023       -2033.832          38.250                                                                  
C13  39171450.800   203976038.645       -1106.676          33.750                                                                  
C32  24730640.480   128778931.289        3210.121          43.250                                                                  
C28  24755817.240   128910043.8553      -2537.539          38.750                                                                  
E11  22574878.360   118631783.461         286.594          46.500    22574879.180    90899672.906         219.129          47.250  
E02  26048782.140   136887272.945        1723.391          44.000    26048788.460   104887665.699        1322.621          46.000  
E12  25266150.760   132774521.273       -1917.488          42.000    25266154.100   101736315.094       -1466.984          44.500  
E24  26421148.760   138844080.023       -3076.813          44.250    26421157.060   106387038.219       -2356.500          49.000  
E25  24226107.200   127309051.422        -985.801          50.250    24226113.420    97548498.230        -755.742          51.500  
E36  26224820.520   137812370.738        2073.473          46.500    26224829.480   105596529.781        1588.852          47.250  
> 2024 05 29 11 23 17.0000000  0 24       0.000000000000
G27  20095277.040   105601393.684        -193.648          54.500    20095280.320    82286817.676        -152.012          50.000  
G08  21154179.860   111165971.406        1999.215          51.250    21154184.680    86622867.949        1557.555          48.250  
G10  20801323.080   109311690.895         499.309          54.750    20801326.840    85177966.891         389.488          50.500  
G16  22041838.980   115830639.195       -2959.613          50.750                                                                  
G21  22859297.060   120126416.441        2430.473          47.000                                                                  
G23  21548548.260   113238389.359       -1872.527          50.750    21548550.620    88237722.816       -1458.441          49.000  
G26  24662840.480   129604116.5782      -3697.445          38.750    24662852.040   100990256.895       -2879.883          38.250  
R17  19695793.500   105396211.488        -559.785          52.500    19695801.300    81974820.875        -434.848          50.000  
R02  21093871.380   112560981.2113       2567.910          45.000    21093881.960    87547427.797        1994.492          46.250  
R18  20842585.940   111259182.613        2086.203          52.750    20842594.160    86534933.621        1623.613          51.500  
R16  21117565.880   112806301.336        -532.793          52.500    21117574.200    87738230.102        -414.504          49.500  
R15  22085095.520   118016100.012       -3828.332          50.250    22085106.540    91790324.934       -2976.320          48.500  
R01  21414505.860   114472870.242       -1345.699          41.250    21414516.660    89034462.008       -1048.918          38.750  
R24                                                                  22575032.540    93892436.4062      -2293.043          33.750  
C36  24617414.620   128189328.270       -1381.672          47.750                                                                  
C27  21795993.360   113497454.566        -887.797          53.250                                                                  
C30  22614369.500   117758961.699        1656.449          51.500                                                                  
C28  24756291.740   128912518.5662      -2537.004          41.500                                                                  
E11  22574812.420   118631435.457         285.309          47.250    22574813.020    90899406.246         218.512          47.250  
E02  26048443.220   136885488.531        1721.801          44.750    26048448.800   104886298.438        1319.887          45.500  
E12  25266503.300   132776374.957       -1916.102          42.750    25266506.740   101737735.488       -1466.820          44.750  
E24  26421722.900   138847094.297       -3076.148          45.500    26421730.540   106389347.922       -2355.137          46.750  
E25  24226283.520   127309976.359        -987.750          50.250    24226289.320    97549206.953        -757.445          51.000  
E36  26224414.500   137810236.156        2073.547          45.750    26224423.360   105594894.172        1586.477          47.000  
> 2024 05 29 11 23 18.0000000  0 25       0.000000000000
G27  20095301.500   105601522.113        -191.141          54.750    20095304.700    82286917.742        -149.324          50.250  
G08  21153787.120   111163906.430        2002.449          51.750    21153791.540    86621258.859        1561.141          48.250  
G10  20801215.360   109311125.586         503.574          55.000    20801219.300    85177526.387         392.289          51.000  
G16  22042389.820   115833533.148       -2955.883          52.000                                                                  
G21  22858822.320   120123920.934        2432.980          47.750                                                                  
G23  21548892.120   113240196.145       -1868.793          49.500    21548894.180    88239130.719       -1455.723          47.000  
G26  24663532.300   129607748.0472      -3692.898          40.500    24663543.940   100993086.625       -2877.195          39.000  
R17  19695885.500   105396703.977        -555.777          52.750    19695892.960    81975203.934        -432.883          50.250  
R02  21093377.940   112558348.156        2570.965          48.750    21093387.900    87545379.914        1998.883          47.750  
R18  20842182.520   111257028.938        2090.254          53.250    20842190.340    86533258.480        1625.531          51.250  
R16  21117652.860   112806767.883        -530.082          51.750    21117661.740    87738593.035        -412.402          50.000  
R15  22085799.580   118019861.793       -3825.445          51.500    22085809.960    91793250.672       -2974.715          47.250  
R01  21414746.400   114474149.344       -1344.301          36.000    21414757.460    89035456.887       -1042.797          35.500  
C36  24617667.440   128190643.566       -1378.504          47.750                                                                  
C27  21796151.460   113498277.094        -884.184          53.500                                                                  
C30  22614038.820   117757239.953        1659.809          51.250                                                                  
C33  25284345.760   131662222.2073      -2031.617          38.500                                                                  
C28  24756766.560   128914989.2702      -2531.559          39.000                                                                  
C13                                                                  39171864.560   157728869.0662       -853.980          37.000  
E11  22574745.300   118631084.051         287.949          47.000    22574746.220    90899136.996         221.141          47.750  
E02  26048103.020   136883700.973        1725.145          45.000    26048108.760   104884928.801        1320.699          45.500  
E12  25266855.800   132778225.020       -1911.211          40.750    25266858.920   101739153.023       -1466.688          43.750  
E24  26422295.460   138850104.715       -3073.043          44.750    26422303.520   106391654.594       -2354.621          47.500  
E25  24226458.700   127310898.156        -983.594          50.250    24226464.720    97549913.262        -754.488          51.250  
E36  26224007.380   137808098.102        2074.457          46.000    26224016.420   105593256.004        1589.449          46.750  
> 2024 05 29 11 23 19.0000000  0 27       0.000000000000
G27  20095325.380   105601647.906        -189.813          54.750    20095328.600    82287015.809        -148.969          49.750  
G08  21153393.640   111161838.730        2004.082          52.000    21153398.160    86619647.699        1559.871          48.500  
G10  20801107.340   109310557.793         503.043          55.000    20801111.400    85177083.922         391.934          50.750  
G16  22042940.100   115836424.281       -2955.945          51.500                                                                  
G21  22858346.740   120121422.430        2432.875          48.500                                                                  
G23  21549235.420   113242000.469       -1870.281          46.250    21549237.820    88240536.742       -1456.438          47.000  
G26  24664222.740   129611376.1762      -3698.254          38.750    24664234.720   100995913.727       -2877.715          39.000  
R17  19695976.920   105397193.754        -555.781          52.500    19695985.100    81975584.871        -432.215          50.500  
R02  21092884.780   112555712.734        2569.297          52.250    21092894.380    87543330.125        1998.652          49.500  
R18  20841777.840   111254872.305        2089.992          52.750    20841786.540    86531581.152        1626.281          51.750  
R16  21117740.000   112807232.176        -531.008          52.250    21117749.000    87738954.113        -412.871          50.500  
R15  22086502.620   118023620.574       -3823.777          51.000    22086513.740    91796174.207       -2974.887          47.250  
R01  21414984.520   114475426.266       -1342.469          43.250    21414995.520    89036449.988       -1046.004          38.250  
R24                                                                  22576111.340    93896933.3242      -2288.785          37.000  
C36  24617919.540   128191956.234       -1376.715          48.000                                                                  
C27  21796308.820   113499096.836        -883.652          53.000                                                                  
C30  22613707.620   117755515.281        1660.691          51.750                                                                  
C33  25284722.300   131664187.3752      -2027.477          38.500                                                                  
C13  39172054.680   203979198.1723      -1100.996          35.000                                                                  
C32  24728755.040   128769104.6253       3212.406          42.500                                                                  
C28  24757240.400   128917456.7542      -2531.672          36.750                                                                  
E11  22574677.540   118630729.793         289.066          46.500    22574678.700    90898865.555         222.543          47.500  
E02  26047762.420   136881910.727        1726.305          45.500    26047768.240   104883557.023        1321.297          46.250  
E24  26422867.620   138853112.047       -3070.828          44.500    26422875.580   106393958.906       -2351.910          47.250  
E25  24226633.680   127311817.234        -984.832          50.750    24226639.440    97550617.484        -753.941          51.250  
E36  26223600.260   137805956.992        2075.430          46.250    26223608.980   105591615.410        1589.949          47.250  
E12                                                                  25267210.500   101740568.371       -1462.938          42.500  
> 2024 05 29 11 23 20.0000000  0 24       0.000000000000
G27  20095352.660   105601791.602        -189.902          55.000    20095355.920    82287127.770        -148.109          50.500  
G08  21153003.260   111159788.496        2003.648          51.750    21153008.100    86618050.152        1561.945          49.000  
G10  20801002.900   109310008.016         503.844          55.250    20801006.660    85176655.559         391.598          50.500  
G16  22043493.420   115839333.098       -2955.512          51.500                                                                  
G21  22857874.080   120118941.293        2434.191          47.500                                                                  
G23  21549582.180   113243822.680       -1868.059          45.000    21549584.800    88241956.680       -1458.746          44.000  
G26  24664916.400   129615021.797       -3692.195          39.000    24664928.300   100998754.418       -2881.152          37.000  
R17  19696071.720   105397701.590        -554.668          52.000    19696079.940    81975979.848        -431.395          50.250  
R02  21092394.340   112553095.969        2569.512          50.500    21092402.820    87541294.816        1998.215          48.250  
R18  20841377.640   111252733.316        2092.898          52.750    20841385.900    86529917.469        1626.750          51.500  
R16  21117830.340   112807714.707        -529.785          52.250    21117839.140    87739329.438        -411.586          50.500  
R15  22087209.360   118027397.211       -3824.723          50.750    22087220.340    91799111.566       -2974.578          48.000  
R01  21415227.300   114476722.008       -1347.414          43.500    21415236.380    89037457.824       -1045.172          41.250  
C36  24618174.780   128193286.164       -1375.801          48.000                                                                  
C27  21796469.720   113499934.199        -883.480          53.000                                                                  
C30  22613379.720   117753807.801        1661.852          52.000                                                                  
C33  25285102.820   131666170.4412      -2028.828          40.000                                                                  
C13  39172254.540   203980253.7382      -1101.813          35.250                                                                  
E11  22574613.880   118630392.934         291.180          47.000    22574614.520    90898607.477         221.633          47.250  
E02  26047424.280   136880137.945        1727.313          44.750    26047430.520   104882198.668        1322.508          46.250  
E24  26423442.900   138856136.879       -3071.055          43.750    26423451.160   106396276.605       -2353.203          45.750  
E25  24226811.880   127312753.922        -983.250          50.500    24226817.540    97551335.184        -754.066          51.000  
E36  26223195.800   137803833.063        2078.164          45.750    26223204.760   105589987.973        1591.547          47.500  
E12                                                                  25267565.420   101741996.969       -1464.332          41.750  
> 2024 05 29 11 23 21.0000000  0 24       0.000000000000
G27  20095380.700   105601939.500        -187.730          54.750    20095384.120    82287242.992        -146.117          50.250  
G08  21152613.920   111157742.258        2005.008          51.500    21152618.880    86616455.641        1561.453          49.250  
G10  20800898.940   109309462.715         504.785          54.750    20800902.740    85176230.645         392.816          50.500  
G16  22044047.780   115842246.172       -2952.922          51.750                                                                  
G21  22857402.780   120116464.031        2436.637          48.250                                                                  
G23  21549929.420   113245649.418       -1864.938          42.500    21549932.640    88243380.008       -1454.727          44.500  
G26  24665610.900   129618671.449       -3687.758          38.500    24665623.100   101001598.285       -2874.457          40.500  
R17  19696167.420   105398213.523        -552.094          52.250    19696175.140    81976378.027        -429.902          50.000  
R02  21091904.560   112550483.949        2569.934          48.000    21091913.060    87539263.340        2000.043          46.000  
R18  20840977.440   111250598.203        2094.234          52.250    20840985.580    86528256.836        1629.375          51.000  
R16  21117921.620   112808201.820        -528.152          52.250    21117930.120    87739708.324        -411.059          50.500  
R15  22087916.960   118031178.102       -3823.164          51.250    22087928.300    91802052.195       -2973.141          48.250  
R01  21415469.260   114478022.340       -1341.875          41.500    21415479.600    89038469.227       -1041.461          39.750  
C36  24618430.700   128194620.262       -1375.566          47.750                                                                  
C27  21796631.160   113500775.488        -880.598          52.250                                                                  
C30  22613052.840   117752104.055        1662.844          52.250                                                                  
C33  25285484.460   131668157.6992      -2027.488          43.500                                                                  
C13  39172457.320   203981313.0082      -1098.398          41.250    39172468.460   157731287.3633       -845.984          39.500  
E11  22574550.800   118630059.980         292.453          47.250    22574551.200    90898352.336         224.969          47.250  
E02  26047088.080   136878369.145        1727.898          45.000    26047094.140   104880843.371        1323.945          46.000  
E12  25267916.940   132783799.0821      -1909.262          39.500    25267920.860   101743428.680       -1461.438          41.000  
E24  26424020.520   138859165.836       -3070.855          46.750    26424027.660   106398597.527       -2352.285          47.000  
E25  24226990.880   127313694.727        -981.637          50.250    24226996.580    97552056.102        -752.180          51.250  
E36  26222792.020   137801712.926        2080.504          45.500    26222801.460   105588363.461        1592.973          47.250  
> 2024 05 29 11 23 22.0000000  0 25       0.000000000000
G27  20095406.900   105602076.492        -187.023          54.500    20095410.300    82287349.766        -144.344          50.250  
G08  21152222.400   111155685.082        2007.746          51.500    21152227.520    86614852.652        1564.324          49.000  
G10  20800793.040   109308906.496         507.484          54.250    20800797.120    85175797.238         395.191          50.000  
G16  22044599.860   115845148.398       -2949.277          51.250                                                                  
G21  22856929.260   120113975.992        2440.969          48.000                                                                  
G23  21550274.940   113247464.672       -1865.223          47.500    21550277.540    88244794.504       -1453.199          47.750  
G26  24666303.400   129622309.496       -3684.520          39.250    24666315.440   101004433.145       -2871.027          37.000  
R17  19696260.820   105398713.984        -550.656          52.500    19696269.040    81976767.242        -428.152          50.750  
R02  21091413.660   112547860.586        2575.125          46.500    21091422.720    87537222.820        2003.758          43.000  
R18  20840575.480   111248451.867        2096.816          53.000    20840583.240    86526587.488        1629.109          51.500  
R16  21118010.780   112808678.473        -526.922          52.250    21118019.160    87740079.039        -408.973          50.500  
R15  22088622.400   118034948.129       -3819.648          51.000    22088633.760    91804984.492       -2971.078          49.250  
R01  21415710.520   114479311.555       -1338.527          45.750    21415720.900    89039471.871       -1043.379          41.250  
R24  22577721.940   120733251.6332      -2936.758          42.250                                                                  
C36  24618684.760   128195943.703       -1373.152          47.500                                                                  
C27  21796790.640   113501605.539        -878.313          52.750                                                                  
C30  22612723.280   117750389.406        1666.766          52.000                                                                  
C33  25285864.200   131670133.512       -2025.965          44.000                                                                  
C13  39172658.420   203982360.801       -1096.715          41.750    39172669.140   157732097.734        -846.699          41.250  
E11  22574485.260   118629715.984         296.824          47.250    22574485.860    90898088.750         226.695          47.500  
E02  26046749.620   136876589.348        1730.742          45.250    26046755.220   104879479.621        1326.375          45.500  
E12  25268270.780   132785655.984       -1906.789          41.500    25268274.220   101744851.441       -1458.945          43.750  
E24  26424594.200   138862183.559       -3066.820          45.750    26424602.280   106400909.750       -2348.313          47.000  
E25  24227168.100   127314624.914        -978.395          50.500    24227173.460    97552768.816        -749.926          51.250  
E36  26222386.900   137799581.914        2081.711          46.250    26222395.720   105586730.586        1594.809          46.500  
> 2024 05 29 11 23 23.0000000  0 26       0.000000000000
G27  20095432.720   105602212.617        -185.156          54.000    20095436.120    82287455.809        -143.230          50.000  
G08  21151830.640   111153626.852        2009.496          51.000    21151835.640    86613248.852        1565.566          48.750  
G10  20800686.960   109308349.461         508.016          53.750    20800691.100    85175363.168         396.637          49.500  
G16  22045152.020   115848049.332       -2949.137          51.750                                                                  
G21  22856455.520   120111486.434        2441.734          47.750                                                                  
G23  21550620.140   113249279.441       -1864.969          48.750    21550622.760    88246208.539       -1451.793          48.250  
G26  24666995.320   129625945.742       -3684.813          39.250    24667006.980   101007266.617       -2871.578          38.000  
R17  19696354.600   105399213.641        -549.797          52.500    19696362.520    81977155.910        -428.309          50.500  
R18  20840173.260   111246304.363        2099.965          52.500    20840181.120    86524917.176        1631.688          51.750  
R16  21118099.480   112809154.520        -526.355          52.250    21118108.500    87740449.242        -408.715          50.750  
R15  22089327.580   118038716.652       -3818.570          51.000    22089338.440    91807915.590       -2970.508          48.250  
R01  21415951.720   114480600.402       -1338.457          44.750    21415962.220    89040474.348       -1039.953          41.250  
R24  22578263.300   120736137.5042      -2936.586          42.500    22578273.120    93905918.3632      -2283.121          44.500  
R02                                                                  21090928.920    87535182.094        2000.605          39.250  
C36  24618938.680   128197266.066       -1370.148          47.500                                                                  
C27  21796949.700   113502434.672        -878.051          52.000                                                                  
C30  22612393.660   117748673.527        1668.184          51.500                                                                  
C33  25286243.400   131672108.895       -2027.027          42.500                                                                  
C13  39172859.420   203983407.262       -1095.160          42.500    39172870.280   157732906.855        -846.418          40.250  
C28  24759147.820   128927381.5783      -2524.887          38.500                                                                  
E11  22574419.180   118629370.781         296.609          46.500    22574420.320    90897824.242         226.676          47.500  
E02  26046410.560   136874808.633        1730.207          45.000    26046416.260   104878115.184        1327.266          44.750  
E12  25268624.000   132787511.680       -1905.070          42.250    25268627.160   101746273.324       -1458.348          45.000  
E24  26425167.700   138865199.602       -3065.027          45.250    26425175.840   106403220.809       -2349.090          47.750  
E25  24227344.680   127315553.867        -977.402          50.250    24227350.440    97553480.633        -749.383          51.500  
E36  26221980.720   137797449.266        2086.453          46.250    26221989.960   105585096.504        1597.395          46.750  
> 2024 05 29 11 23 24.0000000  0 25       0.000000000000
G27  20095459.180   105602350.625        -184.715          54.000    20095462.480    82287563.332        -144.328          50.000  
G08  21151439.460   111151570.438        2011.137          50.750    21151444.580    86611646.418        1565.465          49.500  
G10  20800581.480   109307794.422         508.797          54.500    20800585.280    85174930.684         396.621          49.750  
G16  22045704.420   115850952.102       -2948.422          51.000                                                                  
G21  22855982.660   120108998.648        2442.320          47.250                                                                  
G23  21550966.060   113251096.063       -1865.027          48.750    21550968.640    88247624.207       -1452.559          49.500  
G26  24667687.660   129629583.680       -3683.527          40.000    24667699.420   101010101.332       -2869.813          36.000  
R17  19696448.060   105399715.035        -548.871          52.000    19696455.840    81977545.852        -426.645          50.500  
R18  20839771.420   111244158.523        2098.730          52.750    20839778.880    86523248.168        1632.086          50.750  
R16  21118189.300   112809632.902        -526.121          52.750    21118198.280    87740821.336        -409.445          50.250  
R15  22090032.700   118042487.152       -3816.930          50.750    22090044.120    91810848.176       -2969.254          48.750  
R01  21416193.320   114481891.789       -1339.016          46.500    21416203.420    89041478.750       -1042.188          41.250  
R24  22578801.580   120739025.902       -2935.152          44.750    22578812.400    93908164.895       -2283.758          43.750  
C36  24619192.980   128198590.316       -1371.473          46.250                                                                  
C27  21797109.220   113503265.422        -878.531          52.750                                                                  
C30  22612064.160   117746959.207        1669.180          51.000                                                                  
C33  25286623.020   131674086.199       -2022.492          44.500                                                                  
C13  39173060.720   203984455.168       -1093.445          43.500    39173071.860   157733717.223        -845.840          41.000  
C28  24759622.720   128929853.0633      -2524.949          40.500                                                                  
E11  22574353.880   118629027.125         296.742          46.500    22574354.760    90897560.930         226.973          47.750  
E02  26046071.720   136873029.727        1733.461          44.500    26046077.580   104876752.102        1327.168          45.000  
E12  25268977.200   132789368.980       -1903.016          43.000    25268980.500   101747696.516       -1459.160          45.250  
E24  26425742.840   138868217.508       -3062.590          47.000    26425750.360   106405533.148       -2346.914          48.000  
E25  24227521.560   127316484.730        -976.109          49.750    24227527.720    97554193.891        -749.039          51.500  
E36  26221575.440   137795318.246        2086.074          45.500    26221583.960   105583463.652        1598.004          47.000  
> 2024 05 29 11 23 25.0000000  0 26       0.000000000000
G27  20095485.760   105602490.816        -182.430          54.000    20095489.120    82287672.609        -141.594          50.250  
G08  21151048.460   111149515.711        2014.441          50.250    21151053.520    86610045.367        1566.902          48.500  
G10  20800476.440   109307241.805         510.633          54.500    20800480.100    85174500.059         397.684          49.500  
G16  22046257.200   115853856.910       -2946.141          50.500                                                                  
G21  22855509.520   120106512.402        2444.965          46.750                                                                  
G23  21551312.360   113252915.152       -1860.668          49.750    21551315.100    88249041.625       -1450.121          49.250  
G26  24668380.380   129633223.320       -3679.363          40.000    24668393.040   101012937.434       -2866.363          36.250  
R17  19696542.080   105400218.438        -545.363          51.750    19696550.100    81977937.406        -424.188          50.250  
R02  21089938.580   112539983.4803       2575.336          46.750    21089947.720    87531105.5593       2003.145          43.500  
R18  20839369.740   111242014.273        2101.887          53.000    20839377.080    86521580.434        1634.855          50.000  
R16  21118279.280   112810113.543        -523.840          52.750    21118288.220    87741195.168        -406.629          50.500  
R15  22090738.580   118046259.430       -3815.469          50.500    22090750.860    91813782.152       -2968.234          49.000  
R01  21416435.500   114483185.863       -1336.105          46.000    21416444.840    89042485.145       -1041.090          43.000  
R24  22579341.640   120741915.809       -2932.844          48.000    22579353.120    93910412.531       -2280.855          46.750  
C36  24619447.760   128199916.309       -1367.637          46.750                                                                  
C27  21797269.080   113504098.219        -873.453          52.500                                                                  
C30  22611735.640   117745246.508        1671.680          51.750                                                                  
C33  25287003.220   131676065.699       -2017.043          42.750                                                                  
C13  39173262.240   203985504.789       -1089.090          43.250    39173273.240   157734528.895        -843.344          38.750  
C32  24724993.840   128749514.3403       3223.578          42.000                                                                  
E11  22574289.000   118628685.285         299.258          46.750    22574289.660    90897299.008         229.508          47.250  
E02  26045733.800   136871252.512        1734.746          44.750    26045739.660   104875390.344        1329.934          45.000  
E12  25269331.120   132791228.227       -1901.066          44.000    25269334.240   101749121.164       -1456.504          45.500  
E24  26426316.480   138871237.160       -3059.816          45.500    26426324.900   106407846.906       -2346.000          48.250  
E25  24227699.360   127317417.547        -974.008          50.250    24227705.260    97554908.637        -746.980          51.500  
E36  26221169.760   137793188.676        2089.207          45.000    26221179.020   105581831.898        1600.410          47.500  
> 2024 05 29 11 23 26.0000000  0 27       0.000000000000
G27  20095512.800   105602633.594        -180.902          53.500    20095516.160    82287783.863        -140.785          49.750  
G08  21150657.960   111147463.508        2016.875          50.500    21150662.880    86608446.234        1568.773          48.250  
G10  20800371.700   109306691.840         511.883          54.250    20800375.580    85174071.559         399.141          50.750  
G16  22046810.560   115856764.113       -2945.426          51.250                                                                  
G21  22855037.080   120104028.324        2444.758          46.750                                                                  
G23  21551659.060   113254736.891       -1858.383          49.500    21551661.600    88250461.156       -1448.699          49.250  
G26  24669073.280   129636864.758       -3679.883          39.750    24669085.980   101015774.887       -2867.641          39.250  
R17  19696636.480   105400724.422        -544.293          52.000    19696644.580    81978330.930        -425.043          50.000  
R02  21089448.980   112537366.9572       2577.074          51.750    21089458.080    87529070.5432       2004.906          47.250  
R18  20838968.040   111239872.383        2103.656          52.500    20838976.220    86519914.547        1635.863          51.000  
R16  21118369.940   112810597.164        -522.891          52.500    21118378.460    87741571.348        -405.727          50.250  
R15  22091445.280   118050033.977       -3814.563          51.250    22091456.300    91816717.922       -2966.063          48.750  
R01  21416678.280   114484482.867       -1336.117          46.500    21416687.420    89043494.039       -1037.824          43.250  
R24  22579882.720   120744807.984       -2931.309          47.750    22579894.460    93912661.996       -2279.215          46.750  
C36  24619702.920   128201244.723       -1366.168          46.750                                                                  
C27  21797429.640   113504933.379        -872.457          53.250                                                                  
C30  22611407.200   117743536.055        1672.391          51.500                                                                  
C33  25287383.640   131678047.941       -2018.762          42.500                                                                  
C13  39173464.140   203986556.781       -1090.699          40.250    39173475.160   157735342.309        -842.586          40.250  
C32  24724367.460   128746252.1052       3225.426          42.250                                                                  
C28  24760575.020   128934816.8592      -2519.504          44.250                                                                  
E11  22574224.360   118628345.805         301.074          47.000    22574224.940    90897038.863         230.109          47.250  
E02  26045395.800   136869477.695        1735.895          45.000    26045401.900   104874030.438        1329.734          46.000  
E12  25269685.520   132793089.750       -1899.332          44.250    25269688.320   101750547.465       -1455.023          45.500  
E24  26426892.400   138874258.840       -3058.844          47.750    26426899.460   106410162.273       -2343.793          47.750  
E25  24227877.420   127318352.801        -973.879          50.500    24227882.820    97555625.258        -745.148          50.500  
E36  26220765.060   137791061.215        2090.086          45.250    26220773.840   105580201.770        1603.805          46.750  
> 2024 05 29 11 23 27.0000000  0 27       0.000000000000
G27  20095547.540   105602815.332        -181.637          53.750    20095550.660    82287925.461        -140.379          49.750  
G08  21150274.880   111145449.898        2014.426          50.500    21150279.660    86606877.180        1570.750          48.500  
G10  20800274.500   109306181.113         511.195          54.250    20800278.460    85173673.578         397.816          50.000  
G16  22047371.260   115859710.246       -2945.289          50.250                                                                  
G21  22854571.440   120101582.859        2446.797          46.000                                                                  
G23  21552012.980   113256597.637       -1860.109          49.250    21552015.820    88251911.105       -1449.523          49.000  
G26  24669773.780   129640544.953       -3677.211          40.250    24669786.400   101018642.520       -2864.426          40.750  
R17  19696738.900   105401269.891        -544.672          52.500    19696746.660    81978755.180        -423.727          51.250  
R02  21088966.540   112534790.4652       2577.426          52.500    21088975.260    87527066.6172       2004.625          50.250  
R18  20838574.780   111237769.602        2103.523          53.250    20838582.400    86518279.035        1635.426          51.250  
R16  21118468.240   112811120.621        -523.000          52.500    21118476.640    87741978.449        -406.895          50.500  
R15  22092159.300   118053848.004       -3814.105          50.250    22092170.320    91819684.402       -2965.598          49.250  
R01  21416928.720   114485819.996       -1335.570          44.750    21416937.580    89044534.063       -1040.141          41.000  
R24  22580430.920   120747739.602       -2931.320          47.750    22580441.780    93914942.168       -2277.805          45.750  
C36  24619965.200   128202611.488       -1367.742          47.000                                                                  
C27  21797597.340   113505806.969        -873.520          52.750                                                                  
C30  22611086.060   117741863.742        1672.512          51.500                                                                  
C33  25287771.460   131680068.832       -2020.504          41.500                                                                  
C13  39173673.240   203987647.063       -1093.070          35.500    39173685.380   157736185.277        -841.113          40.000  
C32  24723748.560   128743028.4882       3225.484          41.000                                                                  
C28  24761058.900   128937337.5902      -2518.363          45.500                                                                  
E11  22574167.180   118628044.859         301.016          47.000    22574167.760    90896808.313         232.313          47.750  
E02  26045065.280   136867741.566        1739.078          43.750    26045071.480   104872700.195        1330.293          45.250  
E12  25270047.120   132794989.883       -1897.918          44.750    25270050.160   101752003.395       -1457.324          46.750  
E24  26427474.560   138877319.383       -3059.238          46.250    26427481.820   106412507.305       -2344.000          47.750  
E25  24228062.800   127319326.941        -973.551          50.500    24228068.340    97556371.680        -746.746          51.250  
E36  26220367.780   137788972.207        2089.133          45.750    26220376.680   105578601.094        1602.227          47.000  
> 2024 05 29 11 23 28.0000000  0 25       0.000000000000
G27  20095575.000   105602959.813        -181.914          53.750    20095578.120    82288038.023        -142.074          49.750  
G08  21149884.640   111143398.855        2012.566          51.000    21149889.260    86605279.004        1569.879          48.750  
G10  20800170.240   109305633.125         510.465          54.250    20800174.160    85173246.574         398.301          50.250  
G16  22047924.560   115862618.750       -2945.844          50.250                                                                  
G21  22854098.600   120099099.688        2444.867          46.000                                                                  
G23  21552360.080   113258421.371       -1860.809          49.750    21552362.760    88253332.227       -1450.309          48.500  
G26  24670467.000   129644187.027       -3678.715          42.000    24670479.360   101021480.531       -2865.012          40.750  
R17  19696833.380   105401777.398        -545.578          51.500    19696841.580    81979149.918        -424.402          50.500  
R02  21088476.360   112532176.383        2576.066          54.250    21088485.480    87525033.434        2004.684          51.250  
R18  20838173.220   111235628.707        2102.344          52.000    20838181.280    86516613.906        1635.066          50.500  
R16  21118559.560   112811606.574        -525.078          52.750    21118567.220    87742356.410        -407.043          49.750  
R15  22092865.780   118057623.844       -3812.879          50.750    22092876.220    91822621.113       -2966.066          48.750  
R01  21417172.780   114487120.031       -1338.516          42.000    21417180.740    89045545.219       -1041.340          39.750  
R24  22580971.720   120750633.242       -2929.508          46.250    22580982.620    93917192.777       -2278.523          44.750  
C36  24620220.520   128203941.246       -1368.090          44.250                                                                  
C27  21797757.800   113506643.477        -873.543          52.000                                                                  
C30  22610757.820   117740154.152        1672.559          51.750                                                                  
C32  24723122.480   128739767.301        3223.738          43.250                                                                  
C28  24761535.960   128939821.813       -2520.090          44.250                                                                  
E11  22574102.560   118627706.359         301.199          47.000    22574103.340    90896548.918         230.172          47.500  
E02  26044728.020   136865968.133        1737.176          44.250    26044734.280   104871341.328        1330.555          46.250  
E12  25270401.100   132796852.594       -1899.996          42.500    25270404.680   101753430.707       -1454.867          45.250  
E24  26428049.300   138880342.008       -3057.590          46.250    26428057.120   106414823.359       -2344.957          48.000  
E25  24228240.740   127320263.566        -973.012          50.000    24228246.500    97557089.355        -746.012          51.000  
E36  26219963.320   137786845.430        2091.148          45.750    26219972.180   105576971.516        1600.410          47.250  
> 2024 05 29 11 23 29.0000000  0 26       0.000000000000
G27  20095602.620   105603104.352        -179.211          53.500    20095605.780    82288150.656        -140.168          50.000  
G08  21149494.440   111141347.750        2016.078          50.250    21149498.960    86603680.695        1570.922          48.000  
G10  20800065.980   109305085.336         512.465          54.500    20800069.920    85172819.742         399.934          50.000  
G16  22048477.980   115865527.086       -2944.863          50.750                                                                  
G21  22853626.100   120096616.148        2449.387          46.000                                                                  
G23  21552706.880   113260245.434       -1861.133          43.750    21552709.980    88254753.543       -1449.371          45.250  
G26  24671159.700   129647828.504       -3675.805          42.250    24671172.340   101024317.988       -2866.965          41.000  
R17  19696927.820   105402284.895        -542.648          48.750    19696936.820    81979544.625        -423.199          49.000  
R02  21087986.580   112529562.539        2577.887          53.750    21087995.720    87523000.434        2004.816          51.750  
R18  20837772.360   111233487.477        2105.504          52.250    20837779.900    86514948.527        1637.199          51.000  
R16  21118650.180   112812092.738        -522.250          51.750    21118658.840    87742734.613        -406.566          50.250  
R09  23574472.220   125886403.5661       2946.344          44.750                                                                  
R15  22093572.320   118061399.305       -3810.594          51.250    22093583.220    91825557.590       -2963.527          49.500  
R24  22581512.840   120753526.586       -2927.910          43.000    22581523.120    93919443.043       -2278.195          43.750  
R01                                                                  21417425.040    89046556.629       -1041.375          33.500  
C36  24620476.240   128205270.777       -1364.188          46.250                                                                  
C27  21797918.560   113507479.828        -870.523          52.250                                                                  
C30  22610429.580   117738444.309        1674.730          51.000                                                                  
C32  24722496.060   128736505.766        3224.555          42.000                                                                  
C28  24762012.620   128942305.188       -2517.578          45.500                                                                  
E11  22574038.140   118627367.660         303.664          46.500    22574038.840    90896289.367         232.617          47.500  
E02  26044391.020   136864194.465        1739.164          45.000    26044396.600   104869982.262        1332.023          45.250  
E12  25270755.140   132798715.160       -1896.738          40.000    25270759.100   101754857.828       -1455.730          44.000  
E24  26428624.720   138883364.152       -3058.027          47.750    26428632.560   106417139.023       -2342.000          47.500  
E25  24228418.900   127321200.121        -970.988          50.500    24228424.940    97557806.957        -745.285          52.000  
E36  26219558.220   137784718.090        2091.566          44.250    26219567.040   105575341.477        1603.375          45.500  
> 2024 05 29 11 23 30.0000000  0 27       0.000000000000
G27  20095631.560   105603256.836        -180.852          54.000    20095634.880    82288269.508        -139.754          49.500  
G08  21149105.600   111139304.266        2015.902          51.000    21149110.180    86602088.352        1570.551          48.500  
G10  20799963.340   109304545.711         511.551          54.500    20799967.100    85172399.246         398.695          49.500  
G16  22049033.020   115868443.297       -2943.813          50.000                                                                  
G21  22853154.840   120094140.137        2449.297          46.500                                                                  
G23  21553056.420   113262077.367       -1860.141          41.000    21553058.480    88256180.965       -1447.762          42.750  
G26  24671853.980   129651477.434       -3674.223          43.500    24671866.520   101027161.387       -2863.336          40.750  
R17  19697024.400   105402800.484        -543.098          48.250    19697033.380    81979945.641        -423.148          47.750  
R02  21087498.480   112526957.168        2578.211          53.500    21087507.680    87520974.023        2006.094          51.250  
R18  20837372.540   111231353.859        2106.844          52.750    20837380.660    86513289.035        1638.074          51.500  
R16  21118742.400   112812587.320        -522.305          52.000    21118751.700    87743119.258        -405.660          51.000  
R09  23573915.740   125883430.438        2944.207          45.500                                                                  
R15  22094280.540   118065182.777       -3809.367          50.500    22094291.660    91828500.277       -2964.918          49.250  
R24  22582056.200   120756427.699       -2929.129          35.250                                                                  
R01                                                                  21417670.440    89047574.629       -1041.504          32.750  
C36  24620733.000   128206608.000       -1363.867          47.000                                                                  
C27  21798080.640   113508323.863        -871.578          52.500                                                                  
C30  22610102.420   117736741.871        1675.340          51.750                                                                  
C33  25288917.240   131686030.0273      -2024.016          37.500                                                                  
C32  24721870.920   128733252.109        3229.750          42.000                                                                  
C28  24762491.360   128944796.035       -2516.188          47.500                                                                  
E11  22573975.040   118627036.555         305.191          46.750    22573975.920    90896035.680         231.773          47.750  
E02  26044054.800   136862428.504        1739.488          44.750    26044060.760   104868629.105        1333.082          46.500  
E24  26429201.160   138886394.035       -3057.453          46.000    26429209.440   106419460.613       -2342.555          48.500  
E25  24228598.920   127322144.535        -971.699          50.000    24228604.700    97558530.578        -744.387          51.750  
E36  26219155.240   137782598.250        2094.250          46.000    26219163.820   105573717.188        1603.875          47.250  
E12                                                                  25271115.120   101756290.750       -1453.746          40.500  
> 2024 05 29 11 23 31.0000000  0 24       0.000000000000
G27  20095661.420   105603414.063        -179.852          53.000    20095664.960    82288392.039        -140.039          49.000  
G08  21148717.440   111137265.551        2015.590          50.750    21148722.400    86600499.773        1570.594          48.000  
G10  20799861.500   109304010.715         511.641          55.000    20799865.440    85171982.344         399.324          49.500  
G16  22049588.880   115871363.742       -2942.828          51.750                                                                  
G21  22852684.580   120091668.680        2451.098          47.000                                                                  
G23  21553405.360   113263914.398       -1862.070          40.750    21553407.940    88257612.363       -1449.434          41.750  
G26  24672549.060   129655130.043       -3674.813          44.000    24672561.980   101030007.480       -2862.891          42.500  
R02  21087010.920   112524356.602        2577.102          53.500    21087019.920    87518951.363        2004.840          51.000  
R18  20836973.700   111229225.051        2106.754          52.500    20836982.260    86511633.273        1637.793          50.750  
R16  21118836.240   112813087.285        -523.832          52.500    21118844.840    87743508.105        -407.348          50.000  
R09  23573359.800   125880462.793        2944.699          45.250                                                                  
R15  22094989.600   118068970.445       -3811.746          52.500    22095001.120    91831446.258       -2963.414          50.250  
R17                                                                  19697130.040    81980350.219        -423.008          41.000  
C36  24620990.620   128207949.922       -1364.164          47.750                                                                  
C27  21798243.640   113509172.625        -872.641          48.750                                                                  
C30  22609776.180   117735043.984        1674.508          50.750                                                                  
C32  24721246.680   128730002.141        3227.078          45.250                                                                  
C28  24762970.440   128947291.313       -2515.109          44.000                                                                  
E11  22573913.040   118626709.941         305.227          45.250    22573913.700    90895785.438         234.254          46.250  
E02  26043719.440   136860667.570        1739.176          45.000    26043725.560   104867279.809        1332.047          46.500  
E24  26429778.480   138889427.699       -3054.770          46.500    26429786.500   106421785.117       -2341.320          49.250  
E25  24228779.600   127323093.441        -970.742          50.250    24228785.280    97559257.672        -745.293          51.750  
E36  26218752.380   137780482.680        2093.855          45.750    26218761.080   105572096.145        1603.047          47.000  
E12                                                                  25271471.500   101757727.176       -1452.070          38.500  
> 2024 05 29 11 23 32.0000000  0 22       0.000000000000
G27  20095693.760   105603583.629        -177.797          51.000    20095696.880    82288524.133        -137.992          46.000  
G08  21148331.640   111135238.660        2018.469          51.750    21148336.460    86598920.402        1572.461          48.000  
G10  20799762.060   109303488.582         514.684          52.500    20799766.080    85171575.453         400.328          48.250  
G16  22050146.800   115874297.082       -2941.980          51.250                                                                  
G21  22852216.540   120089209.270        2450.375          48.500                                                                  
G26  24673246.760   129658795.398       -3680.195          42.000    24673259.600   101032863.699       -2862.426          40.000  
G23                                                                  21553759.800                       -1453.930          35.250  
R17  19697221.640   105403848.2383       -542.215          42.750                                                                  
R02  21086526.060   112521769.012        2578.063          52.250    21086533.740    87516938.887        2007.059          46.750  
R18  20836576.820   111227108.063        2108.137          52.500    20836585.560    86509986.770        1638.488          52.000  
R16  21118932.200   112813599.824        -521.180          52.500    21118940.300    87743906.758        -405.621          49.750  
R09  23572806.960   125877506.691        2947.809          44.750                                                                  
R15  22095700.560   118072771.199       -3810.383          51.250    22095711.780    91834402.375       -2963.133          49.750  
C36  24621250.540   128209303.984       -1363.164          48.250                                                                  
C27  21798409.320   113510033.090        -874.234          43.000                                                                  
C30  22609452.480   117733357.766        1677.934          52.250                                                                  
C32  24720625.480   128726764.984        3228.359          46.250                                                                  
E11  22573853.520   118626395.246         307.660          46.000    22573853.720    90895544.262         235.281          46.750  
E02  26043386.860   136858918.082        1738.867          45.750    26043392.640   104865939.316        1333.801          46.750  
E24  26430358.380   138892474.270       -3053.840          47.500    26430366.100   106424119.473       -2341.906          47.500  
E25  24228962.740   127324054.859        -969.691          50.750    24228968.280    97559994.379        -742.855          51.750  
E36  26218351.860   137778379.176        2093.828          44.750    26218360.740   105570484.422        1605.605          47.000  
> 2024 05 29 11 23 33.0000000  0 23       0.000000000000
G27  20095726.160   105603752.824        -178.906          54.500    20095729.140    82288656.000        -139.484          48.250  
G08  21147945.660   111133211.367        2016.953          51.250    21147950.980    86597340.645        1572.621          49.000  
G10  20799662.760   109302965.766         512.480          45.250    20799666.400    85171168.227         397.949          43.250  
G16  22050704.820   115877229.609       -2941.336          51.500                                                                  
G21  22851748.180   120086748.918        2450.605          46.500                                                                  
G26  24673943.600   129662459.516       -3673.063          43.000    24673956.720   101035718.758       -2862.660          42.750  
R17  19697320.900   105404380.0902       -544.035          38.750                                                                  
R02  21086040.940   112519181.313        2580.301          44.500    21086049.540    87514926.199        2005.297          45.250  
R18  20836180.100   111224990.516        2108.656          51.750    20836188.640    86508339.715        1638.703          51.500  
R16  21119028.040   112814112.398        -523.348          52.250    21119036.500    87744305.465        -405.539          50.000  
R09  23572252.440   125874550.582        2945.402          44.250                                                                  
R15  22096411.980   118076570.957       -3808.879          51.250    22096422.720    91837357.719       -2963.723          49.000  
R01  21418402.920   114493681.1173      -1334.570          38.750    21418413.320    89050648.8163      -1042.055          37.750  
C36  24621510.540   128210657.398       -1366.070          48.000                                                                  
C27  21798574.080   113510893.074        -869.988          43.000                                                                  
C30  22609128.500   117731670.895        1676.672          51.750                                                                  
C32  24720003.640   128723526.813        3228.895          45.750                                                                  
C28  24763933.880                       -2519.898          37.000                                                                  
E11  22573793.220   118626079.973         305.453          45.500    22573793.680    90895302.691         233.426          46.750  
E02  26043053.640   136857168.293        1739.871          45.500    26043059.600   104864598.563        1332.715          45.750  
E24  26430937.800   138895519.707       -3053.137          47.500    26430945.820   106426453.008       -2340.824          48.500  
E25  24229145.140   127325015.770        -970.297          50.000    24229150.940    97560730.629        -744.074          51.500  
E36  26217951.860   137776274.766        2096.195          46.000    26217960.020   105568871.949        1604.320          46.500  
> 2024 05 29 11 23 34.0000000  0 25       0.000000000000
G27  20095756.820   105603913.613        -179.953          52.000    20095759.600    82288781.227        -139.965          47.750  
G08  21147558.260   111131175.352        2017.734          52.000    21147563.680    86595754.160        1571.969          49.500  
G10  20799561.280   109302435.141         511.926          48.000    20799565.840    85170754.637         399.387          44.750  
G16  22051261.240   115880153.867       -2943.035          51.250                                                                  
G21  22851278.520   120084280.031        2450.063          48.500                                                                  
G23  21554459.560   113269458.2933      -1861.852          42.000    21554462.860    88261936.4491      -1448.449          42.000  
G26  24674639.300   129666114.922       -3674.574          43.250    24674651.940   101038567.156       -2864.457          42.250  
R17  19697418.700   105404903.543        -543.625          48.500    19697427.000    81981589.4963       -420.145          46.000  
R02  21085555.160   112516585.344        2576.887          42.500    21085563.100    87512907.168        2006.262          40.750  
R18  20835781.660   111222863.910        2108.352          51.750    20835790.280    86506685.773        1639.648          51.000  
R16  21119122.060   112814616.723        -523.797          52.250    21119131.300    87744697.664        -406.965          50.500  
R09  23571697.320   125871585.828        2943.766          43.750                                                                  
R15  22097120.900   118080362.293       -3809.746          50.250    22097132.640    91840306.570       -2962.078          49.750  
R01                                                                  21418659.460    89051674.7382      -1041.477          38.250  
R24                                                                  22584243.980    93930753.5233      -2276.516          35.000  
C36  24621768.940   128212002.402       -1364.211          47.750                                                                  
C27  21798737.780   113511744.523        -869.668          40.500                                                                  
C30  22608803.000   117729975.230        1677.402          52.250                                                                  
C33  25290454.520   131694029.6723      -2017.785          40.500                                                                  
C32  24719380.220   128720280.313        3229.664          46.250                                                                  
E11  22573731.380   118625755.887         304.059          47.250    22573732.120    90895054.363         232.523          47.750  
E02  26042719.300   136855409.695        1741.641          45.750    26042724.940   104863251.117        1332.293          46.250  
E24  26431515.980   138898556.621       -3056.609          47.750    26431523.600   106428779.973       -2341.113          46.750  
E25  24229326.760   127325968.133        -971.699          51.000    24229332.140    97561460.414        -743.715          51.750  
E36  26217549.740   137774161.527        2096.086          46.000    26217558.140   105567252.711        1606.453          47.250  
> 2024 05 29 11 23 35.0000000  0 24       0.000000000000
G27  20095786.480   105604071.078        -178.387          51.750    20095789.740    82288903.996        -137.738          46.750  
G08  21147170.300   111129136.098        2018.750          51.750    21147175.740    86594165.172        1574.820          49.500  
G10  20799460.060   109301901.078         513.465          46.000    20799464.120    85170338.434         399.602          43.000  
G16  22051817.180   115883074.398       -2941.398          53.000                                                                  
G21  22850807.920   120081807.594        2451.867          48.500                                                                  
G23  21554809.580   113271295.5632      -1855.980          44.750    21554812.040    88263367.949       -1445.203          43.250  
G26  24675334.380   129669766.063       -3670.000          43.250    24675346.580   101041412.180       -2859.184          43.000  
R17  19697515.880   105405423.336        -540.023          50.250    19697524.140    81981993.7502       -420.836          49.500  
R18  20835382.640   111220734.047        2108.254          51.750    20835390.960    86505029.172        1640.953          50.750  
R16  21119216.200   112815118.297        -522.805          51.750    21119225.200    87745087.781        -406.156          49.750  
R09  23571141.000   125868618.340        2946.121          41.500                                                                  
R15  22097830.100   118084149.863       -3808.465          51.750    22097841.200    91843252.477       -2961.992          48.750  
R01  21418893.820   114496304.1132      -1337.684          43.250    21418904.140    89052698.0862      -1040.738          37.750  
C36  24622026.740   128213344.301       -1362.387          47.000                                                                  
C27  21798900.120   113512592.266        -867.566          45.000                                                                  
C30  22608476.600   117728276.191        1679.316          51.250                                                                  
C33  25290838.660   131696026.6952      -2018.031          38.000                                                                  
C32  24718756.180   128717029.680        3230.070          46.000                                                                  
E11  22573669.380   118625428.313         307.086          47.500    22573670.120    90894803.410         236.426          48.750  
E02  26042384.200   136853648.180        1740.867          45.500    26042389.760   104861901.355        1334.266          45.750  
E12  25272899.160   132809989.1371      -1893.203          39.000    25272903.360   101763500.2151      -1451.070          43.500  
E24  26432093.180   138901589.520       -3052.828          47.250    26432100.520   106431103.910       -2338.793          46.750  
E25  24229507.140   127326917.184        -969.645          50.500    24229512.620    97562187.582        -742.820          51.000  
E36  26217146.980   137772044.680        2098.156          46.750    26217155.460   105565630.727        1606.949          46.750  
> 2024 05 29 11 23 36.0000000  0 25       0.000000000000
G27  20095815.320   105604222.980        -178.484          54.000    20095818.740    82289022.363        -139.414          49.250  
G08  21146781.260   111127091.031        2020.055          52.250    21146786.680    86592571.555        1573.242          49.250  
G10  20799357.520   109301361.098         513.930          46.000    20799361.340    85169918.063         400.871          40.250  
G16  22052371.980   115885989.574       -2940.887          53.250                                                                  
G21  22850336.240   120079329.348        2453.727          48.000                                                                  
G23  21555157.700   113273126.9302      -1858.113          49.000    21555160.180    88264795.031       -1448.273          47.250  
G26  24676027.940   129673411.309       -3672.602          41.500    24676040.300   101044252.789       -2860.969          41.000  
R17  19697611.320   105405937.098        -539.137          51.000    19697619.800    81982393.297        -420.117          50.250  
R18  20834983.020   111218598.020        2109.754          52.500    20834990.920    86503367.828        1641.242          51.500  
R16  21119309.660   112815614.477        -522.070          53.000    21119318.420    87745473.656        -406.742          50.750  
R09  23570584.180   125865644.668        2945.879          43.500                                                                  
R15  22098537.600   118087932.000       -3808.012          50.750    22098549.460    91846194.012       -2961.281          49.250  
R01  21419139.300   114497620.7731      -1334.660          39.500    21419149.680    89053717.738       -1038.391          39.500  
R24  22585321.900   120773914.0273      -2923.719          36.250                                                                  
C36  24622282.980   128214680.559       -1361.094          47.250                                                                  
C27  21799061.840   113513434.250        -866.004          51.250                                                                  
C30  22608149.060   117726571.297        1679.570          51.500                                                                  
C33  25291220.820   131698017.2382      -2016.117          42.000                                                                  
C32  24718131.080   128713773.629        3232.047          42.000                                                                  
E11  22573605.660   118625094.914         308.973          46.750    22573606.440    90894547.934         237.387          47.250  
E02  26042047.520   136851880.590        1741.020          45.500    26042053.300   104860546.988        1335.008          46.000  
E12  25273255.280   132811856.004       -1893.184          41.500    25273258.360   101764930.656       -1448.563          43.250  
E24  26432668.980   138904616.848       -3054.094          45.750    26432676.740   106433423.441       -2338.902          47.750  
E25  24229686.620   127327860.762        -968.527          50.250    24229692.340    97562910.578        -740.668          51.250  
E36  26216743.160   137769921.934        2099.199          45.750    26216751.780   105564004.188        1607.492          48.500  
> 2024 05 29 11 23 37.0000000  0 27       0.000000000000
G18  24511247.080   128807482.9883      -3107.289          43.250    24511254.920   100369497.9451      -2422.543          38.500  
G27  20095841.480   105604360.004        -177.082          55.500    20095844.860    82289129.109        -137.828          50.000  
G08  21146389.300   111125031.117        2019.672          52.000    21146394.580    86590966.465        1573.453          48.750  
G10  20799252.760   109300813.3593        515.277          49.000    20799255.640    85169485.801         401.309          44.750  
G16  22052923.860   115888889.566       -2939.883          52.500                                                                  
G21  22849861.720   120076836.133        2452.859          47.750                                                                  
G23  21555502.720   113274943.3132      -1854.434          46.500    21555505.620    88266210.461       -1446.211          46.750  
G26  24676717.980   129677041.086       -3669.914          40.250    24676730.860   101047081.109       -2858.016          39.750  
R17  19697704.020   105406435.414        -537.914          52.000    19697713.140    81982780.910        -419.844          50.250  
R02  21084088.500   112508778.9223       2579.629          45.250    21084099.100    87506850.0163       2006.535          46.000  
R18  20834579.700   111216446.895        2109.223          52.250    20834587.920    86501694.707        1640.926          50.750  
R16  21119399.560   112816096.191        -522.344          52.250    21119408.460    87745848.352        -406.988          50.750  
R09  23570023.920   125862656.273        2948.063          43.500                                                                  
R15  22099242.620   118091698.660       -3806.313          50.250    22099254.020    91849123.703       -2961.152          49.500  
R01  21419381.900   114498915.930       -1335.527          41.500    21419391.680    89054725.125       -1039.340          41.000  
C36  24622537.120   128216002.199       -1362.039          48.000                                                                  
C27  21799220.740   113514261.191        -867.125          53.000                                                                  
C30  22607818.900   117724851.453        1681.512          51.250                                                                  
C33  25291600.300   131699993.2342      -2015.219          44.500                                                                  
C13  39175710.180   203998205.7933      -1079.379          41.250    39175721.160   157744383.8053       -836.824          41.750  
C32  24717502.440   128710502.074        3230.008          42.500                                                                  
E11  22573539.140   118624746.402         309.523          46.000    22573540.120    90894280.891         236.270          47.500  
E02  26041708.500   136850098.336        1744.234          45.250    26041714.480   104859181.320        1334.211          46.750  
E12  25273607.400   132813707.539       -1892.941          41.000    25273610.260   101766349.375       -1449.594          43.500  
E24  26433242.280   138907628.508       -3051.301          46.000    26433250.000   106435731.207       -2337.109          46.000  
E25  24229863.580   127328789.457        -969.156          50.500    24229869.220    97563622.172        -742.930          51.750  
E36  26216335.820   137767784.145        2097.020          46.000    26216345.120   105562366.109        1609.914          47.250  
> 2024 05 29 11 23 38.0000000  0 27       0.000000000000
G18  24511838.960   128810592.195       -3107.477          46.250    24511845.880   100371920.297       -2421.777          40.250  
G27  20095875.040   105604536.418        -175.324          54.750    20095878.380    82289266.578        -137.684          49.250  
G08  21146004.440   111123010.465        2020.871          51.000    21146009.900    86589391.957        1575.207          48.250  
G10  20799154.240   109300298.656         515.105          53.500    20799157.740    85169084.445         401.398          48.000  
G16  22053483.240   115891828.801       -2939.043          52.000                                                                  
G21  22849394.860   120074382.188        2455.492          48.000                                                                  
G23  21555856.120   113276799.777       -1855.270          48.750    21555858.880    88267656.570       -1445.082          48.000  
G26  24677416.740   129680709.625       -3671.695          39.500    24677429.520   101049939.676       -2855.777          40.750  
R17  19697804.840   105406973.875        -536.699          50.750    19697813.480    81983199.711        -417.309          50.250  
R02  21083605.000   112506199.098        2580.109          47.000    21083614.280    87504843.949        2005.918          47.250  
R18  20834183.940   111214335.547        2112.551          51.750    20834192.400    86500052.594        1643.672          51.250  
R16  21119497.360   112816618.398        -522.383          52.250    21119505.880    87746254.504        -406.113          50.500  
R09  23569471.720   125859708.363        2951.508          42.750                                                                  
R15  22099955.000   118095505.301       -3805.336          51.000    22099966.800    91852084.387       -2959.406          49.500  
R01  21419632.360   114500251.996       -1334.461          43.750    21419641.700    89055764.160       -1037.703          41.500  
R24  22586404.340   120779690.1092      -2920.793          45.000    22586414.820    93939771.1562      -2270.074          45.750  
C36  24622798.500   128217362.918       -1360.617          47.250                                                                  
C27  21799387.320   113515127.031        -864.777          53.250                                                                  
C30  22607496.280   117723170.414        1682.309          51.500                                                                  
C13  39175917.720   203999285.5822      -1078.453          42.500    39175928.620   157745218.6522       -833.508          40.750  
C32  24716882.000   128707287.7273       3233.352          39.500                                                                  
E11  22573480.500   118624436.941         311.406          46.500    22573481.280    90894043.777         236.258          47.250  
E02  26041376.900   136848355.477        1743.980          45.000    26041382.600   104857845.938        1334.262          44.500  
E12  25273967.400   132815598.043       -1891.680          42.750    25273969.980   101767797.988       -1445.953          44.500  
E24  26433823.180   138910679.324       -3051.531          46.500    26433830.660   106438068.758       -2337.723          48.500  
E25  24230047.400   127329757.414        -966.598          50.000    24230053.300    97564363.840        -740.461          51.250  
E36  26215936.660   137765685.297        2100.617          46.000    26215945.680   105560757.953        1608.949          46.500  
> 2024 05 29 11 23 39.0000000  0 27       0.000000000000
G18  24512423.020   128813660.953       -3107.125          44.500    24512429.540   100374311.352       -2420.336          39.750  
G27  20095901.080   105604673.859        -174.156          54.250    20095904.620    82289373.672        -136.469          49.750  
G08  21145612.520   111120950.660        2022.445          51.000    21145617.920    86587786.945        1576.598          48.750  
G10  20799048.520   109299744.723         516.684          54.250    20799052.160    85168652.754         402.637          48.000  
G16  22054035.040   115894729.266       -2938.008          51.250                                                                  
G21  22848920.460   120071889.016        2454.305          47.750                                                                  
G23  21556201.840   113278616.422       -1852.168          49.250    21556204.600    88269072.148       -1444.199          48.500  
G26  24678107.380   129684339.121       -3667.848          39.500    24678120.080   101052767.805       -2856.531          38.500  
R17  19697898.080   105407472.125        -536.504          51.750    19697906.680    81983587.285        -417.184          50.000  
R02  21083114.420   112503579.688        2581.391          47.750    21083123.380    87502806.598        2006.770          48.250  
R18  20833781.260   111212184.258        2113.453          52.250    20833789.280    86498379.391        1643.117          51.750  
R16  21119587.760   112817101.355        -521.285          52.500    21119595.920    87746630.148        -405.344          50.250  
R09  23568913.240   125856720.313        2949.664          43.500                                                                  
R15  22100660.280   118099272.426       -3805.016          51.000    22100671.700    91855014.422       -2959.207          50.250  
R01  21419874.280   114501548.168       -1334.195          43.500    21419882.840    89056772.316       -1038.648          39.250  
R24  22586943.840   120782571.9532      -2920.086          46.000    22586953.980    93942012.4382      -2271.926          45.000  
C36  24623052.280   128218685.031       -1358.641          47.500                                                                  
C27  21799545.920   113515953.887        -862.359          52.500                                                                  
C30  22607165.980   117721450.418        1683.883          51.750                                                                  
C13  39176117.280   204000325.6842      -1076.508          41.250                                                                  
C32  24716253.600   128704016.2342       3232.953          43.750                                                                  
E11  22573414.040   118624088.254         311.348          46.250    22573414.800    90893776.633         238.164          47.250  
E02  26041037.520   136846573.297        1746.074          45.000    26041043.180   104856480.359        1337.113          45.000  
E12  25274319.280   132817448.902       -1888.652          43.000    25274322.300   101769216.145       -1446.871          44.750  
E24  26434395.780   138913691.078       -3048.906          46.000    26434404.020   106440376.438       -2337.797          49.500  
E25  24230224.460   127330686.555        -966.602          50.500    24230230.080    97565075.801        -740.246          51.500  
E36  26215529.420   137763547.348        2100.629          45.750    26215538.540   105559119.766        1609.324          47.000  
> 2024 05 29 11 23 40.0000000  0 29       0.000000000000
G18  24513007.440   128816732.336       -3106.563          45.500    24513013.740   100376704.824       -2417.973          41.000  
G27  20095927.820   105604814.723        -174.855          54.250    20095931.480    82289483.418        -137.082          49.750  
G08  21145221.160   111118894.211        2022.375          51.000    21145226.820    86586184.484        1577.059          49.000  
G10  20798943.640   109299194.270         516.047          55.500    20798947.520    85168223.832         402.504          49.750  
G16  22054587.300   115897632.973       -2938.410          51.250                                                                  
G21  22848446.420   120069399.180        2457.148          47.250                                                                  
G23  21556548.220   113280436.473       -1854.105          48.750    21556551.120    88270490.363       -1444.484          49.000  
G26  24678798.380   129687971.113       -3667.426          40.500    24678811.060   101055597.953       -2857.656          37.500  
R17  19697991.800   105407973.781        -536.281          49.750    19698000.140    81983977.523        -416.039          48.750  
R02  21082623.960   112500963.664        2582.086          52.750    21082632.600    87500771.934        2006.301          50.000  
R18  20833378.920   111210036.285        2114.156          52.250    20833387.040    86496708.715        1644.258          51.750  
R16  21119679.280   112817588.293        -522.559          52.750    21119687.600    87747008.895        -406.086          50.250  
R09  23568354.020   125853736.023        2952.297          42.750                                                                  
R15  22101365.700   118103042.859       -3805.883          51.500    22101376.960    91857946.965       -2960.348          50.250  
R01  21420118.420   114502848.246       -1338.910          39.250    21420129.160    89057783.469       -1035.027          38.750  
R24  22587483.160   120785456.652       -2917.629          45.500    22587494.040    93944256.180       -2270.176          45.500  
C36  24623306.540   128220010.648       -1360.086          46.000                                                                  
C27  21799705.380   113516783.855        -864.328          52.500                                                                  
C30  22606836.220   117719733.613        1683.266          51.250                                                                  
C13  39176317.880   204001369.262       -1076.105          39.750                                                                  
C32  24715625.160   128700748.074        3234.730          39.500                                                                  
C28  24767277.580   128969718.1991      -2508.871          47.250                                                                  
E11  22573348.220   118623742.793         310.668          46.250    22573349.160    90893511.898         239.859          47.500  
E02  26040698.820   136844794.586        1744.773          44.500    26040704.680   104855117.457        1337.055          44.500  
E12  25274672.000   132819302.742       -1887.738          42.000    25274675.340   101770636.625       -1445.188          45.500  
E19  26967927.180   141717414.637        1093.695          38.500                                                                  
E24  26434969.160   138916705.676       -3049.059          46.500    26434977.560   106442686.332       -2333.777          47.500  
E25  24230401.920   127331619.121        -967.609          50.250    24230407.720    97565790.352        -740.852          51.750  
E36  26215123.320   137761412.508        2100.914          46.250    26215132.160   105557483.988        1610.949          47.000  
> 2024 05 29 11 23 41.0000000  0 27       0.000000000000
G18  24513592.020   128819805.191       -3101.922          44.500    24513598.360   100379099.285       -2417.754          41.000  
G27  20095955.060   105604957.543        -173.438          54.500    20095958.560    82289594.719        -136.340          49.500  
G08  21144830.100   111116839.738        2021.250          51.000    21144835.700    86584583.594        1575.934          49.000  
G10  20798839.260   109298645.902         516.918          55.750    20798843.100    85167796.500         403.211          49.000  
G16  22055140.560   115900538.859       -2938.707          51.500                                                                  
G21  22847973.360   120066911.340        2456.141          47.750                                                                  
G23  21556894.720   113282258.387       -1853.859          47.750    21556897.720    88271910.059       -1446.797          45.750  
G26  24679490.000   129691605.125       -3663.805          40.000    24679502.120   101058429.609       -2854.828          38.750  
R17  19698085.940   105408477.324        -536.340          49.000    19698094.660    81984369.094        -417.609          48.750  
R02  21082134.160   112498349.941        2582.434          54.250    21082142.820    87498739.047        2007.898          51.500  
R18  20832976.760   111207890.227        2113.121          51.500    20832985.180    86495039.543        1644.270          52.000  
R16  21119770.720   112818077.832        -521.961          52.750    21119778.960    87747389.672        -405.980          50.250  
R09  23567795.520   125850753.785        2949.027          43.750                                                                  
R15  22102071.580   118106815.656       -3804.059          51.000    22102083.020    91860881.383       -2959.016          49.250  
R24  22588022.620   120788342.879       -2916.195          46.000    22588033.680    93946500.996       -2269.359          45.750  
C36  24623561.360   128221338.480       -1358.215          46.750                                                                  
C27  21799864.780   113517615.445        -861.871          52.250                                                                  
C30  22606506.740   117718018.551        1682.500          51.250                                                                  
C32  24714998.120   128697481.281        3236.293          44.500                                                                  
C28  24767753.000   128972194.777       -2508.254          47.250                                                                  
E11  22573283.160   118623399.031         309.031          46.500    22573283.780    90893248.516         237.313          47.750  
E02  26040361.140   136843017.797        1742.250          45.000    26040366.780   104853756.020        1335.898          45.000  
E12  25275024.520   132821157.945       -1888.949          40.000    25275028.280   101772058.219       -1445.266          44.500  
E19  26967713.320   141716290.000        1093.105          38.000                                                                  
E24  26435543.380   138919722.340       -3046.285          44.500    26435551.220   106444997.809       -2336.563          47.500  
E25  24230579.560   127332553.879        -967.289          50.250    24230585.560    97566506.582        -740.293          51.750  
E36  26214717.840   137759279.609        2102.059          46.500    26214726.560   105555849.672        1610.809          48.000  
> 2024 05 29 11 23 42.0000000  0 26       0.000000000000
G18  24514177.800   128822884.398       -3104.746          43.750    24514184.620   100381498.617       -2419.133          41.750  
G27  20095983.580   105605107.227        -173.941          54.250    20095987.160    82289711.367        -137.633          50.250  
G08  21144440.820   111114792.223        2022.824          51.500    21144446.000    86582988.156        1576.371          49.250  
G10  20798736.200   109298104.289         517.539          55.500    20798740.040    85167374.473         402.664          49.250  
G16  22055694.580   115903451.391       -2935.582          51.500                                                                  
G21  22847501.260   120064430.473        2456.680          47.750                                                                  
G23  21557242.820   113284087.129       -1852.422          47.000    21557245.200    88273334.992       -1444.816          44.250  
G26  24680182.900   129695245.121       -3663.988          41.750    24680194.760   101061265.918       -2852.648          41.250  
R17  19698181.000   105408987.574        -535.324          44.750    19698189.400    81984766.027        -416.910          45.750  
R02  21081645.420   112495743.020        2582.793          53.000    21081654.180    87496711.461        2008.371          51.250  
R18  20832576.300   111205751.234        2114.926          52.250    20832584.860    86493375.895        1644.656          51.000  
R16  21119863.180   112818575.066        -521.063          52.500    21119872.140    87747776.434        -404.793          51.000  
R09  23567237.960   125847779.070        2950.957          45.250                                                                  
R15  22102778.900   118110595.297       -3804.145          52.000    22102790.580    91863821.094       -2958.242          50.000  
R24  22588563.300   120791235.414       -2918.781          45.500    22588574.180    93948750.770       -2268.332          46.000  
C36  24623817.840   128222673.410       -1357.602          47.750                                                                  
C27  21800025.880   113518453.625        -861.309          50.750                                                                  
C30  22606178.740   117716310.285        1684.281          51.750                                                                  
C28  24768229.720   128974677.250       -2507.250          47.000                                                                  
E11  22573218.940   118623061.969         313.828          46.500    22573219.680    90892990.227         238.227          48.000  
E02  26040024.100   136841248.195        1745.172          43.500    26040029.900   104852400.082        1337.477          44.250  
E12  25275378.120   132823019.547       -1886.742          39.000    25275382.380   101773484.773       -1446.531          40.000  
E19  26967500.860   141715171.832        1094.219          38.250    26967508.080   108586964.0161        838.391          37.250  
E24  26436118.660   138922745.195       -3047.238          45.250    26436126.440   106447314.047       -2333.988          48.500  
E25  24230758.760   127333495.559        -965.652          50.500    24230764.720    97567228.148        -740.121          51.500  
E36  26214312.900   137757153.504        2103.117          46.500    26214321.660   105554220.578        1609.996          47.250  
> 2024 05 29 11 23 43.0000000  0 26       0.000000000000
G18  24514764.940   128825968.469       -3102.762          43.000    24514771.800   100383901.773       -2419.840          39.750  
G27  20096012.960   105605262.391        -171.762          53.750    20096016.720    82289832.316        -135.191          48.250  
G08  21144051.840   111112749.520        2024.211          50.750    21144057.340    86581396.430        1578.660          49.250  
G10  20798634.080   109297568.398         517.359          53.500    20798637.940    85166957.000         403.570          47.500  
G16  22056250.040   115906369.141       -2936.121          51.500                                                                  
G21  22847029.900   120061954.086        2456.926          47.250                                                                  
G23  21557591.840   113285921.375       -1851.836          45.000    21557594.340    88274764.328       -1443.469          44.750  
G26  24680876.020   129698889.957       -3663.938          41.750    24680888.320   101064106.031       -2854.824          38.750  
R17  19698277.440   105409503.242        -533.840          45.000    19698285.920    81985166.957        -416.184          42.750  
R02  21081157.940   112493142.215        2584.273          53.250    21081166.780    87494688.559        2008.125          51.750  
R18  20832176.300   111203616.813        2116.258          51.500    20832184.980    86491715.785        1647.148          51.750  
R16  21119957.540   112819077.578        -519.699          51.500    21119966.120    87748167.246        -405.188          50.000  
R09  23566682.220   125844809.117        2953.063          41.500                                                                  
R15  22103487.440   118114379.879       -3801.332          51.250    22103498.620    91866764.613       -2956.602          50.000  
R24  22589103.040                       -2918.191          41.500    22589116.520    93951004.770       -2268.105          45.750  
C36  24624076.000   128224012.953       -1356.117          47.000                                                                  
C27  21800186.820   113519297.074        -860.254          44.250                                                                  
C30  22605851.440   117714606.609        1687.148          51.000                                                                  
C28  24768707.460   128977165.184       -2507.008          47.250                                                                  
E11  22573155.760   118622729.918         313.840          45.500    22573156.420    90892735.777         242.039          45.750  
E02  26039688.580   136839483.180        1748.129          46.000    26039693.860   104851047.676        1339.160          44.000  
E12  25275735.740   132824886.371       -1880.691          36.750                                                                  
E24  26436694.980   138925773.102       -3043.578          45.250    26436702.860   106449634.105       -2333.398          46.250  
E25  24230938.880   127334442.273        -964.484          50.000    24230944.660    97567953.535        -738.297          50.750  
E36  26213908.960   137755031.766        2107.988          45.000    26213918.000   105552594.887        1612.520          46.750  
E19                                                                  26967296.280   108586111.699         836.441          36.500  
> 2024 05 29 11 23 44.0000000  0 24       0.000000000000
G18  24515352.480   128829056.035       -3101.371          41.750    24515359.240   100386307.945       -2415.750          39.250  
G27  20096043.200   105605421.137        -173.301          49.750    20096047.180    82289955.934        -134.305          47.000  
G08  21143663.880   111110710.168        2023.875          51.750    21143669.400    86579807.219        1578.242          48.750  
G10  20798532.880   109297036.309         518.059          52.250    20798536.600    85166542.301         402.602          47.000  
G16  22056805.920   115909290.223       -2936.035          51.500                                                                  
G21  22846559.220   120059480.723        2458.277          48.000                                                                  
G26  24681569.680   129702537.867       -3661.359          38.500    24681582.720   101066948.563       -2855.246          38.000  
G23                                                                  21557943.940    88276196.469       -1444.023          39.750  
R17  19698375.040   105410022.258        -534.152          44.500    19698383.000    81985570.660        -414.797          42.250  
R02  21080671.180   112490545.359        2581.980          51.750    21080680.260    87492668.824        2009.258          50.250  
R18  20831776.880   111201485.535        2118.273          50.000    20831785.140    86490058.148        1646.496          49.500  
R16  21120053.040   112819583.965        -520.113          52.000    21120061.040    87748561.121        -402.859          49.250  
R09  23566127.240   125841843.066        2952.527          42.000                                                                  
R15  22104195.740   118118167.680       -3801.090          50.000    22104208.120    91869710.762       -2955.832          48.500  
R24  22589647.780   120797032.1291      -2915.996          41.500    22589659.000    93953261.570       -2268.297          42.500  
C36  24624333.400   128225355.680       -1355.668          47.750                                                                  
C27  21800349.920   113520143.660        -862.152          42.500                                                                  
C30  22605524.900   117712906.086        1686.207          51.000                                                                  
C28  24769185.720   128979656.504       -2505.941          47.500                                                                  
E11  22573093.600   118622401.102         314.945          44.500    22573093.620    90892483.898         240.977          44.000  
E02  26039353.420   136837721.484        1746.879          44.500    26039358.800   104849697.855        1337.707          45.000  
E24  26437271.660   138928804.164       -3045.570          42.750    26437279.840   106451956.586       -2334.172          46.500  
E25  24231119.840   127335392.348        -963.828          50.000    24231125.420    97568681.500        -738.238          50.750  
E36  26213506.220   137752912.992        2106.254          45.250    26213515.140   105550971.434        1612.629          47.750  
> 2024 05 29 11 23 45.0000000  0 23       0.000000000000
G27  20096075.700   105605591.930        -173.719          48.250    20096079.720    82290088.953        -134.180          45.250  
G08  21143278.180   111108682.605        2024.020          51.750    21143283.480    86578227.402        1578.609          48.250  
G10  20798434.080   109296516.426         515.656          50.000    20798437.700    85166137.145         401.250          43.750  
G16  22057364.180   115912223.328       -2937.109          51.500                                                                  
G21  22846091.040   120057019.148        2458.941          47.750                                                                  
G26  24682266.540   129706197.316       -3662.508          40.750    24682279.360   101069815.0551      -2852.789          36.500  
G23                                                                  21558296.060    88277638.250       -1441.297          40.500  
R17  19698473.880   105410553.598        -534.625          44.500    19698482.600    81985984.086        -415.074          44.500  
R02  21080186.940   112487961.008        2581.117          52.250    21080196.100    87490658.816        2006.070          50.250  
R18  20831380.260   111199366.391        2115.730          50.750    20831388.660    86488409.965        1646.203          50.750  
R16  21120150.180   112820102.902        -520.973          51.750    21120157.980    87748964.691        -406.242          49.250  
R09  23565574.340   125838889.203        2952.723          43.500                                                                  
R15  22104907.020   118121967.781       -3804.582          50.250    22104918.860    91872666.324       -2958.254          49.000  
C36  24624593.660   128226710.449       -1358.715          47.750                                                                  
C27  21800514.720   113521002.340        -863.070          41.250                                                                  
C30  22605200.620   117711217.105        1686.539          50.000                                                                  
C28  24769666.640   128982159.633       -2505.859          45.750                                                                  
C13                                                                  39177338.900   157750900.0163       -828.988          29.750  
E11  22573032.740   118622083.863         314.520          44.750    22573033.140    90892240.762         240.508          44.250  
E02  26039020.340   136835971.820        1747.578          44.750    26039026.360   104848357.020        1336.117          44.250  
E24  26437850.780   138931846.961       -3046.773          47.000    26437858.820   106454288.164       -2335.559          46.250  
E25  24231302.680   127336354.445        -964.504          49.750    24231308.420    97569418.711        -739.770          50.000  
E36  26213105.520   137750805.938        2104.184          46.250    26213113.940   105549356.922        1611.801          47.000  
> 2024 05 29 11 23 46.0000000  0 26       0.000000000000
G27  20096108.100   105605760.461        -172.855          51.750    20096111.520    82290220.438        -135.152          47.500  
G08  21142891.940   111106653.191        2024.039          50.500    21142897.240    86576646.078        1578.652          48.500  
G10  20798334.360   109295994.199         515.711          49.250    20798338.320    85165730.324         401.625          42.000  
G16  22057921.700   115915154.273       -2934.883          49.250                                                                  
G21  22845622.300   120054555.625        2458.363          48.000                                                                  
G23  21558644.900   113291453.0393      -1851.719          41.250    21558648.680    88279078.176       -1444.633          43.000  
G26  24682962.220   129709854.168       -3660.551          42.250                                                                  
G18                                                                  24516537.380   100391139.9451      -2417.449          37.750  
R17  19698572.680   105411082.637        -533.418          42.750    19698581.000    81986395.410        -414.930          43.750  
R02  21079702.900   112485374.559        2581.770          51.750    21079711.660    87488647.180        2006.879          49.750  
R18  20830983.160   111197245.133        2116.578          51.000    20830990.280    86486760.000        1645.387          48.250  
R16  21120246.840   112820620.477        -522.363          50.750    21120255.440    87749367.313        -406.926          50.000  
R09  23565021.020   125835933.836        2950.723          45.750                                                                  
R15  22105617.660   118125765.836       -3802.711          49.250    22105629.320    91875620.344       -2956.453          48.250  
R24                                                                  22590755.800    93957856.9773      -2269.188          40.250  
C36  24624853.540   128228063.367       -1357.918          48.250                                                                  
C27  21800679.580   113521858.191        -860.387          44.250                                                                  
C30  22604876.160   117709526.117        1687.133          51.000                                                                  
C33  25295049.000   131717959.8483      -2015.012          35.000                                                                  
C28  24770147.560   128984659.961       -2506.219          44.000                                                                  
C13                                                                  39177546.440   157751730.5042       -828.480          34.500  
E11  22572972.000   118621764.387         311.371          46.250    22572972.080    90891996.066         240.664          45.250  
E02  26038685.620   136834220.086        1744.723          41.000    26038692.500   104847015.117        1338.645          44.000  
E24  26438429.240   138934887.445       -3044.676          43.750    26438437.380   106456617.824       -2332.262          46.500  
E25  24231485.600   127337314.582        -964.691          50.750    24231491.180    97570154.332        -741.238          50.750  
E36  26212703.560   137748696.703        2103.777          46.000    26212712.560   105547740.805        1612.398          47.000  
> 2024 05 29 11 23 47.0000000  0 22       0.000000000000
G27  20096140.640   105605931.219        -167.906          50.750    20096143.800    82290353.445        -135.293          46.750  
G08  21142506.160   111104625.559        2027.836          49.250    21142511.640    86575066.172        1578.125          45.000  
G10  20798235.460   109295464.6993        518.180          47.000    20798239.460    85165325.086         401.852          42.750  
G16  22058479.920   115918086.938       -2934.609          49.750                                                                  
G21  22845153.820   120052093.973        2460.555          48.250                                                                  
G26  24683658.160   129713502.3753      -3664.996          41.250    24683671.200   101075515.121       -2857.160          38.750  
R17  19698671.980   105411613.609        -532.469          43.500    19698680.220    81986808.406        -413.355          44.500  
R02  21079218.660   112482790.383        2575.027          46.250    21079226.400    87486637.094        2008.453          45.250  
R18  20830585.860   111195125.762        2115.625          50.500    20830593.720    86485111.641        1645.977          51.000  
R16  21120343.480   112821140.652        -524.945          48.750    21120352.380    87749771.754        -407.484          48.250  
R09  23564467.700   125832981.320        2949.992          43.500                                                                  
R15  22106328.800   118129565.633       -3802.328          51.500    22106339.880    91878575.820       -2955.898          48.250  
R24                                                                  22591295.740    93960122.3282      -2265.805          41.000  
C36  24625113.900   128229418.430       -1359.320          49.000                                                                  
C27  21800844.760   113522716.172        -861.008          46.750                                                                  
C30  22604551.500   117707836.773        1687.805          49.750                                                                  
C28  24770627.020   128987161.793       -2502.453          41.000                                                                  
E11  22572911.980   118621446.941         315.652          44.250    22572912.020    90891752.750         241.574          44.500  
E02  26038353.680   136832470.684        1747.000          44.500    26038359.900   104845674.492        1338.719          45.250  
E24  26439008.320   138937929.402       -3042.758          44.500    26439016.240   106458948.566       -2331.949          48.750  
E25  24231668.960   127338276.648        -964.414          49.750    24231674.420    97570891.566        -738.777          51.750  
E36  26212302.480   137746589.340        2104.445          45.500    26212311.340   105546125.969        1614.223          46.500  
> 2024 05 29 11 23 48.0000000  0 25       0.000000000000
G27  20096173.040   105606102.824        -173.500          48.250    20096176.720    82290487.063        -134.781          43.750  
G08  21142120.420   111102598.906        2024.195          50.000    21142126.060    86573487.047        1577.551          47.750  
G10  20798136.880   109294945.7112        517.145          51.000    20798140.760    85164920.648         401.012          44.250  
G16  22059038.080   115921020.977       -2937.027          51.250                                                                  
G21  22844685.020   120049633.320        2456.727          48.250                                                                  
G26  24684354.900   129717161.1762      -3662.980          41.500    24684368.000   101078366.250       -2851.453          39.000  
G23                                                                  21559352.300    88281951.8011      -1440.715          38.500  
R17  19698771.740   105412145.176        -533.969          46.000    19698779.900    81987221.707        -414.828          43.750  
R02  21078733.160                        2581.996          43.000    21078742.960    87484613.5003       2006.859          39.750  
R18  20830189.180   111193007.094        2116.984          51.250    20830196.440    86483463.781        1645.875          50.000  
R16  21120441.840   112821662.512        -523.535          51.250    21120449.380    87750177.641        -408.598          48.750  
R09  23563914.260   125830022.0863       2947.262          39.500                                                                  
R15  22107040.560   118133366.766       -3802.898          51.500    22107052.060    91881532.207       -2956.422          48.500  
C36  24625374.300   128230774.695       -1359.109          48.250                                                                  
C27  21801009.380   113523574.617        -858.289          44.000                                                                  
C30  22604227.380   117706148.363        1686.262          50.750                                                                  
C33  25295818.560   131721966.0702      -2009.957          43.500                                                                  
C13  39177947.560   204009861.6763      -1073.238          42.250    39177958.520   157753394.1482       -831.203          38.000  
C28  24771108.100   128989663.898       -2503.191          41.500                                                                  
E11  22572851.560   118621130.020         314.809          41.500                                                                  
E02  26038020.680   136830721.934        1744.551          43.500    26038027.360   104844334.582        1339.004          45.500  
E24  26439587.720   138940972.098       -3044.219          42.500    26439594.980   106461280.227       -2334.152          45.250  
E25  24231851.760   127339240.012        -965.711          49.000    24231857.680    97571629.738        -737.707          48.000  
E36  26211902.780   137744482.883        2102.223          46.000    26211910.280   105544511.949        1612.207          45.750  
E12                                                                  25277526.340   101782108.3011      -1448.680          37.500  
> 2024 05 29 11 23 49.0000000  0 27       0.000000000000
G18  24518299.980   128844542.9923      -3100.137          42.000    24518306.100   100398379.6481      -2416.629          36.500  
G27  20096206.100   105606276.809        -175.551          48.500    20096209.600    82290622.652        -135.488          44.750  
G08  21141734.360   111100574.418        2025.289          47.750    21141740.460    86571909.246        1577.023          46.000  
G10  20798038.380   109294428.5593        514.984          46.000    20798042.580    85164518.273         402.855          43.500  
G16  22059596.780   115923957.156       -2936.391          49.500                                                                  
G21  22844217.060   120047174.402        2457.871          48.750                                                                  
G23                                                                  21559705.060    88283395.727       -1443.070          41.750  
R17  19698871.880   105412678.695        -535.402          46.750    19698879.020    81987636.805        -415.055          45.750  
R02  21078249.920   112477619.8323       2582.137          43.250                                                                  
R18  20829792.760   111190890.242        2115.727          51.000    20829800.780    86481817.473        1648.293          48.500  
R16  21120538.820   112822186.566        -527.461          48.250    21120547.740    87750585.367        -409.199          47.750  
R09  23563363.140   125827080.1412       2953.637          41.000                                                                  
R15  22107752.360   118137170.059       -3803.516          50.500    22107763.460    91884490.355       -2958.629          49.500  
R01  21422344.780   114514743.1763      -1337.547          42.500                                                                  
R24  22592375.380   120811625.3093      -2913.773          42.750                                                                  
C36  24625634.960   128232132.691       -1358.930          47.500                                                                  
C30  22603903.800   117704461.672        1683.297          50.500                                                                  
C33  25296204.340   131723977.3952      -2012.969          42.250                                                                  
C13  39178152.700   204010932.8242      -1068.512          39.750    39178164.140   157754221.3013       -830.430          39.500  
C32  24710009.460   128671493.6723       3236.633          43.250                                                                  
C28  24771588.540   128992167.3553      -2505.594          40.000                                                                  
E02  26037688.440   136828975.082        1746.527          43.000    26037694.680   104842996.016        1337.230          44.500  
E24  26440166.780   138944019.8361      -3046.145          43.000    26440174.340   106463613.145       -2334.051          45.750  
E25  24232035.840   127340205.477        -965.934          48.750    24232041.380    97572369.480        -740.063          48.750  
E36  26211500.900   137742377.922        2104.016          46.250    26211510.080   105542899.133        1612.680          47.500  
E12                                                                  25277884.340   101783550.918       -1444.086          40.500  
E11                                                                  22572791.860    90891265.6291        239.660          42.750  
