     3.04           OBSERVATION DATA    M: Mixed            RINEX VERSION / TYPE
sbp2rinex v2.3 (RTKL                    20221206 123528 UTC PGM / RUN BY / DATE 
format: Swift Navigation SBP-JSON, option:                  COMMENT             
log: swift-gnss-20221206-124503.sbp.json                    COMMENT             
                                                            MARKER NAME         
                                                            MARKER NUMBER       
                                                            MARKER TYPE         
                                                            OBSERVER / AGENCY   
                                                            REC # / TYPE / VERS 
                                                            ANT # / TYPE        
  4388984.1634   924238.9471  4519578.2828                  APPROX POSITION XYZ 
        0.0000        0.0000        0.0000                  ANTENNA: DELTA H/E/N
G    8 C1C L1C D1C S1C C2S L2S D2S S2S                      SYS / # / OBS TYPES 
R    8 C1C L1C D1C S1C C2C L2C D2C S2C                      SYS / # / OBS TYPES 
E    8 C1B L1B D1B S1B C7I L7I D7I S7I                      SYS / # / OBS TYPES 
C    8 C2I L2I D2I S2I C7I L7I D7I S7I                      SYS / # / OBS TYPES 
  2022    12    06    11    45   22.0000000     GPS         TIME OF FIRST OBS   
  2022    12    06    12    01   40.0000000     GPS         TIME OF LAST OBS    
G L1C                                                       SYS / PHASE SHIFT   
G L2S  0.00000                                              SYS / PHASE SHIFT   
R L1C                                                       SYS / PHASE SHIFT   
R L2C                                                       SYS / PHASE SHIFT   
E L1B                                                       SYS / PHASE SHIFT   
E L7I                                                       SYS / PHASE SHIFT   
C L2I                                                       SYS / PHASE SHIFT   
C L7I                                                       SYS / PHASE SHIFT   
  6 R01  1 R02 -4 R03  5 R11  0 R12 -1 R13 -2               GLONASS SLOT / FRQ #
 C1C    0.000 C1P    0.000 C2C    0.000 C2P    0.000        GLONASS COD/PHS/BIS 
                                                            END OF HEADER       
> 2022 12 06 11 45 22.0000000  0 23       0.000000000000
G13  20547689.680   107978834.387        1564.031          53.500                                                                  
G30  21160484.820   111199096.051       -1638.336          53.000    21160486.660    86648656.613       -1277.535          50.250  
G05  21076687.280   110758746.348        -988.043          52.750    21076688.740    86305514.109        -769.500          49.250  
G07  23480536.820   123391049.770       -2691.906          49.000    23480537.840    96148865.234       -2097.445          44.500  
G15  22365355.480   117530731.3321       3061.910          49.000    22365356.880    91582411.4061       2385.984          44.750  
G14  20999258.640   110351843.535        1056.121          51.250                                                                  
G20  22121125.200   116247302.082       -3047.793          50.000                                                                  
R02  19164129.800   102263509.164         149.855          57.500    19164135.080    79538279.191         116.734          53.000  
R13  21047700.620   112393576.574        3324.789          45.750    21047705.200    87417224.848        2584.512          43.500  
R12  19147430.540   102282172.258        -140.566          57.500    19147435.660    79552799.258        -108.340          53.250  
R11  21917540.820   117120721.859       -3718.656          53.000    21917546.640    91093878.516       -2893.035          51.250  
R01  21755379.300   116294980.414       -3578.578          49.250    21755388.680    90451674.035       -2783.359          47.000  
R03  21475325.940   114959129.504        3517.676          51.250    21475334.380    89412658.418        2736.273          49.500  
C37  24787029.760   129072569.941        2915.266          46.750                                                                  
C07  38966890.300   202910826.723          73.230          44.000    38966889.000   156903511.586          57.039          44.750  
C23  21904153.160   114060675.750         699.590          53.750                                                                  
C25  22909530.340   119295939.250       -2110.156          51.750                                                                  
C32  22066183.440   114904409.172         592.625          53.500                                                                  
C10  38632282.440   201168418.230         474.586          43.250    38632285.040   155556184.320         366.527          48.000  
E04  24811506.400   130385338.652       -1844.063          48.500    24811507.960    99905644.820       -1414.051          51.250  
E09  23556414.140   123789789.488         551.559          51.250    23556416.080    94851910.641         422.758          51.750  
E24  26859153.760   141145832.289        3093.977          41.250    26859157.620   108150694.121        2370.414          45.500  
E31  23981624.220   126024298.344        1324.520          49.750    23981628.180    96564067.168        1015.828          51.750  
> 2022 12 06 11 45 23.0000000  0 23       0.000000000000
G13  20547392.760   107977273.449        1563.500          53.750                                                                  
G30  21160797.240   111200737.691       -1639.191          52.750    21160798.880    86649935.805       -1276.359          49.750  
G05  21076876.040   110759737.652        -989.125          52.750    21076877.400    86306286.559        -770.016          49.250  
G07  23481049.700   123393744.570       -2692.652          49.000    23481050.540    96150965.066       -2096.672          43.750  
G15  22364773.180   117527671.703        3062.883          49.250    22364774.620    91580027.289        2386.098          44.750  
G14  20999058.580   110350791.367        1054.684          51.500                                                                  
G20  22121705.780   116250353.121       -3048.297          50.000                                                                  
R02  19164102.320   102263361.863         149.992          57.500    19164107.080    79538164.629         115.891          52.750  
R13  21047078.600   112390254.934        3322.438          46.000    21047083.860    87414641.352        2585.742          43.500  
R12  19147457.260   102282315.957        -141.523          57.500    19147462.480    79552911.027        -110.258          53.250  
R11  21918237.400   117124443.258       -3719.059          53.250    21918243.760    91096772.938       -2893.000          51.500  
R01  21756049.120   116298562.191       -3578.992          49.750    21756058.660    90454459.871       -2784.246          47.000  
R03  21474669.200   114955614.656        3517.285          51.250    21474678.220    89409924.656        2736.398          49.750  
C37  24786470.380   129069657.379        2915.449          46.500                                                                  
C07  38966876.400   202910755.176          74.656          43.750    38966874.780   156903456.266          58.875          44.000  
C23  21904019.400   114059978.848         699.512          53.250                                                                  
C25  22909936.200   119298052.809       -2109.852          51.250                                                                  
C32  22066070.300   114903820.293         591.875          53.000                                                                  
C10  38632191.680   201167947.063         473.383          42.750    38632194.420   155555820.004         366.289          47.500  
E04  24811858.100   130387186.531       -1845.070          48.250    24811859.620    99907060.730       -1413.598          51.250  
E09  23556309.600   123789240.094         551.703          51.250    23556311.460    94851489.676         423.988          51.750  
E24  26858565.340   141142740.922        3092.406          41.250    26858569.400   108148325.426        2370.414          45.750  
E31  23981372.780   126022976.082        1325.168          49.750    23981376.480    96563054.008        1015.887          51.750  
> 2022 12 06 11 45 24.0000000  0 23       0.000000000000
G13  20547096.220   107975714.434        1562.594          53.500                                                                  
G30  21161110.080   111202381.199       -1638.969          52.500    21161111.620    86651216.457       -1277.020          50.000  
G05  21077065.280   110760731.191        -990.719          52.500    21077066.280    86307060.734        -771.941          49.250  
G07  23481562.940   123396441.031       -2693.195          48.750    23481563.280    96153066.207       -2097.738          43.750  
G15  22364191.080   117524613.875        3061.953          48.750    22364192.800    91577644.559        2385.309          44.750  
G14  20998858.860   110349741.379        1053.293          51.250                                                                  
G20  22122286.400   116253406.074       -3049.379          49.500                                                                  
R02  19164075.040   102263216.898         148.660          57.750    19164080.040    79538051.875         115.332          52.750  
R13  21046456.980   112386935.379        3322.613          46.000    21046461.780    87412059.480        2584.977          43.750  
R12  19147484.340   102282462.023        -142.879          57.500    19147490.080    79553024.629        -111.148          53.250  
R11  21918933.960   117128166.504       -3719.758          53.250    21918940.420    91099668.793       -2893.438          51.500  
R01  21756719.160   116302145.973       -3580.156          49.500    21756728.700    90457247.242       -2784.480          47.000  
R03  21474012.920   114952101.695        3516.691          51.250    21474022.540    89407192.348        2735.078          49.750  
C37  24785911.220   129066746.559        2914.387          46.500                                                                  
C07  38966863.180   202910685.344          73.039          43.500    38966861.500   156903402.273          59.145          44.500  
C23  21903886.040   114059283.949         698.848          53.250                                                                  
C25  22910342.340   119300168.195       -2111.754          51.250                                                                  
C32  22065957.580   114903233.457         589.422          52.750                                                                  
C10  38632101.900   201167477.602         473.910          43.000    38632104.220   155555456.988         366.816          47.750  
E04  24812210.200   130389036.203       -1845.273          48.500    24812211.640    99908478.008       -1413.453          51.250  
E09  23556205.260   123788692.535         551.414          51.250    23556207.260    94851070.121         422.180          51.750  
E24  26857977.540   141139651.293        3093.367          41.000    26857981.520   108145958.031        2369.664          45.750  
E31  23981121.400   126021655.824        1324.770          49.750    23981125.260    96562042.371        1014.430          51.750  
> 2022 12 06 11 45 25.0000000  0 23       0.000000000000
G13  20546799.480   107974155.176        1562.813          53.500                                                                  
G30  21161422.800   111204024.453       -1639.367          52.750    21161424.180    86652496.906       -1278.664          49.750  
G05  21077254.500   110761724.820        -990.527          52.750    21077255.500    86307834.984        -771.582          49.000  
G07  23482075.900   123399137.000       -2692.258          48.750    23482076.100    96155166.953       -2098.281          44.000  
G15  22363609.460   117521555.691        3061.977          49.000    22363610.960    91575261.555        2384.570          44.750  
G14  20998659.020   110348691.453        1053.039          51.250                                                                  
G20  22122867.300   116256458.820       -3050.262          49.500                                                                  
R02  19164047.860   102263072.063         148.461          57.750    19164052.860    79537939.230         115.301          53.000  
R13  21045835.560   112383615.711        3322.164          46.250    21045839.340    87409477.520        2583.441          43.750  
R12  19147511.840   102282608.289        -143.664          57.500    19147516.840    79553138.398        -111.430          53.250  
R11  21919630.620   117131889.414       -3719.297          53.250    21919637.040    91102564.391       -2893.680          51.500  
R01  21757389.060   116305729.563       -3580.750          49.500    21757399.520    90460034.469       -2784.109          47.000  
R03  21473356.460   114948588.391        3516.719          51.500    21473365.840    89404459.777        2734.746          49.750  
C37  24785351.860   129063835.375        2913.320          46.250                                                                  
C07  38966849.820   202910615.078          72.797          43.250    38966848.220   156903347.918          57.715          45.000  
C23  21903752.620   114058588.914         698.477          53.250                                                                  
C25  22910748.460   119302283.277       -2112.273          51.250                                                                  
C32  22065844.820   114902646.559         590.086          53.000                                                                  
C10  38632011.560   201167007.754         474.633          42.750    38632014.100   155555093.656         366.820          48.000  
E04  24812562.280   130390885.523       -1846.113          48.500    24812563.600    99909895.012       -1415.203          51.000  
E09  23556100.880   123788144.668         551.594          51.250    23556103.000    94850650.301         422.102          51.750  
E24  26857389.420   141136561.180        3092.715          41.000    26857393.360   108143590.289        2369.430          45.500  
E31  23980870.200   126020335.406        1324.559          50.000    23980874.020    96561030.617        1014.793          51.750  
> 2022 12 06 11 45 26.0000000  0 23       0.000000000000
G13  20546502.260   107972592.859        1562.199          53.250                                                                  
G30  21161735.000   111205664.605       -1641.117          52.750    21161736.420    86653774.945       -1278.086          50.000  
G05  21077443.180   110762715.723        -991.918          53.000    21077444.200    86308607.113        -773.813          49.000  
G07  23482588.020   123401829.645       -2692.734          48.750    23482588.560    96157265.129       -2098.855          43.750  
G15  22363026.840   117518494.344        3061.957          49.000    22363028.760    91572876.098        2384.695          45.000  
G14  20998458.640   110347638.750        1051.727          51.250                                                                  
G20  22123447.720   116259508.523       -3050.234          49.750                                                                  
R02  19164020.400   102262924.473         147.500          57.250    19164024.960    79537824.434         114.438          53.000  
R13  21045213.220   112380293.043        3324.117          45.500    21045217.660    87406893.227        2585.000          43.750  
R12  19147538.940   102282751.852        -144.133          57.000    19147543.440    79553250.059        -112.598          53.500  
R11  21920326.480   117135609.105       -3719.977          52.500    21920333.240    91105457.480       -2893.152          51.750  
R01  21758058.820   116309310.051       -3580.523          48.750    21758068.760    90462819.301       -2785.586          46.750  
R03  21472699.880   114945071.887        3516.430          51.250    21472708.720    89401724.730        2734.324          50.000  
C37  24784792.220   129060921.027        2913.270          46.750                                                                  
C07  38966835.620   202910541.605          75.004          43.750    38966834.420   156903291.090          56.867          45.250  
C23  21903618.620   114057890.949         697.645          54.000                                                                  
C25  22911154.160   119304395.262       -2112.266          52.000                                                                  
C32  22065731.580   114902056.766         589.098          53.500                                                                  
C10  38631920.640   201166534.648         474.516          43.250    38631923.140   155554727.813         365.809          48.000  
E04  24812913.600   130392731.664       -1847.598          48.500    24812914.980    99911309.578       -1415.043          51.250  
E09  23555996.140   123787593.652         550.918          51.250    23555998.220    94850228.094         422.113          51.750  
E24  26856800.360   141133467.801        3092.730          40.750    26856804.740   108141220.051        2370.586          45.750  
E31  23980618.160   126019011.992        1323.238          49.750    23980622.200    96560016.574        1014.086          51.750  
> 2022 12 06 11 45 27.0000000  0 23       0.000000000000
G13  20546205.620   107971034.633        1562.297          53.250                                                                  
G30  21162047.920   111207308.797       -1640.051          53.000    21162049.260    86655056.145       -1277.539          50.000  
G05  21077632.860   110763711.012        -992.727          53.500    21077633.580    86309382.664        -772.496          49.000  
G07  23483100.940   123404526.133       -2691.785          48.750    23483101.320    96159366.289       -2098.703          43.750  
G15  22362444.780   117515436.965        3062.848          49.250    22362446.940    91570493.730        2385.414          45.000  
G14  20998259.240   110346590.391        1052.262          51.500                                                                  
G20  22124028.800   116262562.316       -3048.969          50.000                                                                  
R02  19163993.620   102262781.391         147.059          57.500    19163997.960    79537713.152         114.633          53.000  
R13  21044591.700   112376974.656        3323.813          45.750    21044596.140    87404312.273        2585.680          44.000  
R12  19147566.580   102282899.973        -143.941          57.250    19147571.160    79553365.258        -112.355          53.250  
R11  21921023.240   117139332.852       -3720.141          52.750    21921030.020    91108353.730       -2891.172          51.750  
R01  21758729.180   116312894.719       -3579.199          48.500    21758739.860    90465607.395       -2784.336          46.750  
R03  21472043.620   114941559.473        3516.984          51.500    21472052.780    89398992.859        2734.277          49.750  
C37  24784233.120   129058010.586        2915.070          46.750                                                                  
C07  38966822.500   202910471.973          72.961          43.750    38966821.120   156903237.262          55.703          45.250  
C23  21903485.400   114057197.121         698.008          53.750                                                                  
C25  22911560.580   119306511.227       -2112.023          52.000                                                                  
C32  22065619.160   114901471.164         589.664          53.500                                                                  
C10  38631830.620   201166065.402         473.254          43.500    38631833.020   155554364.969         365.691          48.000  
E04  24813265.380   130394581.750       -1845.371          48.250    24813267.180    99912727.176       -1414.199          51.750  
E09  23555892.020   123787046.637         551.340          51.250    23555894.160    94849808.957         421.520          51.750  
E24  26856212.540   141130378.309        3094.125          41.000    26856216.760   108138852.766        2369.539          45.500  
E31  23980367.160   126017692.746        1323.488          49.750    23980371.160    96559005.730        1014.555          51.750  
> 2022 12 06 11 45 28.0000000  0 23       0.000000000000
G13  20545909.160   107969476.777        1561.750          53.750                                                                  
G30  21162360.900   111208953.332       -1640.668          53.500    21162362.160    86656337.594       -1278.996          50.000  
G05  21077822.540   110764706.992        -992.641          53.750    21077822.840    86310158.746        -774.164          49.000  
G07  23483613.520   123407222.734       -2693.426          49.000    23483614.520    96161467.512       -2098.895          43.750  
G15  22361862.880   117512379.852        3061.578          49.500    22361865.520    91568111.570        2386.727          45.000  
G14  20998059.980   110345542.691        1050.363          52.000                                                                  
G20  22124610.000   116265616.496       -3049.180          50.250                                                                  
R02  19163967.120   102262639.066         145.766          57.500    19163971.440    79537602.445         113.645          53.000  
R13  21043970.860   112373656.793        3322.926          46.000    21043975.240    87401731.691        2582.156          43.750  
R12  19147594.600   102283048.898        -145.844          57.250    19147598.780    79553481.090        -113.266          53.250  
R11  21921720.000   117143056.867       -3720.066          52.500    21921727.160    91111250.184       -2893.324          51.750  
R01  21759399.900   116316479.844       -3581.449          48.500    21759410.020    90468395.813       -2785.699          46.750  
R03  21471387.780   114938047.379        3516.473          51.500    21471396.740    89396261.215        2733.859          49.500  
C37  24783674.300   129055100.371        2914.082          46.250                                                                  
C07  38966809.420   202910402.551          73.184          43.500    38966807.760   156903183.578          57.719          45.250  
C23  21903352.260   114056503.758         697.344          53.750                                                                  
C25  22911966.780   119308627.488       -2112.406          51.750                                                                  
C32  22065506.860   114900886.090         589.176          53.250                                                                  
C10  38631740.740   201165596.320         472.586          43.250    38631742.960   155554002.246         364.926          48.250  
E04  24813617.360   130396432.102       -1846.133          48.250    24813619.340    99914144.980       -1415.238          51.750  
E09  23555787.880   123786499.922         550.355          51.250    23555790.140    94849390.039         420.234          51.750  
E24  26855624.140   141127288.926        3094.531          40.750    26855628.860   108136485.590        2370.266          45.500  
E31  23980116.040   126016373.973        1323.625          49.750    23980120.240    96557995.227        1013.398          51.750  
> 2022 12 06 11 45 29.0000000  0 23       0.000000000000
G13  20545612.780   107967919.801        1561.371          53.500                                                                  
G30  21162674.040   111210598.727       -1640.500          53.250    21162675.100    86657619.719       -1278.285          49.750  
G05  21078012.440   110765704.160        -991.766          53.750    21078012.420    86310935.773        -772.180          48.750  
G07  23484126.660   123409919.949       -2693.734          49.000    23484127.420    96163569.277       -2098.824          43.000  
G15  22361281.580   117509323.504        3061.199          49.250    22361283.840    91565730.000        2384.871          44.750  
G14  20997860.760   110344496.145        1051.680          52.000                                                                  
G20  22125191.300   116268671.570       -3050.277          50.250                                                                  
R02  19163940.640   102262498.000         145.297          57.500    19163945.020    79537492.730         112.809          53.250  
R13  21043350.000   112370339.973        3322.219          46.500    21043353.900    87399151.949        2584.410          43.750  
R12  19147622.920   102283199.129        -145.906          57.250    19147626.940    79553597.934        -113.879          53.250  
R11  21922416.700   117146781.688       -3720.059          52.250    21922424.240    91114147.270       -2892.949          52.000  
R01  21760070.080   116320065.895       -3581.262          48.000    21760080.440    90471184.953       -2787.703          46.750  
R03  21470732.020   114934536.094        3516.305          51.500    21470740.100    89393530.219        2734.551          49.750  
C37  24783115.520   129052190.883        2913.191          46.250                                                                  
C07  38966796.060   202910333.797          73.371          44.000    38966794.640   156903130.395          56.059          45.750  
C23  21903219.360   114055811.363         696.844          53.750                                                                  
C25  22912373.500   119310744.559       -2112.070          51.750                                                                  
C32  22065394.740   114900302.031         587.414          53.500                                                                  
C10  38631650.560   201165127.949         472.613          43.250    38631653.000   155553640.066         365.238          48.000  
E04  24813969.680   130398283.195       -1846.598          48.250    24813971.680    99915563.352       -1414.875          51.750  
E09  23555684.040   123785954.000         550.586          51.250    23555686.260    94848971.738         422.191          52.000  
E24  26855036.780   141124200.246        3094.172          41.000    26855041.240   108134118.941        2370.410          45.750  
E31  23979865.260   126015056.129        1322.531          49.750    23979869.440    96556985.461        1013.578          52.000  
> 2022 12 06 11 45 30.0000000  0 23       0.000000000000
G13  20545316.780   107966364.391        1561.598          53.750                                                                  
G30  21162987.540   111212245.641       -1641.605          53.750    21162988.500    86658903.031       -1279.488          49.750  
G05  21078202.680   110766703.215        -992.695          53.750    21078202.320    86311714.242        -774.434          48.500  
G07  23484639.960   123412618.492       -2692.910          48.750    23484641.100    96165672.020       -2097.215          43.250  
G15  22360700.120   117506268.613        3060.000          49.750    22360702.420    91563349.551        2385.063          44.750  
G14  20997661.980   110343451.445        1050.398          52.000                                                                  
G20  22125773.140   116271728.215       -3051.379          50.250                                                                  
R02  19163914.640   102262358.887         144.742          57.500    19163918.840    79537384.531         112.473          52.750  
R13  21042729.440   112367024.891        3322.617          46.250    21042733.060    87396573.551        2582.660          43.500  
R12  19147651.600   102283351.359        -146.406          57.500    19147655.620    79553716.332        -114.406          53.000  
R11  21923114.260   117150507.977       -3720.453          52.500    21923121.640    91117045.500       -2894.738          51.500  
R01  21760741.240   116323653.566       -3582.234          48.000    21760751.220    90473975.363       -2785.973          46.250  
R03  21470076.320   114931026.328        3515.449          51.500    21470084.460    89390800.395        2734.484          49.250  
C37  24782556.760   129049282.816        2913.633          46.000                                                                  
C07  38966783.220   202910266.395          72.637          43.500    38966782.000   156903078.297          57.992          45.750  
C23  21903086.800   114055120.617         696.066          53.500                                                                  
C25  22912780.300   119312863.102       -2112.848          51.500                                                                  
C32  22065282.920   114899719.684         587.070          53.250                                                                  
C10  38631560.800   201164660.938         472.484          43.000    38631563.300   155553278.938         365.625          48.500  
E04  24814321.840   130400135.734       -1847.672          48.000    24814324.200    99916982.816       -1414.680          51.750  
E09  23555580.500   123785409.555         550.875          51.000    23555582.620    94848554.570         422.148          51.750  
E24  26854449.240   141121112.891        3095.855          41.000    26854453.580   108131753.301        2369.969          45.750  
E31  23979614.740   126013739.945        1321.484          49.500    23979618.980    96555976.953        1013.086          51.750  
> 2022 12 06 11 45 31.0000000  0 23       0.000000000000
G13  20545020.280   107964807.953        1560.355          53.000                                                                  
G30  21163300.800   111213891.492       -1641.004          53.250    21163301.740    86660185.516       -1279.031          49.750  
G05  21078392.560   110767701.555        -994.320          53.750    21078392.020    86312492.172        -774.602          48.500  
G07  23485152.920   123415315.723       -2694.445          48.500    23485154.620    96167773.754       -2098.445          42.500  
G15  22360118.560   117503212.555        3060.461          49.500    22360121.000    91560968.219        2384.465          45.000  
G14  20997463.060   110342405.988        1048.902          52.000                                                                  
G20  22126354.540   116274783.848       -3051.695          50.250                                                                  
R02  19163888.300   102262219.086         143.504          57.500    19163892.640    79537275.801         111.551          52.750  
R13  21042108.300   112363708.895        3321.398          46.250    21042112.620    87393994.434        2582.730          43.500  
R12  19147680.320   102283502.938        -148.105          57.500    19147684.120    79553834.230        -115.063          53.000  
R11  21923811.520   117154233.152       -3720.164          52.750    21923818.580    91119942.848       -2894.527          51.500  
R01  21761411.500   116327240.238       -3582.293          48.000    21761421.800    90476764.988       -2785.367          46.000  
R03  21469420.780   114927515.410        3514.590          51.750    21469428.080    89388069.699        2733.363          48.750  
C37  24781998.200   129046373.578        2913.512          46.000                                                                  
C07  38966769.900   202910197.801          73.488          43.250    38966768.920   156903025.258          57.063          46.500  
C23  21902953.900   114054428.949         694.887          53.250                                                                  
C25  22913186.980   119314980.559       -2114.703          51.500                                                                  
C32  22065170.980   114899136.445         587.047          53.250                                                                  
C10  38631470.780   201164192.680         472.246          43.000    38631473.300   155552916.855         366.652          48.750  
E04  24814674.100   130401987.105       -1846.867          48.000    24814676.580    99918401.414       -1415.238          51.500  
E09  23555476.620   123784864.008         549.215          51.250    23555478.860    94848136.547         420.867          51.750  
E24  26853861.180   141118024.293        3093.250          41.000    26853865.800   108129386.727        2370.215          45.500  
E31  23979364.240   126012422.789        1320.184          49.750    23979368.340    96554967.707        1012.387          52.000  
> 2022 12 06 11 45 32.0000000  0 23       0.000000000000
G13  20544724.240   107963252.121        1560.371          53.250                                                                  
G30  21163614.000   111215537.922       -1641.824          53.250    21163615.160    86661468.441       -1279.414          50.000  
G05  21078582.960   110768700.828        -994.605          53.750    21078582.140    86313270.832        -776.207          48.500  
G07  23485666.060   123418013.324       -2693.402          48.250    23485667.680    96169875.777       -2098.492          42.750  
G15  22359537.280   117500157.012        3059.559          49.250    22359539.380    91558587.293        2384.793          45.250  
G14  20997264.400   110341361.434        1048.750          52.000                                                                  
G20  22126936.260   116277840.102       -3051.605          50.000                                                                  
R02  19163862.220   102262080.285         143.395          57.500    19163867.040    79537167.840         111.152          52.750  
R13  21041487.940   112360393.641        3319.445          46.250    21041492.220    87391415.914        2582.008          44.000  
R12  19147708.740   102283655.574        -148.695          57.500    19147712.620    79553952.941        -116.570          53.250  
R11  21924508.760   117157958.840       -3720.914          52.500    21924515.820    91122840.613       -2894.363          51.750  
R01  21762082.560   116330827.605       -3584.012          47.750    21762092.780    90479555.145       -2785.547          46.000  
R03  21468765.720   114924005.039        3514.359          52.000    21468772.420    89385339.402        2733.918          49.250  
C37  24781439.640   129043464.828        2914.789          46.250                                                                  
C07  38966756.300   202910129.609          72.531          43.500    38966755.940   156902972.551          56.727          46.750  
C23  21902821.220   114053737.984         695.527          53.750                                                                  
C25  22913593.760   119317098.559       -2113.387          52.000                                                                  
C32  22065059.140   114898553.984         586.699          53.750                                                                  
C10  38631381.220   201163724.852         472.926          43.750    38631383.460   155552555.129         364.480          48.250  
E04  24815026.600   130403838.988       -1847.961          48.000    24815029.020    99919820.398       -1414.973          51.750  
E09  23555373.000   123784318.977         549.504          51.250    23555375.140    94847718.949         420.438          51.750  
E24  26853273.740   141114936.098        3092.914          40.500    26853278.140   108127020.449        2370.289          45.750  
E31  23979113.840   126011106.344        1321.785          49.750    23979117.820    96553959.016        1012.633          52.000  
> 2022 12 06 11 45 33.0000000  0 23       0.000000000000
G13  20544428.100   107961696.539        1559.918          53.250                                                                  
G30  21163927.520   111217184.566       -1642.629          53.250    21163928.540    86662751.543       -1280.270          50.000  
G05  21078773.200   110769700.664        -995.258          53.500    21078772.260    86314049.922        -775.887          48.250  
G07  23486179.300   123420710.906       -2692.090          48.250    23486180.840    96171977.813       -2099.625          42.750  
G15  22358956.000   117497101.602        3059.289          49.500    22358957.640    91556206.445        2384.109          45.250  
G14  20997065.960   110340317.391        1048.063          52.250                                                                  
G20  22127517.960   116280896.633       -3050.691          50.000                                                                  
R02  19163836.440   102261942.117         142.625          57.500    19163841.040    79537060.371         111.180          53.000  
R13  21040867.340   112357078.789        3319.348          46.000    21040871.220    87388837.680        2581.992          43.750  
R12  19147737.480   102283808.883        -148.891          57.500    19147741.600    79554072.180        -115.641          53.250  
R11  21925205.900   117161684.680       -3721.340          52.500    21925213.000    91125738.484       -2894.512          52.000  
R01  21762753.120   116334415.219       -3582.961          47.500    21762764.000    90482345.531       -2787.641          46.000  
R03  21468110.040   114920494.840        3514.938          52.000    21468116.260    89382609.238        2734.727          49.250  
C37  24780880.700   129040556.160        2913.676          46.000                                                                  
C07  38966743.520   202910061.492          72.961          44.000    38966742.820   156902919.852          54.484          46.500  
C23  21902688.640   114053047.359         694.695          54.000                                                                  
C25  22914000.520   119319216.738       -2113.465          52.000                                                                  
C32  22064947.340   114897971.902         587.117          53.750                                                                  
C10  38631291.300   201163257.047         472.820          44.000    38631293.560   155552193.383         366.098          48.000  
E04  24815378.860   130405690.988       -1848.477          47.750    24815381.320    99921239.434       -1415.820          51.500  
E09  23555269.540   123783774.125         549.234          51.500    23555271.380    94847301.449         420.500          51.750  
E24  26852686.160   141111847.926        3091.727          40.750    26852690.460   108124654.184        2369.223          46.000  
E31  23978863.480   126009790.203        1320.809          49.750    23978867.280    96552950.543        1012.520          52.000  
> 2022 12 06 11 45 34.0000000  0 23       0.000000000000
G13  20544132.160   107960141.324        1560.445          53.250                                                                  
G30  21164240.920   111218831.539       -1642.172          53.250    21164241.960    86664034.895       -1279.684          50.000  
G05  21078963.500   110770701.168        -995.973          53.500    21078962.640    86314829.531        -775.285          48.250  
G07  23486692.660   123423408.602       -2692.211          48.250    23486694.040    96174079.883       -2099.098          42.750  
G15  22358374.800   117494046.441        3059.297          49.750    22358376.360    91553825.801        2385.824          45.000  
G14  20996867.300   110339273.992        1049.625          52.000                                                                  
G20  22128099.460   116283953.527       -3050.320          50.000                                                                  
R02  19163810.780   102261804.660         142.121          57.750    19163815.640    79536953.457         110.129          52.750  
R13  21040246.300   112353764.398        3320.965          45.500    21040250.880    87386259.848        2582.184          43.500  
R12  19147766.320   102283962.961        -148.348          57.500    19147770.180    79554192.016        -115.363          53.250  
R11  21925903.300   117165410.770       -3722.047          52.750    21925910.360    91128636.555       -2894.512          51.750  
R01  21763424.080   116338003.254       -3582.730          47.500    21763435.140    90485136.211       -2787.320          46.000  
R03  21467454.600   114916984.938        3515.098          52.000    21467460.480    89379879.313        2733.578          49.250  
C37  24780322.340   129037647.723        2913.258          46.250                                                                  
C07  38966730.680   202909993.527          72.348          44.250    38966730.060   156902867.316          55.543          46.250  
C23  21902556.100   114052357.180         694.227          54.000                                                                  
C25  22914407.400   119321335.195       -2114.660          52.000                                                                  
C32  22064835.760   114897390.320         585.867          53.750                                                                  
C10  38631201.560   201162789.414         473.668          44.000    38631203.940   155551831.785         366.336          48.000  
E04  24815731.180   130407543.207       -1847.180          47.500    24815733.840    99922658.672       -1415.520          51.500  
E09  23555165.840   123783229.547         548.797          51.250    23555167.840    94846884.176         420.801          51.750  
E24  26852098.500   141108759.902        3092.801          41.250    26852102.880   108122288.047        2369.961          46.000  
E31  23978613.260   126008474.512        1319.352          49.750    23978616.960    96551942.398        1011.809          52.000  
> 2022 12 06 11 45 35.0000000  0 23       0.000000000000
G13  20543836.000   107958585.336        1560.238          53.250                                                                  
G30  21164554.260   111220477.715       -1642.574          53.500    21164555.260    86665317.617       -1278.672          50.000  
G05  21079153.780   110771701.215        -996.215          53.500    21079152.840    86315608.797        -775.453          48.250  
G07  23487205.660   123426105.266       -2691.934          48.250    23487207.500    96176181.184       -2097.773          42.750  
G15  22357793.440   117490990.414        3062.391          50.000    22357794.800    91551444.461        2384.203          45.250  
G14  20996668.600   110338230.098        1047.184          52.250                                                                  
G20  22128681.080   116287009.668       -3051.949          50.000                                                                  
R02  19163784.900   102261666.777         141.699          57.750    19163789.540    79536846.215         110.766          52.750  
R13  21039624.180   112350449.375        3320.020          45.500    21039629.580    87383681.488        2580.438          43.750  
R12  19147794.860   102284116.645        -149.570          57.500    19147799.240    79554311.543        -116.285          53.250  
R11  21926600.400   117169135.984       -3721.652          53.000    21926607.460    91131533.938       -2893.953          51.500  
R01  21764095.060   116341590.527       -3583.074          47.750    21764105.940    90487926.316       -2787.938          46.000  
R03  21466798.780   114913474.172        3514.895          52.250    21466804.700    89377148.719        2734.047          49.250  
C37  24779763.400   129034738.383        2912.008          46.250                                                                  
C07  38966717.460   202909924.648          73.133          44.250    38966716.740   156902814.027          56.789          46.500  
C23  21902423.400   114051666.340         694.828          54.000                                                                  
C25  22914814.020   119323452.820       -2113.203          52.000                                                                  
C32  22064724.000   114896808.137         586.375          54.000                                                                  
C10  38631111.360   201162320.809         473.195          44.250    38631113.940   155551469.422         365.516          48.000  
E04  24816083.480   130409394.539       -1847.438          47.500    24816086.160    99924077.215       -1415.699          51.500  
E09  23555062.020   123782684.113         550.063          51.250    23555064.080    94846466.242         421.234          52.000  
E24  26851510.660   141105670.891        3094.461          41.250    26851515.240   108119921.148        2369.133          46.000  
E31  23978362.720   126007158.109        1320.523          49.750    23978366.460    96550933.738        1011.027          52.000  
> 2022 12 06 11 45 36.0000000  0 23       0.000000000000
G13  20543539.920   107957030.113        1559.742          53.250                                                                  
G30  21164867.500   111222124.594       -1641.555          53.250    21164868.740    86666600.902       -1278.574          50.250  
G05  21079344.060   110772702.340        -997.523          53.500    21079343.200    86316388.875        -776.191          48.250  
G07  23487718.920   123428802.414       -2692.020          48.500    23487720.900    96178282.844       -2098.043          42.500  
G15  22357212.000   117487935.000        3061.148          50.000    22357213.600    91549063.648        2385.336          45.250  
G14  20996470.360   110337187.238        1048.816          52.250                                                                  
G20  22129262.480   116290066.566       -3051.324          50.000                                                                  
R02  19163759.020   102261530.063         141.699          57.500    19163763.880    79536739.883         110.426          52.500  
R13  21039003.360   112347135.273        3318.113          45.500    21039008.740    87381103.855        2581.547          43.500  
R12  19147823.400   102284271.508        -149.902          57.250    19147828.400    79554431.992        -116.656          53.250  
R11  21927297.300   117172861.863       -3720.426          52.750    21927304.520    91134431.848       -2893.145          51.250  
R01  21764766.300   116345178.609       -3582.340          47.500    21764777.800    90490717.020       -2786.434          46.000  
R03  21466142.780   114909964.063        3515.047          52.000    21466148.920    89374418.641        2733.809          49.000  
C37  24779205.000   129031829.645        2913.527          46.250                                                                  
C07  38966704.440   202909856.301          74.305          44.000    38966703.740   156902761.195          58.055          46.500  
C23  21902290.940   114050976.340         695.055          53.750                                                                  
C25  22915220.720   119325571.113       -2114.063          52.000                                                                  
C32  22064612.260   114896226.848         586.320          53.750                                                                  
C10  38631021.440   201161852.781         473.316          43.750    38631024.140   155551107.512         366.016          48.000  
E04  24816435.920   130411246.504       -1846.711          47.500    24816438.580    99925496.246       -1414.707          51.500  
E09  23554958.360   123782139.352         550.023          51.250    23554960.380    94846048.828         420.629          51.750  
E24  26850923.300   141102582.418        3094.984          41.000    26850927.540   108117554.656        2370.195          46.000  
E31  23978112.560   126005842.563        1320.992          50.000    23978116.120    96549925.711        1011.621          52.000  
> 2022 12 06 11 45 37.0000000  0 23       0.000000000000
G13  20543243.040   107955469.602        1560.316          53.250                                                                  
G30  21165179.680   111223766.164       -1641.609          53.250    21165181.220    86667880.055       -1279.758          50.000  
G05  21079533.320   110773698.508        -996.301          53.250    21079532.920    86317165.117        -776.152          48.500  
G07  23488231.240   123431494.059       -2691.668          48.500    23488232.780    96180380.199       -2097.848          41.750  
G15  22356629.420   117484874.207        3059.762          50.000    22356631.320    91546678.613        2385.535          45.250  
G14  20996270.800   110336139.379        1047.754          52.250                                                                  
G20  22129843.160   116293118.203       -3052.598          50.250                                                                  
R02  19163732.460   102261388.375         141.418          57.500    19163737.040    79536629.684         110.129          52.500  
R13  21038381.480   112343815.953        3321.121          45.250    21038387.740    87378522.160        2581.086          43.750  
R12  19147851.340   102284421.453        -151.293          57.000    19147856.560    79554548.617        -116.680          53.250  
R11  21927993.240   117176582.273       -3719.621          52.500    21928000.420    91137325.512       -2893.590          51.250  
R01  21765436.080   116348761.352       -3583.949          46.750    21765447.460    90493503.586       -2785.941          46.000  
R03  21465486.060   114906448.492        3515.625          51.750    21465492.420    89371684.305        2735.922          49.250  
C37  24778645.400   129028915.555        2912.328          46.000                                                                  
C07  38966690.160   202909782.527          72.977          44.000    38966689.900   156902704.168          55.738          47.000  
C23  21902157.460   114050281.215         694.516          53.750                                                                  
C25  22915626.540   119327684.125       -2112.582          51.750                                                                  
C32  22064499.660   114895640.480         586.047          53.500                                                                  
C10  38630930.440   201161379.324         472.082          43.500    38630933.240   155550741.402         366.875          48.250  
E04  24816787.360   130413093.063       -1847.035          47.500    24816790.020    99926911.141       -1414.895          51.500  
E09  23554853.640   123781589.234         549.547          51.250    23554855.700    94845627.316         421.008          51.750  
E24  26850334.380   141099488.449        3093.250          41.250    26850338.720   108115183.965        2371.363          46.000  
E31  23977861.440   126004521.797        1320.809          50.250    23977864.780    96548913.707        1011.980          52.000  
> 2022 12 06 11 45 38.0000000  0 23       0.000000000000
G13  20542947.180   107953914.461        1560.969          53.000                                                                  
G30  21165493.020   111225413.055       -1642.000          53.250    21165494.760    86669163.348       -1279.281          50.250  
G05  21079723.840   110774700.344        -996.660          53.250    21079723.720    86317945.762        -777.313          48.500  
G07  23488744.400   123434190.758       -2691.906          48.500    23488745.440    96182481.555       -2097.273          42.250  
G15  22356048.140   117481818.656        3060.527          49.750    22356049.840    91544297.676        2386.617          45.250  
G14  20996072.380   110335097.160        1047.609          52.000                                                                  
G20  22130425.080   116296175.223       -3051.383          49.750                                                                  
R02  19163707.040   102261252.465         140.566          57.250    19163711.720    79536523.973         109.199          52.500  
R13  21037760.000   112340502.207        3319.512          44.750    21037766.480    87375944.820        2582.219          43.750  
R12  19147880.380   102284577.246        -150.801          56.750    19147886.120    79554669.785        -117.223          53.500  
R11  21928690.060   117180308.023       -3720.930          52.250    21928697.660    91140223.301       -2893.750          51.250  
R01  21766107.080   116352349.570       -3582.316          46.750    21766118.180    90496294.430       -2787.684          46.000  
R03  21464829.660   114902938.277        3516.031          51.500    21464837.140    89368954.145        2735.418          49.250  
C37  24778086.960   129026006.625        2914.984          46.500                                                                  
C07  38966676.980   202909713.883          74.762          44.000    38966676.720   156902651.070          57.863          46.500  
C23  21902024.940   114049591.480         695.133          54.000                                                                  
C25  22916033.280   119329802.363       -2113.547          52.000                                                                  
C32  22064388.040   114895059.563         586.047          54.000                                                                  
C10  38630840.500   201160911.012         472.957          44.250    38630843.240   155550379.258         365.094          48.000  
E04  24817139.700   130414944.844       -1846.191          47.750    24817142.380    99928330.047       -1415.043          51.500  
E09  23554749.880   123781044.402         550.391          51.250    23554752.020    94845209.832         421.164          51.750  
E24  26849746.740   141096399.621        3093.879          41.250    26849750.940   108112817.195        2370.793          46.000  
E31  23977611.280   126003206.480        1319.441          50.250    23977614.460    96547905.859        1012.246          52.000  
> 2022 12 06 11 45 39.0000000  0 23       0.000000000000
G13  20542651.500   107952359.832        1559.895          53.250                                                                  
G30  21165806.360   111227060.414       -1642.090          53.250    21165808.320    86670447.004       -1278.816          50.000  
G05  21079914.580   110775702.996        -996.453          53.250    21079914.500    86318727.047        -776.973          48.500  
G07  23489258.020   123436887.734       -2691.223          48.500    23489259.040    96184583.117       -2096.109          42.250  
G15  22355466.480   117478763.500        3060.297          49.750    22355468.380    91541917.031        2385.863          45.250  
G14  20995874.040   110334055.703        1047.293          52.000                                                                  
G20  22131006.860   116299232.742       -3051.332          49.750                                                                  
R02  19163682.100   102261117.391         140.363          57.500    19163686.600    79536418.914         108.238          52.750  
R13  21037139.500   112337189.113        3318.359          45.000    21037146.940    87373367.965        2581.090          43.750  
R12  19147909.620   102284733.949        -151.598          57.000    19147915.460    79554791.664        -118.219          53.500  
R11  21929387.440   117184034.180       -3720.832          52.500    21929394.960    91143121.426       -2895.539          51.000  
R01  21766778.780   116355938.348       -3582.734          46.750    21766789.980    90499085.688       -2786.785          46.000  
R03  21464173.520   114899428.516        3515.242          51.000    21464181.720    89366224.324        2733.652          49.500  
C37  24777528.460   129023098.051        2914.625          47.000                                                                  
C07  38966663.920   202909645.539          74.281          44.500    38966663.300   156902598.207          57.676          45.500  
C23  21901892.460   114048902.348         693.883          54.000                                                                  
C25  22916440.160   119331921.035       -2113.625          52.250                                                                  
C32  22064276.660   114894479.297         585.434          54.000                                                                  
C10  38630750.920   201160442.965         473.090          44.250    38630753.360   155550017.336         364.758          48.250  
E04  24817491.860   130416797.004       -1846.020          47.750    24817494.980    99929749.230       -1414.242          51.750  
E09  23554646.280   123780499.980         549.750          51.250    23554648.380    94844792.684         422.078          51.750  
E24  26849158.900   141093311.082        3096.328          41.250    26849163.220   108110450.648        2369.168          46.000  
E31  23977361.000   126001891.738        1320.605          50.000    23977364.280    96546898.449        1011.445          52.000  
> 2022 12 06 11 45 40.0000000  0 23       0.000000000000
G13  20542355.960   107950805.383        1560.238          52.500                                                                  
G30  21166119.840   111228707.930       -1641.895          53.000    21166122.020    86671730.773       -1278.113          50.500  
G05  21080105.420   110776706.164        -997.559          52.750    21080105.540    86319508.742        -777.652          48.750  
G07  23489771.320   123439584.637       -2689.543          48.000    23489772.080    96186684.590       -2096.688          42.750  
G15  22354885.180   117475708.414        3060.941          48.750    22354886.860    91539536.441        2385.777          45.500  
G14  20995675.780   110333014.723        1045.840          51.250                                                                  
G20  22131588.680   116302290.461       -3053.305          49.250                                                                  
R02  19163656.920   102260982.891         140.453          57.750    19163661.400    79536314.305         109.434          52.750  
R13  21036519.540   112333876.352        3318.609          45.500    21036525.200    87370791.363        2580.520          43.500  
R12  19147939.160   102284891.250        -151.086          57.000    19147945.140    79554914.016        -118.199          53.500  
R11  21930085.200   117187760.441       -3719.734          52.750    21930092.200    91146019.633       -2892.895          51.000  
R01  21767450.940   116359527.355       -3582.949          47.000    21767461.080    90501877.141       -2786.953          45.750  
R03  21463518.040   114895918.891        3516.094          51.000    21463526.680    89363494.613        2735.293          49.500  
C37  24776970.220   129020189.527        2913.750          47.000                                                                  
C07  38966650.640   202909577.195          74.840          44.250    38966650.280   156902545.375          57.387          45.250  
C23  21901760.160   114048213.500         694.848          53.750                                                                  
C25  22916847.020   119334039.820       -2112.270          52.000                                                                  
C32  22064165.220   114893899.367         585.656          54.000                                                                  
C10  38630661.140   201159974.930         474.852          43.750    38630663.760   155549655.422         366.621          48.250  
E04  24817843.980   130418649.238       -1845.121          47.500    24817847.540    99931168.465       -1415.230          51.750  
E09  23554542.580   123779955.660         550.391          51.250    23554544.740    94844375.609         422.980          51.750  
E24  26848571.740   141090222.520        3093.641          41.500    26848575.480   108108084.094        2372.102          46.000  
E31  23977110.920   126000577.254        1319.730          50.250    23977114.100    96545891.258        1011.199          52.000  
> 2022 12 06 11 45 41.0000000  0 23       0.000000000000
G13  20542060.460   107949251.434        1559.715          52.500                                                                  
G30  21166433.520   111230355.922       -1641.430          52.750    21166435.700    86673014.918       -1279.574          50.500  
G05  21080296.500   110777710.141        -998.285          52.500    21080296.780    86320291.059        -778.133          48.500  
G07  23490284.460   123442281.785       -2691.105          48.250    23490285.540    96188786.227       -2097.348          42.750  
G15  22354303.760   117472653.727        3059.680          49.000    22354305.940    91537156.172        2385.527          45.250  
G14  20995477.920   110331974.535        1046.059          51.250                                                                  
G20  22132170.740   116305348.691       -3052.258          49.250                                                                  
R02  19163632.080   102260849.316         139.141          57.750    19163636.600    79536210.418         108.789          52.750  
R13  21035899.900   112330564.199        3319.375          45.500    21035904.640    87368215.262        2581.004          43.750  
R12  19147968.700   102285049.500        -152.066          57.000    19147974.800    79555037.098        -118.344          53.750  
R11  21930782.800   117191487.105       -3720.367          52.750    21930789.260    91148918.145       -2894.078          51.000  
R01  21768122.880   116363116.918       -3584.477          46.750    21768132.540    90504669.016       -2788.734          45.750  
R03  21462862.080   114892409.699        3515.672          51.000    21462870.980    89360765.250        2734.543          49.500  
C37  24776411.820   129017281.371        2914.391          47.000                                                                  
C07  38966637.540   202909509.168          73.707          44.000    38966637.340   156902492.777          57.000          45.000  
C23  21901627.900   114047525.246         693.660          53.750                                                                  
C25  22917254.040   119336159.043       -2113.391          52.250                                                                  
C32  22064053.940   114893320.094         584.809          53.750                                                                  
C10  38630571.340   201159507.199         473.797          43.750    38630574.000   155549293.750         367.574          48.250  
E04  24818196.620   130420501.852       -1846.605          47.500    24818200.040    99932587.992       -1415.004          51.500  
E09  23554439.060   123779411.766         551.109          51.000    23554441.280    94843958.863         421.543          51.750  
E24  26847983.860   141087134.230        3094.523          41.500    26847987.820   108105717.754        2372.047          46.250  
E31  23976860.880   125999263.355        1320.496          50.250    23976864.120    96544884.508        1011.324          52.000  
> 2022 12 06 11 45 42.0000000  0 23       0.000000000000
G13  20541764.780   107947697.605        1559.875          52.750                                                                  
G30  21166747.220   111232003.965       -1641.672          53.000    21166749.400    86674299.121       -1279.980          50.500  
G05  21080487.640   110778714.563        -999.293          52.500    21080487.640    86321073.719        -778.418          48.500  
G07  23490797.680   123444978.781       -2689.289          48.250    23490798.600    96190887.797       -2095.121          43.000  
G15  22353722.620   117469599.023        3059.961          49.500    22353724.560    91534775.879        2385.465          45.250  
G14  20995280.080   110330934.711        1045.422          51.500                                                                  
G20  22132752.880   116308407.063       -3052.027          49.500                                                                  
R02  19163607.040   102260716.246         138.824          57.750    19163611.740    79536106.918         108.605          53.000  
R13  21035278.780   112327252.297        3315.715          45.000    21035284.620    87365639.336        2580.363          43.750  
R12  19147998.180   102285208.266        -153.262          56.750    19148004.580    79555160.582        -118.887          53.500  
R11  21931480.300   117195213.777       -3720.652          53.000    21931486.480    91151816.668       -2893.566          50.500  
R01  21768794.480   116366706.637       -3582.613          47.250    21768803.780    90507461.008       -2787.035          45.500  
R03  21462206.460   114888900.508        3514.816          51.250    21462215.600    89358035.887        2733.145          49.250  
C37  24775853.580   129014373.184        2914.086          46.250                                                                  
C07  38966624.320   202909441.070          74.453          43.250    38966624.000   156902440.117          56.547          45.000  
C23  21901495.580   114046837.195         693.586          53.000                                                                  
C25  22917660.900   119338278.305       -2113.402          51.500                                                                  
C32  22063942.740   114892741.063         585.203          53.250                                                                  
C10  38630481.380   201159039.371         475.078          43.250    38630484.100   155548932.000         365.094          48.000  
E04  24818549.240   130422354.438       -1846.457          47.750    24818552.480    99934007.516       -1415.363          51.500  
E09  23554335.520   123778867.906         549.551          51.000    23554337.700    94843542.133         421.469          51.750  
E24  26847396.680   141084045.852        3095.707          41.750    26847400.220   108103351.328        2371.570          46.000  
E31  23976610.920   125997949.648        1320.211          50.500    23976614.020    96543877.898        1010.797          52.000  
> 2022 12 06 11 45 43.0000000  0 23       0.000000000000
G13  20541469.160   107946144.180        1559.063          52.750                                                                  
G30  21167060.920   111233652.402       -1642.102          53.000    21167063.080    86675583.613       -1279.031          50.250  
G05  21080678.820   110779719.695        -998.598          52.500    21080678.960    86321856.934        -778.438          48.500  
G07  23491310.700   123447675.938       -2689.832          48.250    23491311.580    96192989.461       -2096.609          43.000  
G15  22353141.360   117466544.609        3061.031          49.250    22353143.280    91532395.824        2384.848          45.000  
G14  20995082.360   110329895.598        1044.566          51.500                                                                  
G20  22133334.960   116311465.848       -3051.707          49.500                                                                  
R02  19163582.340   102260583.945         138.227          57.750    19163587.500    79536004.016         107.570          53.250  
R13  21034659.300   112323940.973        3315.785          45.250    21034665.580    87363063.863        2580.141          43.750  
R12  19148027.680   102285367.852        -152.719          56.750    19148034.400    79555284.707        -119.238          53.750  
R11  21932178.000   117198940.773       -3720.480          53.000    21932183.600    91154715.434       -2893.543          50.500  
R01  21769465.900   116370296.813       -3584.078          47.250    21769475.300    90510253.359       -2787.551          45.250  
R03  21461551.220   114885391.656        3515.098          51.000    21461560.260    89355306.785        2734.016          49.000  
C37  24775295.380   129011465.258        2914.105          46.000                                                                  
C07  38966611.400   202909373.184          74.766          43.250    38966611.120   156902387.617          57.836          44.750  
C23  21901363.500   114046149.648         693.285          52.750                                                                  
C25  22918067.980   119340397.898       -2112.379          51.250                                                                  
C32  22063831.720   114892162.609         585.645          53.000                                                                  
C10  38630391.280   201158571.805         475.215          42.750    38630394.320   155548570.438         365.355          48.000  
E04  24818901.920   130424207.324       -1845.191          47.750    24818905.040    99935427.258       -1415.758          51.500  
E09  23554232.000   123778324.375         549.895          51.000    23554234.320    94843125.664         420.316          51.750  
E24  26846809.040   141080957.648        3094.477          41.750    26846812.500   108100985.055        2371.246          46.000  
E31  23976361.100   125996636.426        1319.063          50.500    23976364.180    96542871.672        1011.031          52.000  
> 2022 12 06 11 45 44.0000000  0 23       0.000000000000
G13  20541173.560   107944591.230        1558.926          52.750                                                                  
G30  21167374.680   111235301.262       -1642.172          53.000    21167377.020    86676868.438       -1279.789          50.250  
G05  21080870.300   110780725.602        -998.672          52.500    21080870.320    86322640.762        -779.254          48.500  
G07  23491824.040   123450373.281       -2691.418          48.500    23491824.700    96195091.289       -2096.750          42.000  
G15  22352560.140   117463490.574        3060.379          49.250    22352562.240    91530016.047        2384.832          45.000  
G14  20994884.720   110328857.227        1044.813          51.250                                                                  
G20  22133917.180   116314525.098       -3052.008          49.750                                                                  
R02  19163557.620   102260452.434         138.520          57.250    19163562.760    79535901.715         107.582          53.000  
R13  21034040.120   112320630.223        3316.762          45.000    21034045.520    87360488.844        2580.727          43.500  
R12  19148057.880   102285528.316        -154.199          56.500    19148064.400    79555409.516        -120.500          53.500  
R11  21932875.640   117202668.109       -3721.086          52.500    21932881.280    91157614.496       -2893.828          50.250  
R01  21770137.960   116373887.477       -3583.836          47.250    21770147.280    90513046.086       -2788.352          45.250  
R03  21460895.520   114881883.176        3515.258          51.000    21460904.660    89352577.965        2734.336          49.250  
C37  24774737.160   129008557.645        2913.230          46.000                                                                  
C07  38966598.380   202909305.586          72.141          43.250    38966597.940   156902335.328          56.891          45.500  
C23  21901231.560   114045462.637         692.613          52.750                                                                  
C25  22918475.140   119342517.875       -2113.609          51.250                                                                  
C32  22063720.800   114891584.742         584.516          53.000                                                                  
C10  38630301.580   201158104.445         473.105          42.500    38630304.720   155548209.051         366.281          48.250  
E04  24819254.140   130426060.539       -1847.449          47.250    24819257.700    99936847.270       -1414.988          51.500  
E09  23554128.640   123777781.211         550.164          51.000    23554130.980    94842709.480         421.391          51.750  
E24  26846221.200   141077869.711        3093.828          41.500    26846225.080   108098618.965        2370.715          46.000  
E31  23976111.140   125995323.738        1318.328          50.250    23976114.360    96541865.844        1010.793          51.750  
> 2022 12 06 11 45 45.0000000  0 23       0.000000000000
G13  20540878.080   107943038.840        1558.871          52.750                                                                  
G30  21167688.420   111236950.648       -1642.730          52.750    21167690.780    86678153.680       -1280.281          50.250  
G05  21081061.960   110781732.398        -999.844          52.750    21081061.980    86323425.270        -780.172          48.500  
G07  23492337.540   123453070.938       -2690.699          48.750    23492337.660    96197193.320       -2097.281          41.250  
G15  22351979.120   117460436.969        3061.121          49.250    22351980.900    91527636.625        2385.238          45.000  
G14  20994687.340   110327819.676        1043.980          51.250                                                                  
G20  22134499.460   116317584.934       -3052.844          49.750                                                                  
R02  19163532.980   102260321.836         137.582          57.250    19163538.560    79535800.141         106.762          53.000  
R13  21033420.300   112317320.234        3316.137          45.000    21033425.260    87357914.379        2578.941          43.500  
R12  19148088.080   102285689.781        -155.367          56.500    19148094.860    79555535.102        -120.168          53.500  
R11  21933573.240   117206395.930       -3720.949          52.500    21933579.220    91160513.910       -2893.633          50.750  
R01  21770810.780   116377478.746       -3583.898          47.750    21770818.380    90515839.289       -2786.551          45.250  
R03  21460240.320   114878375.199        3514.566          51.250    21460249.640    89349849.543        2733.391          49.000  
C37  24774178.980   129005650.465        2914.309          46.250                                                                  
C07  38966585.420   202909238.348          74.516          43.250    38966585.400   156902283.336          55.836          46.500  
C23  21901099.700   114044776.297         694.203          53.000                                                                  
C25  22918882.340   119344638.355       -2113.988          51.250                                                                  
C32  22063610.040   114891007.590         582.402          53.000                                                                  
C10  38630211.860   201157637.434         473.535          42.500    38630215.100   155547847.953         366.941          48.000  
E04  24819606.880   130427914.184       -1845.887          47.250    24819610.360    99938267.590       -1414.707          51.500  
E09  23554025.460   123777238.539         549.203          51.250    23554027.800    94842293.656         420.566          52.000  
E24  26845633.620   141074782.086        3093.840          42.000    26845637.460   108096253.133        2369.789          46.000  
E31  23975861.500   125994011.699        1319.297          50.250    23975864.680    96540860.512        1009.754          52.000  
> 2022 12 06 11 45 46.0000000  0 23       0.000000000000
G13  20540582.640   107941486.031        1557.852          52.500                                                                  
G30  21168002.180   111238599.586       -1642.270          52.750    21168004.620    86679438.559       -1280.238          50.500  
G05  21081253.600   110782739.090       -1001.914          52.750    21081253.740    86324209.711        -779.191          48.750  
G07  23492851.040   123455767.895       -2692.305          48.500    23492850.700    96199294.875       -2096.707          41.500  
G15  22351397.920   117457382.836        3058.895          49.250    22351399.460    91525256.770        2384.566          45.250  
G14  20994490.080   110326781.996        1043.488          51.250                                                                  
G20  22135081.700   116320644.352       -3052.641          49.750                                                                  
R02  19163508.600   102260191.188         136.438          57.250    19163514.040    79535698.527         105.512          52.750  
R13  21032800.480   112314009.918        3316.801          45.000    21032805.860    87355339.715        2580.797          43.750  
R12  19148118.660   102285851.215        -155.504          56.750    19148124.860    79555660.660        -121.363          53.500  
R11  21934270.900   117210123.234       -3721.566          53.000    21934277.000    91163412.914       -2894.094          50.500  
R01  21771482.140   116381069.629       -3585.195          47.500    21771490.080    90518632.199       -2789.336          45.250  
R03  21459585.140   114874866.742        3514.504          51.500    21459594.160    89347120.750        2732.477          49.000  
C37  24773620.600   129002742.738        2913.578          46.750                                                                  
C07  38966572.620   202909170.488          73.742          43.750    38966572.720   156902230.875          56.855          46.250  
C23  21900967.680   114044089.637         692.895          53.250                                                                  
C25  22919289.460   119346758.332       -2113.691          52.000                                                                  
C32  22063499.220   114890430.184         583.098          53.500                                                                  
C10  38630121.960   201157169.848         475.547          43.000    38630125.340   155547486.352         365.750          47.500  
E04  24819959.560   130429767.293       -1848.301          47.000    24819962.960    99939687.492       -1416.473          51.250  
E09  23553922.040   123776695.359         549.215          51.250    23553924.420    94841877.465         420.527          52.000  
E24  26845045.920   141071693.875        3094.887          42.250    26845049.760   108093886.840        2371.465          46.000  
E31  23975611.620   125992699.309        1318.051          50.250    23975614.900    96539854.914        1010.008          52.000  
> 2022 12 06 11 45 47.0000000  0 23       0.000000000000
G13  20540287.280   107939933.824        1558.395          52.500                                                                  
G30  21168315.980   111240249.074       -1643.324          52.500    21168318.420    86680723.887       -1280.098          50.500  
G05  21081445.360   110783746.695       -1001.531          52.750    21081445.700    86324994.844        -780.352          48.750  
G07  23493364.260   123458465.223       -2690.645          48.250    23493363.940    96201396.691       -2095.957          41.750  
G15  22350816.740   117454329.188        3060.059          48.750    22350818.580    91522877.324        2384.941          45.250  
G14  20994292.940   110325745.180        1043.379          51.250                                                                  
G20  22135664.120   116323704.379       -3052.832          49.750                                                                  
R02  19163484.100   102260061.539         135.863          57.500    19163488.980    79535597.688         105.785          52.750  
R13  21032180.500   112310700.348        3316.742          45.500    21032185.720    87352765.617        2578.773          43.500  
R12  19148149.260   102286013.664        -156.305          57.000    19148155.240    79555787.016        -121.332          53.500  
R11  21934968.220   117213851.020       -3720.965          53.000    21934974.280    91166312.316       -2894.277          50.500  
R01  21772153.720   116384661.152       -3583.523          47.750    21772160.960    90521425.598       -2788.438          45.000  
R03  21458929.580   114871358.824        3514.449          51.750    21458938.060    89344392.363        2733.016          49.000  
C37  24773062.420   128999835.453        2914.359          47.250                                                                  
C07  38966559.660   202909103.051          73.285          44.000    38966559.780   156902178.711          57.695          46.000  
C23  21900835.840   114043403.660         692.270          53.500                                                                  
C25  22919696.500   119348878.840       -2113.859          52.000                                                                  
C32  22063388.360   114889853.500         582.645          53.750                                                                  
C10  38630032.140   201156702.660         474.020          43.250    38630035.580   155547125.098         366.258          47.500  
E04  24820312.040   130431620.875       -1846.832          47.000    24820315.540    99941107.777       -1415.191          51.250  
E09  23553818.640   123776152.699         549.047          51.250    23553821.200    94841461.660         421.191          52.000  
E24  26844458.440   141068606.012        3095.289          42.000    26844462.160   108091520.820        2368.500          46.250  
E31  23975361.960   125991387.602        1317.734          50.250    23975365.280    96538849.844        1010.059          52.000  
> 2022 12 06 11 45 48.0000000  0 23       0.000000000000
G13  20539990.580   107938374.770        1558.797          52.250                                                                  
G30  21168628.500   111241891.684       -1642.141          52.500    21168630.840    86682003.832       -1279.465          50.250  
G05  21081635.900   110784747.770       -1001.395          52.750    21081636.120    86325774.910        -780.797          48.500  
G07  23493875.960   123461155.434       -2690.465          48.250    23493875.540    96203492.941       -2095.328          41.250  
G15  22350234.240   117451268.594        3060.348          48.750    22350236.120    91520492.422        2383.156          45.000  
G14  20994094.540   110324701.813        1042.914          51.500                                                                  
G20  22136245.180   116326757.574       -3055.074          49.750                                                                  
R02  19163458.580   102259925.340         135.957          57.250    19163463.580    79535491.762         105.012          52.750  
R13  21031559.640   112307383.961        3315.484          45.500    21031565.160    87350186.203        2580.137          43.500  
R12  19148178.340   102286169.582        -156.641          56.750    19148184.280    79555908.277        -122.285          53.500  
R11  21935664.720   117217571.770       -3720.980          53.000    21935670.240    91169206.207       -2894.496          50.250  
R01  21772824.140   116388245.742       -3584.914          47.500    21772831.860    90524213.617       -2788.520          45.250  
R03  21458273.400   114867843.871        3514.910          52.000    21458281.540    89341658.516        2734.371          49.000  
C37  24772502.900   128996921.270        2914.711          47.750                                                                  
C07  38966545.380   202909028.637          74.348          44.250    38966545.320   156902121.156          59.598          46.250  
C23  21900702.860   114042710.992         692.336          53.500                                                                  
C25  22920102.280   119350992.496       -2114.051          52.000                                                                  
C32  22063276.300   114889270.199         583.043          53.750                                                                  
C10  38629941.220   201156228.477         474.895          43.500    38629944.600   155546758.445         366.117          47.500  
E04  24820663.340   130433467.488       -1845.902          46.750    24820666.860    99942522.711       -1414.621          51.250  
E09  23553714.040   123775603.129         549.945          51.000    23553716.600    94841040.551         421.227          52.000  
E24  26843869.620   141065511.094        3093.766          42.000    26843873.300   108089149.395        2370.035          46.000  
E31  23975111.100   125990069.125        1317.117          50.250    23975114.380    96537839.578        1009.922          52.000  
> 2022 12 06 11 45 49.0000000  0 23       0.000000000000
G13  20539695.340   107936823.160        1559.270          52.250                                                                  
G30  21168942.460   111243541.719       -1642.301          52.500    21168944.980    86683289.578       -1279.758          50.250  
G05  21081827.980   110785756.594       -1001.926          52.750    21081828.100    86326561.008        -780.813          48.750  
G07  23494389.440   123463852.848       -2690.125          48.750    23494388.640    96205594.809       -2098.309          41.000  
G15  22349653.060   117448215.313        3059.945          49.000    22349655.200    91518113.262        2384.645          45.000  
G14  20993897.500   110323666.172        1041.250          51.500                                                                  
G20  22136827.700   116329818.223       -3053.441          49.750                                                                  
R02  19163434.620   102259797.090         134.711          57.250    19163439.120    79535392.008         104.871          52.500  
R13  21030940.260   112304075.262        3318.258          45.250    21030945.140    87347612.777        2578.164          43.750  
R12  19148209.400   102286333.457        -156.703          57.000    19148215.060    79556035.738        -122.316          53.500  
R11  21936362.540   117221299.949       -3721.910          53.000    21936368.240    91172105.910       -2894.672          50.250  
R01  21773496.300   116391837.941       -3584.707          48.000    21773503.860    90527007.543       -2788.363          45.250  
R03  21457618.420   114864336.418        3515.285          52.000    21457626.420    89338930.484        2732.242          49.250  
C37  24771944.920   128994014.293        2913.832          47.750                                                                  
C07  38966532.340   202908961.406          73.941          44.500    38966532.520   156902069.184          57.746          46.500  
C23  21900571.280   114042025.809         692.039          53.500                                                                  
C25  22920509.500   119353113.461       -2114.102          52.250                                                                  
C32  22063165.760   114888694.406         582.645          53.750                                                                  
C10  38629851.800   201155761.473         473.984          43.500    38629855.140   155546397.336         366.035          47.500  
E04  24821016.220   130435321.426       -1845.289          46.750    24821019.640    99943943.262       -1414.898          51.250  
E09  23553610.860   123775060.895         548.820          51.000    23553613.460    94840625.086         420.762          52.000  
E24  26843282.060   141062423.402        3095.934          42.500    26843285.700   108086783.500        2369.535          46.000  
E31  23974861.560   125988758.168        1317.734          50.000    23974864.920    96536835.082        1009.832          52.000  
> 2022 12 06 11 45 50.0000000  0 23       0.000000000000
G13  20539400.280   107935272.965        1558.344          52.500                                                                  
G30  21169256.720   111245193.121       -1643.473          52.500    21169259.180    86684576.375       -1279.723          50.250  
G05  21082020.380   110786767.148       -1001.465          53.000    21082020.600    86327348.438        -780.520          48.750  
G07  23494902.900   123466551.398       -2690.098          48.500    23494902.080    96207697.574       -2097.012          41.250  
G15  22349072.260   117445163.348        3060.254          49.000    22349074.300    91515735.102        2385.578          45.250  
G14  20993700.940   110322632.199        1041.137          51.750                                                                  
G20  22137410.280   116332880.289       -3054.355          50.000                                                                  
R02  19163410.680   102259670.609         134.098          57.500    19163415.600    79535293.637         103.703          52.750  
R13  21030319.980   112300768.141        3314.355          45.500    21030325.760    87345040.578        2580.148          43.750  
R12  19148240.640   102286499.184        -157.949          57.250    19148246.220    79556164.629        -122.480          53.500  
R11  21937060.600   117225029.477       -3720.703          53.500    21937065.720    91175006.641       -2893.320          50.250  
R01  21774168.540   116395431.602       -3585.754          48.250    21774175.800    90529802.609       -2787.586          45.250  
R03  21456963.720   114860830.309        3514.750          52.000    21456971.260    89336203.508        2733.387          49.000  
C37  24771387.060   128991108.586        2913.492          47.250                                                                  
C07  38966519.520   202908895.387          73.855          44.000    38966519.900   156902018.129          56.520          46.250  
C23  21900439.980   114041342.113         691.660          53.250                                                                  
C25  22920917.140   119355235.734       -2114.059          51.750                                                                  
C32  22063055.400   114888120.180         582.625          53.500                                                                  
C10  38629762.220   201155295.680         473.012          43.000    38629765.580   155546037.145         366.980          47.750  
E04  24821369.280   130437176.621       -1847.973          46.750    24821372.600    99945364.766       -1415.492          51.250  
E09  23553507.840   123774520.008         548.953          51.000    23553510.540    94840210.625         421.609          52.000  
E24  26842694.540   141059336.898        3093.973          42.500    26842698.360   108084418.523        2373.234          46.000  
E31  23974612.260   125987448.699        1317.266          50.000    23974615.700    96535831.723        1009.156          52.000  
> 2022 12 06 11 45 51.0000000  0 23       0.000000000000
G13  20539105.360   107933723.160        1557.758          52.750                                                                  
G30  21169571.160   111246844.863       -1643.676          53.000    21169573.700    86685863.453       -1281.004          50.250  
G05  21082212.960   110787778.406       -1003.504          53.250    21082213.100    86328136.430        -782.238          48.750  
G07  23495416.380   123469250.086       -2689.957          49.000    23495415.500    96209800.441       -2095.504          41.000  
G15  22348491.400   117442111.645        3059.746          49.000    22348493.520    91513357.152        2384.477          45.250  
G14  20993504.240   110321598.914        1043.000          51.750                                                                  
G20  22137993.120   116335942.770       -3053.008          50.250                                                                  
R02  19163386.880   102259544.852         133.953          57.500    19163391.880    79535195.832         103.184          52.750  
R13  21029701.480   112297461.563        3315.672          45.250    21029707.060    87342468.777        2577.422          44.000  
R12  19148271.560   102286665.738        -158.180          57.250    19148277.120    79556294.176        -123.613          53.500  
R11  21937758.460   117228759.281       -3721.094          53.000    21937764.220    91177907.605       -2895.109          50.500  
R01  21774840.300   116399025.711       -3586.195          48.250    21774848.280    90532598.008       -2789.813          45.000  
R03  21456308.780   114857324.512        3514.656          52.000    21456315.940    89333476.781        2733.535          49.250  
C37  24770829.140   128988203.133        2913.973          47.250                                                                  
C07  38966506.980   202908829.578          74.789          44.250    38966507.220   156901967.250          56.695          46.250  
C23  21900308.820   114040658.895         691.574          53.250                                                                  
C25  22921324.780   119357358.340       -2114.984          52.000                                                                  
C32  22062945.140   114887546.480         582.215          53.500                                                                  
C10  38629672.640   201154830.094         474.902          43.000    38629676.240   155545677.117         366.762          47.750  
E04  24821722.340   130439032.109       -1848.203          46.750    24821725.720    99946786.508       -1415.188          51.250  
E09  23553405.060   123773979.418         548.402          51.000    23553407.700    94839796.418         420.570          52.000  
E24  26842107.420   141056250.586        3095.328          42.250    26842111.080   108082053.684        2371.703          46.000  
E31  23974363.080   125986139.691        1317.234          50.250    23974366.640    96534828.719        1009.957          52.000  
> 2022 12 06 11 45 52.0000000  0 23       0.000000000000
G13  20538810.340   107932174.047        1557.379          52.750                                                                  
G30  21169885.740   111248497.270       -1644.945          53.000    21169888.200    86687151.043       -1280.824          50.500  
G05  21082405.740   110788790.656       -1003.973          53.500    21082405.780    86328925.203        -782.563          48.750  
G07  23495930.240   123471949.207       -2692.301          49.000    23495929.020    96211903.641       -2097.227          41.000  
G15  22347910.620   117439060.523        3058.680          49.250    22347913.040    91510979.664        2384.719          45.000  
G14  20993307.860   110320566.582        1040.492          52.000                                                                  
G20  22138576.120   116339005.934       -3055.508          50.500                                                                  
R02  19163363.560   102259420.152         132.578          57.250    19163368.800    79535098.840         103.230          52.750  
R13  21029082.860   112294155.816        3313.516          45.250    21029087.340    87339897.656        2576.879          43.750  
R12  19148303.000   102286833.410        -159.051          57.000    19148308.860    79556424.586        -124.445          53.500  
R11  21938456.500   117232489.699       -3721.430          52.750    21938462.560    91180809.043       -2895.203          50.500  
R01  21775512.460   116402620.547       -3586.926          47.750    21775521.220    90535394.000       -2791.195          45.000  
R03  21455654.000   114853819.309        3513.875          51.750    21455660.700    89330750.516        2732.699          49.000  
C37  24770271.160   128985298.215        2912.508          47.750                                                                  
C07  38966494.040   202908764.238          74.406          44.750    38966494.520   156901916.742          57.707          46.750  
C23  21900177.900   114039976.461         690.637          53.750                                                                  
C25  22921732.520   119359481.547       -2113.754          52.250                                                                  
C32  22062835.140   114886973.609         580.867          53.750                                                                  
C10  38629582.940   201154364.973         474.547          43.250    38629586.880   155545317.480         363.980          48.000  
E04  24822075.520   130440888.141       -1847.426          46.750    24822078.840    99948208.680       -1416.070          51.250  
E09  23553302.300   123773439.438         548.559          51.000    23553304.880    94839382.680         420.043          52.250  
E24  26841520.240   141053164.746        3096.379          42.250    26841523.780   108079689.211        2370.285          46.000  
E31  23974114.220   125984831.453        1316.547          50.250    23974117.620    96533826.316        1008.270          52.000  
> 2022 12 06 11 45 53.0000000  0 23       0.000000000000
G13  20538515.480   107930625.660        1556.719          52.750                                                                  
G30  21170200.380   111250150.352       -1645.289          53.000    21170202.820    86688439.160       -1281.043          50.500  
G05  21082598.640   110789803.938       -1004.500          53.500    21082598.620    86329714.770        -782.273          48.750  
G07  23496443.720   123474648.773       -2689.563          49.000    23496442.960    96214007.227       -2097.574          40.750  
G15  22347329.940   117436009.996        3059.309          49.000    22347332.440    91508602.621        2382.578          45.250  
G14  20993111.660   110319535.242        1039.230          52.000                                                                  
G20  22139159.340   116342069.824       -3055.336          50.500                                                                  
R02  19163340.200   102259296.570         131.926          57.000    19163345.660    79535002.719         102.082          52.750  
R13  21028463.440   112290850.930        3311.574          45.000    21028469.460    87337327.195        2578.629          44.000  
R12  19148334.620   102287002.203        -160.176          57.000    19148340.440    79556555.871        -124.844          53.750  
R11  21939154.680   117236220.727       -3722.699          52.750    21939160.600    91183710.957       -2895.441          50.500  
R01  21776184.980   116406216.137       -3587.512          47.750    21776193.660    90538190.570       -2790.219          45.250  
R03  21454999.020   114850314.750        3512.973          51.500    21455005.980    89328024.746        2733.156          49.000  
C37  24769713.420   128982393.867        2914.238          47.750                                                                  
C07  38966481.720   202908699.410          72.660          44.500    38966482.180   156901866.609          55.586          46.750  
C23  21900046.980   114039294.824         689.883          53.750                                                                  
C25  22922140.440   119361605.398       -2114.441          52.250                                                                  
C32  22062725.280   114886401.598         580.664          53.750                                                                  
C10  38629493.380   201153900.387         473.816          43.250    38629497.760   155544958.207         365.145          48.000  
E04  24822428.900   130442744.777       -1847.246          46.500    24822432.080    99949631.277       -1416.688          51.250  
E09  23553199.680   123772900.094         547.527          51.000    23553202.260    94838969.398         418.574          52.250  
E24  26840932.920   141050079.387        3094.648          42.500    26840936.720   108077325.117        2368.398          46.000  
E31  23973865.220   125983524.012        1316.156          50.000    23973868.840    96532824.492        1008.246          52.000  
> 2022 12 06 11 45 54.0000000  0 23       0.000000000000
G13  20538220.780   107929077.734        1555.855          52.500                                                                  
G30  21170515.200   111251803.867       -1645.746          53.000    21170517.420    86689727.613       -1282.828          50.500  
G05  21082791.580   110790817.996       -1006.844          53.250    21082791.620    86330504.938        -783.328          48.750  
G07  23496957.460   123477348.551       -2692.941          49.000    23496956.480    96216110.930       -2095.629          40.500  
G15  22346749.400   117432959.824        3057.059          49.000    22346752.000    91506225.863        2382.191          45.250  
G14  20992915.600   110318504.648        1038.500          52.000                                                                  
G20  22139742.480   116345134.199       -3056.512          50.250                                                                  
R02  19163317.200   102259173.871         130.395          57.250    19163322.700    79534907.289         100.941          53.000  
R13  21027844.300   112287546.629        3312.234          45.250    21027849.700    87334757.191        2575.328          44.000  
R12  19148366.420   102287171.863        -162.313          57.000    19148372.160    79556687.820        -126.648          53.750  
R11  21939852.560   117239952.137       -3722.832          53.000    21939858.780    91186613.148       -2895.973          50.500  
R01  21776857.240   116409812.262       -3588.547          48.000    21776866.680    90540987.559       -2789.777          45.250  
R03  21454344.580   114846810.598        3512.258          51.750    21454351.340    89325299.293        2730.656          49.250  
C37  24769155.500   128979489.855        2911.613          47.750                                                                  
C07  38966469.340   202908634.883          73.910          44.250    38966470.080   156901816.699          56.398          46.750  
C23  21899916.100   114038613.742         688.742          53.500                                                                  
C25  22922548.480   119363729.625       -2116.117          52.000                                                                  
C32  22062615.600   114885830.199         578.480          53.500                                                                  
C10  38629404.220   201153436.043         472.004          43.000    38629408.740   155544599.160         365.688          48.000  
E04  24822782.160   130444601.738       -1849.578          46.500    24822785.480    99951054.141       -1417.914          51.000  
E09  23553097.040   123772361.125         547.160          51.000    23553099.720    94838556.430         418.949          52.000  
E24  26840345.880   141046994.285        3094.145          42.500    26840349.680   108074961.203        2369.578          45.750  
E31  23973616.600   125982217.105        1315.250          50.000    23973620.200    96531823.102        1007.234          52.000  
> 2022 12 06 11 45 55.0000000  0 23       0.000000000000
G13  20537926.400   107927530.664        1554.902          52.500                                                                  
G30  21170829.980   111253458.203       -1646.590          52.750    21170832.320    86691016.707       -1282.801          50.500  
G05  21082984.620   110791833.215       -1007.574          53.250    21082984.840    86331296.020        -784.801          48.750  
G07  23497471.520   123480048.930       -2692.938          49.000    23497470.480    96218215.094       -2097.977          40.500  
G15  22346169.220   117429910.414        3058.344          48.750    22346171.820    91503849.711        2382.492          45.250  
G14  20992719.720   110317475.191        1036.957          52.000                                                                  
G20  22140325.840   116348199.438       -3057.039          50.250                                                                  
R02  19163294.180   102259052.438         129.676          57.250    19163300.060    79534812.848         100.918          53.000  
R13  21027225.940   112284243.336        3312.230          45.500    21027231.220    87332187.949        2575.340          44.000  
R12  19148398.120   102287342.828        -163.637          57.000    19148404.160    79556820.801        -126.945          53.750  
R11  21940550.880   117243684.301       -3723.520          52.750    21940557.180    91189515.957       -2896.512          50.750  
R01  21777530.460   116413409.289       -3588.852          48.000    21777539.020    90543785.250       -2792.371          45.500  
R03  21453689.380   114843307.246        3511.477          51.500    21453696.500    89322574.477        2729.531          49.250  
C37  24768598.080   128976586.539        2910.094          47.500                                                                  
C07  38966457.200   202908571.012          71.770          44.500    38966457.920   156901767.305          54.309          46.750  
C23  21899785.700   114037933.605         688.547          53.500                                                                  
C25  22922956.620   119365854.637       -2117.563          52.250                                                                  
C32  22062506.020   114885259.805         577.629          53.500                                                                  
C10  38629315.320   201152972.383         471.047          43.000    38629319.620   155544240.621         365.441          48.000  
E04  24823135.700   130446459.445       -1848.941          46.500    24823138.980    99952477.578       -1418.199          51.000  
E09  23552994.680   123771822.941         546.422          51.000    23552997.340    94838144.051         419.145          52.000  
E24  26839759.040   141043909.801        3092.215          42.500    26839762.760   108072597.777        2367.785          45.750  
E31  23973367.960   125980911.137        1314.293          50.250    23973371.660    96530822.426        1007.840          51.750  
> 2022 12 06 11 45 56.0000000  0 23       0.000000000000
G13  20537632.080   107925984.012        1554.578          52.750                                                                  
G30  21171144.900   111255112.902       -1646.824          53.000    21171147.240    86692306.074       -1283.340          50.250  
G05  21083177.840   110792849.172       -1007.930          53.250    21083178.080    86332087.672        -786.215          48.500  
G07  23497985.520   123482749.449       -2692.949          49.000    23497983.960    96220319.402       -2098.277          40.750  
G15  22345588.940   117426861.289        3058.410          48.750    22345591.540    91501473.762        2380.805          44.750  
G14  20992524.140   110316446.422        1036.500          52.000                                                                  
G20  22140909.180   116351265.090       -3057.922          50.250                                                                  
R02  19163271.500   102258931.742         128.363          57.250    19163277.820    79534718.973         101.102          53.000  
R13  21026608.440   112280940.594        3308.191          45.750    21026613.340    87329619.188        2575.703          43.750  
R12  19148430.420   102287514.633        -164.348          57.000    19148436.340    79556954.418        -128.223          53.750  
R11  21941249.720   117247416.777       -3724.941          52.750    21941256.240    91192418.996       -2897.375          50.750  
R01  21778203.640   116417006.773       -3591.355          48.000    21778212.040    90546583.277       -2793.984          45.500  
R03  21453034.840   114839804.238        3511.195          51.250    21453042.380    89319849.914        2730.754          49.000  
C37  24768040.560   128973683.492        2911.148          47.750                                                                  
C07  38966444.860   202908507.328          71.398          44.750    38966445.860   156901718.070          55.027          46.750  
C23  21899655.260   114037253.965         687.168          54.000                                                                  
C25  22923364.760   119367979.988       -2118.273          52.500                                                                  
C32  22062396.560   114884689.957         577.633          53.750                                                                  
C10  38629226.280   201152508.922         470.695          43.500    38629230.540   155543882.242         363.867          48.000  
E04  24823489.480   130448317.430       -1849.813          46.500    24823492.500    99953901.219       -1417.973          51.250  
E09  23552892.380   123771285.074         545.605          51.000    23552895.000    94837731.914         417.707          52.000  
E24  26839171.760   141040825.555        3094.629          42.500    26839175.740   108070234.508        2369.895          45.750  
E31  23973119.600   125979605.656        1313.023          50.250    23973123.200    96529822.113        1006.238          52.000  
> 2022 12 06 11 45 57.0000000  0 23       0.000000000000
G13  20537337.780   107924437.348        1553.355          52.750                                                                  
G30  21171459.660   111256767.555       -1647.910          53.250    21171462.140    86693595.422       -1283.941          50.500  
G05  21083371.040   110793865.422       -1009.125          53.000    21083371.400    86332879.555        -786.715          48.500  
G07  23498499.600   123485449.703       -2692.840          49.000    23498497.840    96222423.480       -2098.504          40.750  
G15  22345008.260   117423812.023        3055.680          48.750    22345011.100    91499097.723        2381.023          45.000  
G14  20992328.420   110315417.906        1035.707          52.250                                                                  
G20  22141492.640   116354330.738       -3057.953          50.500                                                                  
R02  19163248.980   102258811.344         128.113          57.250    19163255.380    79534625.316          99.148          53.250  
R13  21025990.180   112277638.016        3310.098          45.500    21025994.500    87327050.488        2574.125          43.750  
R12  19148462.440   102287686.820        -165.676          57.000    19148468.740    79557088.344        -128.188          53.750  
R11  21941948.120   117251149.148       -3725.156          52.750    21941954.640    91195321.938       -2897.383          50.750  
R01  21778876.600   116420604.270       -3589.320          48.250    21778885.860    90549381.336       -2794.078          45.500  
R03  21452380.240   114836301.129        3510.223          51.250    21452388.120    89317125.281        2730.012          49.250  
C37  24767482.880   128970780.293        2907.879          47.750                                                                  
C07  38966432.520   202908443.473          72.098          44.750    38966433.520   156901668.680          55.039          46.750  
C23  21899524.700   114036574.402         686.977          54.000                                                                  
C25  22923772.820   119370105.250       -2118.543          52.500                                                                  
C32  22062287.140   114884120.242         576.613          54.000                                                                  
C10  38629137.260   201152045.223         470.680          43.250    38629141.480   155543523.691         363.770          48.000  
E04  24823843.060   130450175.258       -1851.102          46.500    24823846.020    99955324.758       -1418.738          51.250  
E09  23552790.080   123770747.117         545.520          51.000    23552792.620    94837319.715         418.527          52.000  
E24  26838585.280   141037741.031        3092.215          42.750    26838588.840   108067871.070        2368.664          45.750  
E31  23972871.180   125978300.227        1312.543          50.250    23972874.820    96528821.852        1005.461          52.000  
> 2022 12 06 11 45 58.0000000  0 23       0.000000000000
G13  20537043.480   107922891.184        1553.387          52.750                                                                  
G30  21171774.680   111258422.676       -1647.430          53.250    21171777.060    86694885.121       -1283.824          50.250  
G05  21083564.380   110794882.496       -1008.961          53.000    21083564.760    86333672.086        -788.137          48.500  
G07  23499013.620   123488150.199       -2691.719          49.250    23499011.800    96224527.777       -2095.695          40.750  
G15  22344427.980   117420763.168        3055.844          48.750    22344430.860    91496721.980        2380.520          44.750  
G14  20992132.780   110314390.180        1035.660          52.250                                                                  
G20  22142076.200   116357396.895       -3059.223          50.750                                                                  
R02  19163226.620   102258691.805         126.863          57.250    19163233.280    79534532.352          99.641          53.250  
R13  21025370.620   112274336.086        3308.516          45.750    21025374.980    87324482.320        2575.211          44.000  
R12  19148495.160   102287859.914        -166.066          57.000    19148500.980    79557222.973        -128.289          53.750  
R11  21942646.880   117254881.914       -3725.902          53.250    21942653.320    91198225.203       -2896.684          50.750  
R01  21779550.040   116424202.328       -3590.230          48.250    21779559.400    90552179.816       -2791.914          45.750  
R03  21451725.560   114832798.465        3510.730          51.500    21451734.260    89314400.984        2730.051          49.250  
C37  24766925.420   128967877.453        2909.754          47.750                                                                  
C07  38966420.540   202908379.918          71.473          44.750    38966421.680   156901619.543          54.793          46.750  
C23  21899394.400   114035895.438         685.750          54.000                                                                  
C25  22924181.020   119372230.945       -2118.848          52.500                                                                  
C32  22062177.840   114883551.180         576.688          54.000                                                                  
C10  38629048.580   201151581.863         470.719          43.250    38629052.620   155543165.371         365.219          47.750  
E04  24824196.660   130452033.477       -1850.961          46.500    24824199.640    99956748.594       -1417.133          51.000  
E09  23552687.800   123770209.574         545.734          51.000    23552690.340    94836907.836         417.375          52.000  
E24  26837998.040   141034656.816        3091.609          42.750    26838001.940   108065507.828        2367.953          45.750  
E31  23972622.880   125976995.375        1312.469          50.250    23972626.500    96527822.027        1005.395          51.750  
> 2022 12 06 11 45 59.0000000  0 23       0.000000000000
G13  20536747.700   107921337.523        1553.871          52.750                                                                  
G30  21172088.240   111260070.254       -1648.586          53.500    21172090.520    86696168.949       -1283.852          50.250  
G05  21083756.420   110795892.387       -1010.664          53.000    21083756.840    86334459.012        -787.703          48.500  
G07  23499526.240   123490842.934       -2693.000          49.500    23499524.420    96226626.004       -2098.633          40.500  
G15  22343846.200   117417706.691        3056.375          49.000    22343849.040    91494340.328        2381.039          44.750  
G14  20991935.960   110313355.219        1035.113          52.500                                                                  
G20  22142658.400   116360455.570       -3058.301          50.750                                                                  
R02  19163203.120   102258565.066         126.195          57.500    19163209.680    79534433.773          98.727          53.250  
R13  21024750.740   112271026.668        3309.934          46.000    21024756.140    87321908.336        2573.574          44.000  
R12  19148526.100   102288025.797        -166.016          57.250    19148532.320    79557351.992        -129.426          53.750  
R11  21943344.160   117258606.945       -3724.820          53.250    21943350.120    91201122.434       -2897.035          50.500  
R01  21780221.920   116427792.777       -3591.293          48.500    21780231.360    90554972.387       -2789.941          46.000  
R03  21451069.920   114829288.070        3510.070          51.500    21451078.600    89311670.684        2730.926          49.250  
C37  24766366.400   128964967.035        2910.793          47.500                                                                  
C07  38966406.980   202908308.742          71.613          44.500    38966407.980   156901564.504          54.984          46.750  
C23  21899262.580   114035209.145         685.461          53.750                                                                  
C25  22924587.540   119374349.125       -2119.055          52.250                                                                  
C32  22062067.240   114882974.832         576.168          53.750                                                                  
C10  38628958.080   201151110.855         469.969          43.000    38628962.160   155542801.164         364.031          47.500  
E04  24824548.680   130453884.074       -1850.605          46.500    24824551.800    99958166.570       -1417.738          51.000  
E09  23552584.100   123769664.457         544.406          51.000    23552586.580    94836490.145         416.543          52.000  
E24  26837410.180   141031564.898        3092.176          43.000    26837413.600   108063138.691        2368.242          45.750  
E31  23972373.120   125975683.098        1312.063          50.250    23972376.820    96526816.527        1004.797          51.750  
> 2022 12 06 11 46 00.0000000  0 23       0.000000000000
G13  20536453.560   107919791.961        1553.043          52.500                                                                  
G30  21172403.320   111261725.895       -1647.727          53.000    21172405.580    86697459.055       -1283.332          50.250  
G05  21083950.180   110796910.691       -1010.148          52.750    21083950.560    86335252.496        -787.047          48.500  
G07  23500040.120   123493543.520       -2691.363          49.250    23500038.260    96228730.352       -2096.332          40.750  
G15  22343266.040   117414658.188        3055.551          48.500    22343268.960    91491964.875        2381.262          45.000  
G14  20991740.500   110312328.637        1035.730          52.000                                                                  
G20  22143241.920   116363522.344       -3058.746          50.500                                                                  
R02  19163180.740   102258446.973         126.316          57.500    19163187.180    79534341.926          97.934          53.250  
R13  21024133.300   112267725.609        3312.031          46.000    21024138.740    87319340.840        2574.105          44.000  
R12  19148558.520   102288200.313        -166.227          57.250    19148564.840    79557487.727        -129.492          54.000  
R11  21944042.740   117262340.086       -3725.207          53.500    21944048.820    91204026.000       -2896.816          50.750  
R01  21780894.700   116431391.480       -3591.430          49.000    21780904.880    90557771.383       -2792.387          46.000  
R03  21450415.420   114825785.824        3510.324          51.750    21450424.320    89308946.715        2730.422          49.500  
C37  24765808.840   128962064.508        2910.164          47.500                                                                  
C07  38966394.460   202908245.391          70.793          44.500    38966395.940   156901515.527          56.527          46.750  
C23  21899132.380   114034530.957         685.672          54.000                                                                  
C25  22924995.980   119376475.266       -2117.906          52.500                                                                  
C32  22061958.240   114882406.648         576.480          54.000                                                                  
C10  38628868.820   201150647.695         469.832          43.250    38628873.360   155542443.031         364.520          47.750  
E04  24824902.400   130455742.633       -1849.535          46.500    24824905.440    99959590.660       -1417.102          51.000  
E09  23552481.840   123769127.344         545.871          51.000    23552484.400    94836078.590         418.480          52.000  
E24  26836823.180   141028480.844        3091.457          43.000    26836826.700   108060775.590        2368.805          45.750  
E31  23972125.020   125974379.008        1312.723          50.250    23972128.660    96525817.293        1005.484          52.000  
> 2022 12 06 11 46 01.0000000  0 23       0.000000000000
G13  20536159.400   107918245.820        1553.961          52.250                                                                  
G30  21172718.240   111263380.941       -1646.195          53.000    21172720.480    86698748.688       -1284.043          50.500  
G05  21084143.740   110797928.738       -1009.699          52.500    21084144.340    86336045.781        -786.902          48.500  
G07  23500553.800   123496243.262       -2690.898          49.000    23500552.160    96230834.035       -2098.867          40.750  
G15  22342685.840   117411609.020        3056.684          48.500    22342688.640    91489588.895        2381.758          44.750  
G14  20991545.060   110311301.770        1035.363          52.000                                                                  
G20  22143825.460   116366588.555       -3058.570          50.500                                                                  
R02  19163158.660   102258328.664         126.254          57.500    19163165.280    79534249.910          98.961          53.500  
R13  21023514.960   112264424.086        3307.598          46.000    21023521.300    87316772.996        2573.867          43.750  
R12  19148590.780   102288374.684        -166.266          57.000    19148597.580    79557623.359        -128.879          54.000  
R11  21944741.300   117266072.582       -3724.633          53.250    21944746.860    91206929.051       -2896.313          50.750  
R01  21781568.180   116434989.617       -3588.980          48.750    21781577.900    90560569.945       -2791.121          46.250  
R03  21449761.060   114822282.906        3510.977          51.500    21449770.440    89306222.234        2729.961          49.500  
C37  24765251.360   128959161.273        2911.383          47.750                                                                  
C07  38966382.120   202908181.324          73.430          44.750    38966383.580   156901465.980          55.766          46.750  
C23  21899002.020   114033852.305         686.402          54.250                                                                  
C25  22925404.240   119378600.762       -2117.613          52.500                                                                  
C32  22061849.060   114881838.059         577.195          54.000                                                                  
C10  38628779.800   201150183.781         472.266          43.500    38628784.280   155542084.285         364.211          47.750  
E04  24825256.060   130457600.516       -1848.820          47.000    24825258.980    99961014.230       -1416.961          51.000  
E09  23552379.660   123768589.590         545.902          51.000    23552382.080    94835666.551         418.809          52.250  
E24  26836235.960   141025396.000        3093.664          42.750    26836239.620   108058411.883        2368.848          45.750  
E31  23971876.980   125973074.422        1311.832          50.250    23971880.420    96524817.664        1005.023          52.000  
> 2022 12 06 11 46 02.0000000  0 23       0.000000000000
G13  20535865.140   107916699.504        1555.273          52.500                                                                  
G30  21173033.220   111265035.750       -1646.066          53.000    21173035.420    86700038.164       -1282.656          50.500  
G05  21084337.540   110798946.914       -1010.730          52.750    21084337.900    86336839.168        -785.645          48.250  
G07  23501067.280   123498942.547       -2692.453          48.750    23501065.560    96232937.414       -2096.113          40.250  
G15  22342105.460   117408559.539        3056.762          48.500    22342108.240    91487212.676        2383.016          45.000  
G14  20991349.560   110310274.992        1035.285          52.250                                                                  
G20  22144408.860   116369654.594       -3056.824          50.500                                                                  
R02  19163136.800   102258210.492         126.805          57.500    19163142.800    79534158.004          99.281          53.000  
R13  21022896.140   112261122.500        3311.840          46.000    21022902.440    87314205.098        2573.895          43.750  
R12  19148623.300   102288549.281        -166.043          57.000    19148630.440    79557759.152        -129.086          53.750  
R11  21945439.580   117269804.758       -3723.586          53.250    21945445.360    91209831.859       -2895.875          50.500  
R01  21782240.860   116438587.609       -3587.930          48.500    21782251.220    90563368.387       -2790.695          46.000  
R03  21449106.480   114818779.727        3512.398          51.500    21449115.680    89303497.547        2730.617          49.000  
C37  24764693.920   128956257.719        2909.875          47.250                                                                  
C07  38966369.320   202908116.848          73.570          43.500    38966371.320   156901416.145          58.922          47.500  
C23  21898871.800   114033173.555         687.508          53.750                                                                  
C25  22925812.320   119380725.996       -2117.094          52.250                                                                  
C32  22061739.880   114881269.434         576.992          53.500                                                                  
C10  38628690.400   201149719.449         472.672          42.750    38628695.220   155541725.266         365.270          48.500  
E04  24825609.640   130459458.051       -1848.883          47.000    24825612.380    99962437.547       -1416.684          51.000  
E09  23552277.240   123768051.566         546.418          51.000    23552279.680    94835254.293         419.070          52.250  
E24  26835648.900   141022310.758        3095.637          42.750    26835652.340   108056047.875        2371.453          45.750  
E31  23971628.760   125971769.730        1313.340          50.250    23971632.100    96523817.977        1006.426          52.000  
> 2022 12 06 11 46 03.0000000  0 23       0.000000000000
G13  20535571.040   107915153.141        1554.465          52.750                                                                  
G30  21173348.360   111266690.480       -1646.012          53.250    21173350.240    86701327.559       -1282.418          50.500  
G05  21084531.260   110799965.348       -1010.203          52.750    21084531.640    86337632.750        -786.441          48.500  
G07  23501580.840   123501641.543       -2690.996          48.750    23501578.540    96235040.488       -2097.582          40.500  
G15  22341525.140   117405509.902        3059.074          48.500    22341527.980    91484836.340        2382.758          44.750  
G14  20991154.060   110309248.430        1036.090          52.000                                                                  
G20  22144992.340   116372720.582       -3057.137          50.500                                                                  
R02  19163114.540   102258092.625         126.879          57.500    19163120.720    79534066.324          98.105          53.250  
R13  21022278.260   112257821.016        3309.539          45.750    21022284.180    87311637.277        2573.234          43.750  
R12  19148656.000   102288724.199        -165.926          56.750    19148663.240    79557895.207        -129.539          53.750  
R11  21946138.160   117273536.793       -3723.457          52.750    21946143.940    91212734.535       -2894.926          50.500  
R01  21782914.260   116442185.574       -3587.566          48.250    21782923.640    90566166.813       -2791.758          45.500  
R03  21448452.140   114815276.426        3512.465          51.750    21448460.940    89300772.758        2732.383          49.000  
C37  24764136.100   128953353.965        2913.969          47.250                                                                  
C07  38966356.840   202908052.125          73.711          43.250    38966359.000   156901366.086          55.758          47.500  
C23  21898741.560   114032494.848         687.594          53.750                                                                  
C25  22926220.540   119382851.102       -2115.914          52.250                                                                  
C32  22061630.720   114880700.898         577.469          53.250                                                                  
C10  38628601.140   201149254.918         473.676          43.250    38628606.100   155541366.035         365.883          48.750  
E04  24825962.820   130461315.445       -1848.266          46.500    24825965.960    99963860.734       -1415.449          51.500  
E09  23552174.980   123767513.395         547.176          51.250    23552177.260    94834841.930         418.758          52.250  
E24  26835062.000   141019225.242        3095.164          42.750    26835065.160   108053683.648        2370.086          45.750  
E31  23971380.440   125970465.051        1313.613          50.250    23971383.800    96522818.285        1007.375          52.250  
> 2022 12 06 11 46 04.0000000  0 23       0.000000000000
G13  20535276.740   107913606.676        1556.125          53.000                                                                  
G30  21173663.300   111268345.066       -1646.117          53.750    21173665.100    86702616.852       -1282.125          50.500  
G05  21084725.020   110800983.996       -1009.402          53.000    21084725.380    86338426.508        -788.078          48.250  
G07  23502094.360   123504340.180       -2689.094          49.000    23502092.160    96237143.332       -2096.094          40.250  
G15  22340944.540   117402460.070        3059.598          49.000    22340947.660    91482459.844        2383.742          45.000  
G14  20990958.800   110308222.066        1035.707          52.250                                                                  
G20  22145575.740   116375786.504       -3058.051          51.250                                                                  
R02  19163092.520   102257975.043         126.531          57.500    19163098.500    79533974.859          97.691          53.250  
R13  21021660.060   112254519.559        3309.371          45.750    21021665.480    87309069.492        2575.273          43.500  
R12  19148689.020   102288899.445        -165.656          57.000    19148696.120    79558031.504        -129.441          54.000  
R11  21946836.400   117277268.598       -3722.578          53.000    21946841.860    91215637.035       -2894.156          50.250  
R01  21783587.600   116445783.488       -3588.137          48.500    21783597.080    90568965.180       -2791.902          46.000  
R03  21447797.760   114811772.957        3512.797          51.500    21447806.160    89298047.840        2731.676          48.750  
C37  24763578.320   128950449.980        2913.371          47.250                                                                  
C07  38966344.340   202907987.133          74.262          43.250    38966346.580   156901315.848          56.883          46.750  
C23  21898611.180   114031816.152         687.504          53.750                                                                  
C25  22926628.620   119384976.070       -2116.484          52.000                                                                  
C32  22061521.460   114880132.434         577.227          53.500                                                                  
C10  38628511.580   201148790.059         474.172          42.750    38628516.840   155541006.586         365.516          48.750  
E04  24826316.240   130463172.586       -1846.184          46.500    24826319.420    99965283.738       -1415.473          51.500  
E09  23552072.560   123766975.063         546.852          51.250    23552074.760    94834429.434         419.301          52.250  
E24  26834474.980   141016139.410        3094.953          43.000    26834478.000   108051319.168        2371.461          46.000  
E31  23971132.160   125969160.359        1313.855          50.250    23971135.600    96521818.594        1007.160          52.250  
> 2022 12 06 11 46 05.0000000  0 23       0.000000000000
G13  20534982.540   107912060.594        1556.480          53.000                                                                  
G30  21173978.340   111269999.973       -1644.660          53.500    21173979.840    86703906.387       -1281.023          50.250  
G05  21084918.880   110802003.332       -1008.527          53.000    21084919.580    86339220.777        -785.781          48.500  
G07  23502607.760   123507038.941       -2688.617          48.750    23502605.880    96239246.250       -2093.973          41.250  
G15  22340364.300   117399410.492        3059.688          48.750    22340367.380    91480083.539        2383.211          45.000  
G14  20990763.500   110307196.332        1035.203          52.250                                                                  
G20  22146159.240   116378852.785       -3056.219          51.000                                                                  
R02  19163070.720   102257858.215         126.711          57.500    19163076.320    79533884.004          99.230          53.250  
R13  21021041.660   112251218.617        3312.656          45.750    21021046.400    87306502.078        2575.242          43.500  
R12  19148721.780   102289075.484        -166.484          56.750    19148728.780    79558168.426        -128.988          53.750  
R11  21947534.860   117281000.656       -3720.316          53.000    21947539.760    91218539.770       -2893.750          50.000  
R01  21784261.080   116449381.836       -3587.988          48.750    21784270.400    90571763.895       -2791.531          45.750  
R03  21447143.360   114808269.805        3514.121          51.750    21447151.200    89295323.156        2733.051          48.750  
C37  24763020.600   128947546.223        2913.387          47.000                                                                  
C07  38966331.720   202907922.324          74.445          43.250    38966334.280   156901265.715          58.734          47.500  
C23  21898480.840   114031137.898         688.266          53.750                                                                  
C25  22927036.800   119387101.297       -2115.504          52.250                                                                  
C32  22061412.360   114879564.461         577.910          53.500                                                                  
C10  38628422.460   201148325.395         474.594          43.000    38628427.760   155540647.258         367.301          48.500  
E04  24826669.760   130465029.973       -1846.762          46.750    24826672.820    99966706.934       -1415.770          51.250  
E09  23551970.120   123766436.996         548.141          51.250    23551972.340    94834017.160         420.625          52.250  
E24  26833887.600   141013053.750        3096.586          42.750    26833890.780   108048954.848        2371.535          46.000  
E31  23970884.060   125967856.102        1314.805          50.500    23970887.440    96520819.219        1006.590          52.250  
> 2022 12 06 11 46 06.0000000  0 23       0.000000000000
G13  20534688.360   107910514.504        1555.723          53.250                                                                  
G30  21174293.380   111271654.852       -1644.336          54.000    21174294.640    86705195.902       -1281.723          50.250  
G05  21085112.820   110803022.965       -1009.535          53.000    21085113.600    86340015.309        -786.129          48.500  
G07  23503121.200   123509737.406       -2687.137          48.750    23503119.780    96241348.941       -2092.906          41.000  
G15  22339784.000   117396360.781        3060.285          49.000    22339786.660    91477707.156        2385.070          45.000  
G14  20990568.220   110306170.879        1036.473          52.500                                                                  
G20  22146742.880   116381919.078       -3056.832          51.250                                                                  
R02  19163049.200   102257741.762         126.563          57.500    19163054.480    79533793.422          98.914          53.250  
R13  21020423.600   112247917.777        3310.953          45.500    21020428.400    87303934.770        2575.406          43.250  
R12  19148755.160   102289251.949        -165.555          57.000    19148761.660    79558305.672        -129.602          53.750  
R11  21948233.100   117284732.637       -3720.777          53.000    21948237.980    91221442.418       -2895.883          49.750  
R01  21784934.320   116452980.180       -3588.898          48.500    21784943.340    90574562.625       -2789.391          45.500  
R03  21446489.220   114804766.551        3514.313          51.750    21446496.980    89292598.402        2733.742          48.750  
C37  24762463.020   128944642.324        2913.266          46.750                                                                  
C07  38966319.340   202907857.309          76.664          43.500    38966321.780   156901215.438          57.762          47.500  
C23  21898350.580   114030459.738         688.359          53.500                                                                  
C25  22927444.840   119389226.465       -2114.461          52.000                                                                  
C32  22061303.260   114878996.641         578.738          53.250                                                                  
C10  38628333.200   201147860.492         474.938          42.500    38628338.340   155540287.777         367.113          48.750  
E04  24827023.480   130466887.215       -1846.426          46.750    24827026.300    99968130.023       -1415.410          51.750  
E09  23551867.740   123765898.859         549.414          51.250    23551869.960    94833604.813         420.637          52.250  
E24  26833300.640   141009967.840        3093.359          43.000    26833303.640   108046590.324        2373.480          46.000  
E31  23970635.760   125966551.922        1313.520          50.250    23970639.260    96519819.922        1007.926          52.250  
> 2022 12 06 11 46 07.0000000  0 23       0.000000000000
G13  20534394.420   107908969.348        1556.648          53.500                                                                  
G30  21174608.660   111273310.637       -1643.930          53.750    21174609.640    86706486.125       -1281.363          50.250  
G05  21085306.980   110804043.875       -1009.301          53.000    21085307.920    86340810.809        -786.410          48.250  
G07  23503634.900   123512436.566       -2687.930          49.250    23503633.140    96243452.188       -2095.371          41.250  
G15  22339203.880   117393311.918        3059.898          49.250    22339206.540    91475331.406        2385.184          45.000  
G14  20990373.360   110305146.637        1034.980          52.500                                                                  
G20  22147326.580   116384986.324       -3057.434          51.250                                                                  
R02  19163027.720   102257626.605         126.336          57.500    19163033.060    79533703.859          98.000          53.250  
R13  21019805.200   112244618.066        3310.723          45.000    21019810.780    87301368.313        2575.176          43.000  
R12  19148788.740   102289429.766        -166.316          56.750    19148795.040    79558443.977        -129.035          53.750  
R11  21948931.480   117288465.453       -3720.859          52.500    21948936.860    91224345.703       -2893.973          49.750  
R01  21785607.260   116456579.531       -3587.109          48.500    21785616.800    90577362.113       -2792.211          45.750  
R03  21445834.940   114801264.141        3513.805          51.250    21445842.440    89289874.324        2732.559          49.000  
C37  24761905.460   128941739.234        2913.113          47.250                                                                  
C07  38966306.760   202907793.023          75.613          43.250    38966309.400   156901165.730          57.949          46.750  
C23  21898220.480   114029782.609         689.078          53.750                                                                  
C25  22927852.820   119391352.473       -2114.875          52.000                                                                  
C32  22061194.360   114878429.914         577.863          53.500                                                                  
C10  38628243.960   201147396.320         475.195          43.000    38628249.180   155539928.848         367.598          49.000  
E04  24827376.940   130468745.305       -1847.672          46.500    24827379.900    99969553.754       -1414.363          51.750  
E09  23551765.420   123765361.578         548.918          51.250    23551767.740    94833193.129         420.172          52.250  
E24  26832713.120   141006882.695        3097.766          42.750    26832716.480   108044226.371        2373.125          46.000  
E31  23970387.660   125965248.773        1314.070          50.250    23970391.280    96518821.391        1006.563          52.250  
> 2022 12 06 11 46 08.0000000  0 23       0.000000000000
G13  20534100.280   107907423.914        1557.414          53.250                                                                  
G30  21174923.540   111274966.098       -1643.961          53.750    21174924.700    86707776.086       -1281.727          50.250  
G05  21085501.140   110805064.781       -1009.770          52.500    21085502.100    86341606.328        -787.047          48.500  
G07  23504148.620   123515135.160       -2687.914          49.000    23504147.080    96245554.984       -2095.836          41.250  
G15  22338623.920   117390262.648        3059.906          49.250    22338626.580    91472955.359        2385.137          45.500  
G14  20990178.380   110304122.387        1034.340          52.250                                                                  
G20  22147910.300   116388053.262       -3057.332          51.000                                                                  
R02  19163006.380   102257511.512         126.141          57.500    19163011.340    79533614.340          97.918          53.000  
R13  21019187.480   112241318.223        3310.645          45.000    21019193.020    87298801.766        2574.484          43.500  
R12  19148822.100   102289607.676        -166.531          56.750    19148828.280    79558582.348        -130.074          54.000  
R11  21949629.680   117292197.863       -3720.453          52.750    21949635.000    91227248.688       -2894.848          50.250  
R01  21786280.780   116460178.609       -3587.582          48.000    21786290.840    90580161.402       -2790.707          46.250  
R03  21445180.380   114797761.355        3513.684          51.500    21445188.480    89287149.922        2732.734          49.000  
C37  24761347.820   128938835.691        2914.367          46.750                                                                  
C07  38966294.140   202907728.277          74.695          42.500    38966296.960   156901115.668          58.766          46.750  
C23  21898090.380   114029105.273         687.707          53.500                                                                  
C25  22928261.220   119393478.137       -2114.461          51.750                                                                  
C32  22061085.380   114877863.031         577.207          53.250                                                                  
C10  38628154.580   201146931.684         477.363          42.500    38628159.880   155539569.574         366.777          48.500  
E04  24827730.900   130470602.969       -1846.402          47.000    24827733.500    99970977.145       -1414.340          51.750  
E09  23551663.140   123764823.914         548.402          51.000    23551665.480    94832781.156         419.660          52.500  
E24  26832126.120   141003797.012        3095.934          42.750    26832129.220   108041862.023        2373.668          45.750  
E31  23970139.720   125963945.398        1313.898          50.500    23970143.240    96517822.703        1007.684          52.000  
> 2022 12 06 11 46 09.0000000  0 23       0.000000000000
G13  20533806.200   107905878.535        1557.809          53.500                                                                  
G30  21175238.580   111276621.559       -1643.590          53.750    21175239.460    86709066.066       -1281.234          50.250  
G05  21085695.680   110806086.094       -1010.918          53.000    21085696.480    86342402.145        -786.879          48.500  
G07  23504662.520   123517833.559       -2687.508          49.500    23504660.820    96247657.641       -2093.543          42.000  
G15  22338043.500   117387213.324        3060.230          49.000    22338046.060    91470579.254        2383.039          45.000  
G14  20989983.540   110303098.480        1035.590          52.250                                                                  
G20  22148494.020   116391120.281       -3054.926          51.000                                                                  
R02  19162985.000   102257396.875         126.281          57.500    19162989.680    79533525.180          97.902          53.000  
R13  21018569.000   112238018.594        3310.008          45.000    21018574.840    87296235.379        2573.855          43.500  
R12  19148855.540   102289786.074        -167.219          56.750    19148861.400    79558721.102        -130.098          53.750  
R11  21950327.880   117295930.230       -3720.781          52.750    21950332.780    91230151.664       -2894.184          50.000  
R01  21786954.000   116463777.805       -3588.164          48.000    21786963.140    90582960.773       -2790.605          46.250  
R03  21444525.940   114794258.555        3514.137          51.250    21444534.760    89284425.520        2732.902          49.250  
C37  24760790.160   128935932.078        2914.895          47.000                                                                  
C07  38966282.240   202907663.418          74.195          42.750    38966284.480   156901065.496          58.266          46.250  
C23  21897960.320   114028428.125         688.879          53.500                                                                  
C25  22928669.480   119395603.793       -2114.672          51.750                                                                  
C32  22060976.620   114877296.379         577.645          53.250                                                                  
C10  38628065.340   201146466.926         474.910          43.000    38628070.540   155539210.188         366.996          48.250  
E04  24828084.140   130472460.559       -1846.426          46.750    24828087.000    99972400.492       -1415.160          51.500  
E09  23551560.720   123764286.246         548.668          51.250    23551563.160    94832369.176         421.055          52.250  
E24  26831538.800   141000711.156        3097.262          42.750    26831542.020   108039497.539        2372.691          45.750  
E31  23969891.680   125962642.160        1313.434          50.500    23969895.260    96516824.125        1005.434          51.750  
> 2022 12 06 11 46 10.0000000  0 23       0.000000000000
G13  20533509.960   107904321.840        1555.563          53.250                                                                  
G30  21175551.440   111278265.672       -1644.699          53.750    21175552.200    86710347.176       -1281.109          50.000  
G05  21085887.800   110807096.355       -1010.734          53.000    21085888.820    86343189.367        -787.219          48.500  
G07  23505174.000   123520520.352       -2687.879          49.000    23505172.600    96249751.285       -2093.871          42.250  
G15  22337460.800   117384152.566        3059.934          48.750    22337463.360    91468194.258        2384.438          45.000  
G14  20989786.500   110302063.516        1034.328          51.750                                                                  
G20  22149075.560   116394175.969       -3056.051          51.000                                                                  
R02  19162961.460   102257271.094         125.383          57.500    19162965.680    79533427.344          98.328          53.000  
R13  21017948.800   112234707.555        3310.941          45.000    21017954.620    87293660.160        2574.941          43.500  
R12  19148886.880   102289953.352        -167.348          56.750    19148892.360    79558851.207        -131.367          54.000  
R11  21951024.300   117299650.965       -3720.805          52.500    21951028.880    91233045.555       -2894.238          50.000  
R01  21787624.140   116467365.496       -3588.168          48.000    21787634.520    90585751.195       -2791.277          46.500  
R03  21443869.140   114790744.117        3513.594          51.250    21443878.540    89281692.082        2732.082          49.250  
C37  24760230.400   128933017.109        2913.383          47.250                                                                  
C07  38966267.680   202907587.117          75.949          43.500    38966270.100   156901006.504          59.711          46.500  
C23  21897828.100   114027739.809         687.938          53.750                                                                  
C25  22929075.740   119397718.141       -2115.105          52.250                                                                  
C32  22060865.640   114876718.617         577.707          53.500                                                                  
C10  38627973.560   201145990.723         476.844          42.500    38627979.000   155538841.969         366.926          47.750  
E04  24828435.480   130474306.699       -1847.445          47.000    24828438.320    99973815.066       -1414.371          51.250  
E09  23551456.340   123763737.152         548.777          51.250    23551458.600    94831948.445         420.328          52.000  
E24  26830949.680   140997613.793        3096.250          42.750    26830952.620   108037124.242        2372.465          45.500  
E31  23969641.480   125961327.664        1313.922          50.500    23969645.080    96515816.914        1007.723          51.500  
> 2022 12 06 11 46 11.0000000  0 23       0.000000000000
G13  20533216.140   107902777.219        1556.004          53.250                                                                  
G30  21175866.680   111279921.816       -1644.289          53.750    21175867.320    86711637.680       -1281.133          50.000  
G05  21086082.480   110808119.031       -1010.840          53.000    21086083.540    86343986.262        -786.746          48.750  
G07  23505687.720   123523219.004       -2685.758          49.500    23505685.640    96251854.098       -2094.285          42.250  
G15  22336880.520   117381103.773        3062.145          48.750    22336883.120    91465818.590        2385.176          45.250  
G14  20989592.000   110301040.914        1033.773          52.000                                                                  
G20  22149659.260   116397243.762       -3056.543          51.000                                                                  
R02  19162940.220   102257157.961         124.953          58.000    19162944.340    79533339.359          97.141          53.000  
R13  21017330.820   112231408.934        3311.109          45.500    21017336.680    87291094.566        2576.945          43.250  
R12  19148920.580   102290133.336        -168.223          57.250    19148926.220    79558991.195        -130.867          53.750  
R11  21951722.660   117303383.910       -3720.547          53.250    21951727.360    91235948.926       -2894.844          50.000  
R01  21788297.860   116470965.531       -3588.000          48.250    21788308.660    90588551.211       -2789.949          46.500  
R03  21443214.280   114787241.953        3514.355          51.250    21443223.760    89278968.172        2733.926          49.250  
C37  24759672.920   128930113.953        2914.637          47.000                                                                  
C07  38966255.080   202907522.594          76.980          43.250    38966257.820   156900956.613          59.074          46.750  
C23  21897698.220   114027063.578         688.566          53.750                                                                  
C25  22929484.060   119399844.398       -2114.254          52.500                                                                  
C32  22060757.020   114876153.004         577.359          53.500                                                                  
C10  38627884.540   201145526.348         476.715          42.500    38627889.840   155538482.859         369.020          47.750  
E04  24828788.960   130476164.781       -1846.227          47.000    24828791.900    99975238.793       -1413.742          51.000  
E09  23551354.140   123763200.059         549.191          51.250    23551356.380    94831536.906         420.098          51.750  
E24  26830362.500   140994528.285        3098.598          43.000    26830365.480   108034760.016        2374.539          45.500  
E31  23969393.520   125960025.340        1314.133          50.500    23969397.280    96514819.023        1006.871          51.500  
> 2022 12 06 11 46 12.0000000  0 23       0.000000000000
G13  20532922.540   107901233.340        1555.906          53.500                                                                  
G30  21176181.880   111281578.680       -1644.418          53.750    21176182.520    86712928.742       -1280.949          49.750  
G05  21086277.480   110809142.770       -1012.328          53.000    21086278.440    86344783.973        -788.602          48.500  
G07  23506201.300   123525918.109       -2685.934          49.250    23506199.200    96253957.316       -2093.910          41.750  
G15  22336300.700   117378055.613        3059.906          49.000    22336302.900    91463443.410        2384.934          44.750  
G14  20989397.580   110300019.328        1033.586          52.000                                                                  
G20  22150243.140   116400312.289       -3055.988          51.000                                                                  
R02  19162919.160   102257045.957         123.887          57.750    19162923.540    79533252.242          96.984          52.500  
R13  21016713.680   112228111.203        3307.488          45.500    21016718.300    87288529.652        2575.152          42.750  
R12  19148954.300   102290314.449        -168.570          57.250    19148959.960    79559132.059        -131.559          53.500  
R11  21952421.720   117307117.461       -3721.449          53.250    21952425.700    91238852.828       -2894.758          49.750  
R01  21788971.220   116474566.355       -3588.457          48.000    21788982.300    90591351.848       -2790.938          46.250  
R03  21442560.080   114783740.477        3512.953          51.000    21442569.520    89276244.809        2732.941          49.000  
C37  24759115.200   128927211.402        2915.535          46.750                                                                  
C07  38966242.920   202907458.637          76.961          43.000    38966245.560   156900907.180          57.910          47.000  
C23  21897568.500   114026388.168         687.582          53.250                                                                  
C25  22929892.520   119401971.309       -2116.863          52.000                                                                  
C32  22060648.600   114875588.270         575.695          53.250                                                                  
C10  38627795.200   201145062.469         474.328          42.000    38627800.620   155538124.168         368.047          48.250  
E04  24829142.660   130478023.488       -1846.148          46.750    24829145.520    99976663.004       -1414.449          51.250  
E09  23551252.020   123762663.629         548.805          51.250    23551254.280    94831125.887         419.680          52.000  
E24  26829775.360   140991443.293        3096.012          43.000    26829778.540   108032396.203        2371.836          45.750  
E31  23969145.980   125958723.816        1313.684          50.500    23969149.560    96513821.773        1006.887          51.750  
> 2022 12 06 11 46 13.0000000  0 23       0.000000000000
G13  20532629.060   107899690.762        1554.066          53.500                                                                  
G30  21176497.500   111283236.789       -1645.270          53.750    21176497.980    86714220.781       -1283.121          49.750  
G05  21086472.800   110810168.105       -1013.375          53.000    21086473.440    86345582.953        -789.117          48.500  
G07  23506715.100   123528618.250       -2686.715          49.250    23506712.980    96256061.320       -2094.594          41.500  
G15  22335720.840   117375008.633        3058.258          49.000    22335723.040    91461069.129        2382.281          44.500  
G14  20989203.360   110298999.313        1030.895          52.000                                                                  
G20  22150827.280   116403382.121       -3056.723          51.000                                                                  
R02  19162898.420   102256935.629         122.828          57.750    19162902.780    79533166.434          94.875          52.500  
R13  21016097.080   112224814.914        3308.648          45.500    21016100.660    87285965.898        2574.035          42.500  
R12  19148988.600   102290497.293        -170.910          57.250    19148994.280    79559274.270        -133.000          53.500  
R11  21953120.520   117310852.227       -3723.039          53.000    21953124.800    91241757.641       -2894.840          49.500  
R01  21789645.560   116478168.520       -3589.891          48.000    21789656.040    90594153.547       -2790.992          46.250  
R03  21441905.840   114780240.277        3512.105          51.000    21441915.860    89273522.422        2732.363          49.000  
C37  24758558.040   128924310.004        2913.250          46.750                                                                  
C07  38966231.000   202907395.773          73.145          43.000    38966233.420   156900858.559          57.480          47.000  
C23  21897439.060   114025714.137         686.871          53.250                                                                  
C25  22930301.180   119404099.434       -2115.863          52.250                                                                  
C32  22060540.360   114875024.969         575.301          53.500                                                                  
C10  38627706.400   201144599.668         475.449          42.000    38627711.880   155537766.324         367.945          48.250  
E04  24829496.600   130479883.363       -1847.297          46.750    24829499.380    99978088.102       -1415.887          51.250  
E09  23551150.340   123762128.410         546.320          51.250    23551152.380    94830715.777         419.078          52.250  
E24  26829188.600   140988359.387        3095.824          43.000    26829191.500   108030033.215        2371.957          46.000  
E31  23968898.560   125957423.684        1311.898          50.500    23968902.120    96512825.563        1004.117          52.000  
> 2022 12 06 11 46 14.0000000  0 23       0.000000000000
G13  20532335.660   107898149.090        1553.453          53.000                                                                  
G30  21176813.020   111284895.758       -1646.457          53.250    21176813.600    86715513.477       -1284.188          49.750  
G05  21086668.120   110811194.652       -1015.281          52.750    21086668.900    86346382.848        -790.441          48.500  
G07  23507229.060   123531319.035       -2687.242          49.000    23507227.400    96258165.828       -2095.824          42.000  
G15  22335141.460   117371962.441        3058.047          48.750    22335143.260    91458695.477        2383.051          44.500  
G14  20989009.360   110297980.480        1030.223          51.500                                                                  
G20  22151411.420   116406452.863       -3059.203          50.500                                                                  
R02  19162877.960   102256826.586         121.609          58.250    19162882.340    79533081.617          94.949          52.500  
R13  21015479.460   112221519.684        3308.859          45.750    21015484.100    87283402.938        2572.473          42.750  
R12  19149023.260   102290681.488        -172.023          57.500    19149028.500    79559417.531        -133.945          53.500  
R11  21953819.700   117314587.816       -3723.914          53.500    21953823.480    91244663.090       -2895.355          49.500  
R01  21790319.400   116481771.645       -3590.852          48.250    21790331.040    90596955.977       -2793.359          46.500  
R03  21441251.860   114776740.883        3512.023          51.000    21441262.220    89270800.688        2731.996          49.250  
C37  24758001.060   128921409.359        2912.840          46.750                                                                  
C07  38966219.060   202907333.602          74.336          43.250    38966221.600   156900810.457          57.336          46.750  
C23  21897309.760   114025041.098         684.918          53.500                                                                  
C25  22930710.140   119406228.367       -2116.375          52.250                                                                  
C32  22060432.320   114874462.707         573.617          53.500                                                                  
C10  38627617.720   201144137.594         473.219          42.500    38627623.060   155537408.992         367.016          47.750  
E04  24829850.660   130481744.008       -1850.250          46.750    24829853.540    99979513.777       -1416.172          51.250  
E09  23551048.560   123761594.012         546.953          51.250    23551050.700    94830306.289         418.574          52.000  
E24  26828601.900   140985276.156        3095.141          43.000    26828604.760   108027670.723        2373.176          45.750  
E31  23968651.480   125956124.512        1311.090          50.500    23968654.920    96511830.078        1003.691          51.750  
> 2022 12 06 11 46 15.0000000  0 23       0.000000000000
G13  20532042.580   107896608.250        1552.863          53.000                                                                  
G30  21177128.780   111286555.535       -1647.395          53.000    21177129.420    86716806.805       -1284.215          49.750  
G05  21086863.640   110812222.363       -1014.750          52.750    21086864.560    86347183.652        -792.109          48.500  
G07  23507743.040   123534020.391       -2688.820          48.750    23507741.480    96260270.777       -2094.910          42.000  
G15  22334562.260   117368916.977        3057.688          48.750    22334563.740    91456322.395        2382.590          44.500  
G14  20988815.700   110296962.754        1029.219          51.250                                                                  
G20  22151995.820   116409524.441       -3058.875          50.500                                                                  
R02  19162857.880   102256718.754         119.730          57.750    19162862.100    79532997.746          93.152          52.750  
R13  21014863.240   112218225.418        3304.340          45.750    21014867.920    87280840.723        2570.559          42.750  
R12  19149057.780   102290866.953        -173.559          57.000    19149063.220    79559561.781        -135.066          53.500  
R11  21954518.860   117318324.137       -3724.035          53.250    21954522.740    91247569.113       -2897.215          49.500  
R01  21790993.400   116485375.637       -3591.012          48.000    21791005.700    90599759.070       -2795.094          46.750  
R03  21440598.120   114773242.227        3510.426          50.750    21440608.620    89268079.512        2730.719          49.250  
C37  24757443.980   128918509.402        2912.418          46.750                                                                  
C07  38966207.320   202907272.066          74.859          43.000    38966209.660   156900762.879          58.754          46.750  
C23  21897180.660   114024368.973         683.582          53.250                                                                  
C25  22931118.960   119408358.047       -2117.676          52.000                                                                  
C32  22060324.500   114873901.418         573.027          53.250                                                                  
C10  38627529.200   201143676.121         472.715          42.250    38627534.300   155537052.148         366.730          47.750  
E04  24830204.800   130483605.371       -1849.012          47.000    24830207.840    99980940.004       -1417.863          51.250  
E09  23550947.020   123761060.367         545.105          51.250    23550949.180    94829897.387         418.063          52.000  
E24  26828015.180   140982193.563        3094.973          42.750    26828018.160   108025308.730        2370.684          45.750  
E31  23968404.560   125954826.254        1309.926          50.500    23968407.900    96510835.313        1004.078          51.750  
> 2022 12 06 11 46 16.0000000  0 23       0.000000000000
G13  20531749.400   107895067.699        1552.031          53.000                                                                  
G30  21177444.660   111288215.555       -1647.949          53.000    21177445.540    86718100.320       -1282.688          49.750  
G05  21087059.320   110813250.668       -1016.898          52.500    21087060.400    86347984.926        -793.219          48.500  
G07  23508256.940   123536721.789       -2689.672          48.500    23508255.700    96262375.746       -2094.707          42.000  
G15  22333983.040   117365871.676        3055.703          48.750    22333984.220    91453949.426        2380.516          44.250  
G14  20988622.060   110295945.598        1030.406          51.250                                                                  
G20  22152580.360   116412596.313       -3058.902          50.500                                                                  
R02  19162838.060   102256611.582         118.828          57.750    19162841.880    79532914.387          92.406          52.750  
R13  21014246.820   112214931.582        3307.246          46.000    21014250.860    87278278.852        2571.660          42.500  
R12  19149092.920   102291053.113        -174.965          57.000    19149098.320    79559706.570        -135.094          53.500  
R11  21955218.080   117322060.645       -3723.758          53.000    21955221.860    91250475.281       -2895.434          49.750  
R01  21791667.920   116488979.949       -3593.078          48.000    21791680.340    90602562.426       -2793.391          46.750  
R03  21439944.620   114769743.762        3509.910          50.750    21439955.560    89265358.473        2731.445          49.250  
C37  24756887.040   128915609.586        2912.578          47.000                                                                  
C07  38966195.580   202907210.637          73.637          43.500    38966197.700   156900715.379          58.512          46.750  
C23  21897051.660   114023697.227         683.000          53.750                                                                  
C25  22931527.960   119410487.949       -2116.590          52.500                                                                  
C32  22060216.840   114873340.566         572.375          53.750                                                                  
C10  38627440.540   201143214.773         473.102          42.500    38627445.740   155536695.395         365.633          48.000  
E04  24830559.080   130485466.879       -1849.145          46.750    24830562.080    99982366.363       -1417.781          51.250  
E09  23550845.580   123760526.918         545.402          51.250    23550847.680    94829488.645         418.215          52.250  
E24  26827428.380   140979111.020        3094.273          42.750    26827431.560   108022946.785        2370.902          45.750  
E31  23968157.620   125953528.355        1310.527          50.500    23968160.940    96509840.820        1003.676          51.750  
> 2022 12 06 11 46 17.0000000  0 23       0.000000000000
G13  20531456.400   107893527.504        1551.680          53.000                                                                  
G30  21177760.400   111289875.883       -1649.223          53.000    21177761.380    86719394.086       -1285.449          49.500  
G05  21087255.200   110814279.633       -1016.586          52.500    21087256.340    86348786.727        -792.656          48.500  
G07  23508770.800   123539423.262       -2689.773          48.500    23508770.220    96264480.801       -2095.637          42.250  
G15  22333403.740   117362826.613        3057.758          48.750    22333404.480    91451576.664        2381.609          44.500  
G14  20988428.560   110294929.066        1028.164          51.000                                                                  
G20  22153164.880   116415668.543       -3060.938          50.250                                                                  
R02  19162818.180   102256505.133         118.219          57.750    19162821.900    79532831.602          91.914          52.750  
R13  21013630.220   112211638.234        3305.938          46.000    21013633.400    87275717.355        2569.801          42.500  
R12  19149127.720   102291240.008        -175.234          56.750    19149133.220    79559851.934        -135.645          53.500  
R11  21955917.880   117325797.383       -3724.262          53.000    21955920.940    91253381.648       -2896.883          49.500  
R01  21792343.000   116492584.645       -3591.152          48.250    21792355.140    90605366.070       -2794.059          47.000  
R03  21439291.320   114766245.582        3510.375          50.500    21439301.840    89262637.680        2730.531          49.250  
C37  24756330.340   128912709.973        2910.793          47.000                                                                  
C07  38966183.800   202907149.348          72.332          43.500    38966186.020   156900667.984          56.348          46.750  
C23  21896922.860   114023025.922         682.121          53.750                                                                  
C25  22931937.100   119412618.129       -2119.188          52.250                                                                  
C32  22060109.260   114872780.207         571.832          53.750                                                                  
C10  38627352.200   201142753.527         473.180          42.500    38627357.180   155536338.746         365.152          48.000  
E04  24830913.260   130487328.613       -1848.324          47.000    24830916.360    99983792.883       -1417.813          51.250  
E09  23550744.120   123759993.738         545.129          51.250    23550746.280    94829080.109         416.863          52.250  
E24  26826842.120   140976028.617        3092.492          42.750    26826845.060   108020584.934        2369.770          45.750  
E31  23967910.680   125952230.895        1309.066          50.500    23967914.060    96508846.664        1003.527          51.750  
> 2022 12 06 11 46 18.0000000  0 23       0.000000000000
G13  20531163.480   107891988.477        1552.039          53.000                                                                  
G30  21178076.600   111291537.336       -1648.891          52.750    21178077.540    86720688.719       -1284.691          49.750  
G05  21087451.120   110815310.086       -1018.324          52.250    21087453.000    86349589.668        -792.711          48.750  
G07  23509285.000   123542125.641       -2690.340          48.250    23509284.560    96266586.531       -2094.871          42.250  
G15  22332824.880   117359782.625        3056.738          49.000    22332825.400    91449204.715        2383.090          44.500  
G14  20988235.420   110293913.973        1027.242          51.000                                                                  
G20  22153749.580   116418741.945       -3060.195          50.250                                                                  
R02  19162798.340   102256400.188         116.945          57.750    19162802.440    79532749.973          91.816          52.500  
R13  21013013.780   112208346.219        3303.266          45.750    21013016.600    87273156.898        2569.574          42.250  
R12  19149162.780   102291428.488        -176.098          56.500    19149168.620    79559998.523        -137.531          53.500  
R11  21956617.480   117329535.207       -3725.902          53.000    21956620.720    91256288.844       -2896.918          49.250  
R01  21793018.180   116496190.539       -3591.465          48.500    21793030.180    90608170.648       -2794.438          47.000  
R03  21438638.020   114762748.547        3509.688          50.500    21438648.940    89259917.758        2730.074          49.000  
C37  24755773.720   128909811.379        2911.137          46.500                                                                  
C07  38966172.240   202907089.043          71.855          43.250    38966174.580   156900621.348          56.504          47.000  
C23  21896794.340   114022355.863         682.141          53.500                                                                  
C25  22932346.420   119414749.375       -2118.621          52.000                                                                  
C32  22060001.920   114872221.152         571.355          53.500                                                                  
C10  38627263.640   201142293.258         474.582          42.000    38627268.780   155535982.836         366.016          48.250  
E04  24831267.900   130489191.379       -1848.871          46.750    24831270.820    99985220.199       -1417.945          51.250  
E09  23550642.820   123759461.645         545.250          51.250    23550645.080    94828672.395         418.047          52.000  
E24  26826255.480   140972947.156        3094.563          42.750    26826258.620   108018223.832        2371.340          45.750  
E31  23967664.040   125950934.668        1308.676          50.500    23967667.420    96507853.449        1002.914          51.750  
> 2022 12 06 11 46 19.0000000  0 23       0.000000000000
G13  20530870.540   107890449.137        1551.082          53.000                                                                  
G30  21178392.580   111293198.445       -1650.113          52.500    21178393.740    86721983.090       -1284.074          49.500  
G05  21087647.180   110816340.531       -1018.367          52.250    21087649.060    86350392.621        -795.164          48.750  
G07  23509799.280   123544827.441       -2690.375          48.250    23509798.920    96268691.863       -2094.988          42.250  
G15  22332245.660   117356738.199        3057.047          49.000    22332245.820    91446832.438        2381.648          44.500  
G14  20988042.180   110292898.844        1026.676          51.000                                                                  
G20  22154334.400   116421815.039       -3061.523          50.000                                                                  
R02  19162778.700   102256295.285         116.402          57.500    19162782.880    79532668.375          90.582          52.500  
R13  21012397.980   112205054.035        3304.148          46.000    21012400.780    87270596.305        2569.719          42.500  
R12  19149197.920   102291617.082        -177.234          56.500    19149204.060    79560145.215        -137.777          53.500  
R11  21957316.660   117333272.617       -3725.641          52.750    21957320.420    91259195.691       -2897.223          49.250  
R01  21793692.920   116499796.164       -3593.121          48.500    21793704.440    90610975.023       -2794.391          47.000  
R03  21437984.880   114759251.125        3509.223          50.750    21437995.420    89257197.547        2729.406          49.250  
C37  24755216.820   128906912.336        2910.035          46.500                                                                  
C07  38966160.580   202907028.195          71.348          43.250    38966162.860   156900574.305          54.387          47.000  
C23  21896665.680   114021685.582         682.156          53.750                                                                  
C25  22932755.680   119416880.246       -2119.805          52.250                                                                  
C32  22059894.620   114871661.926         570.711          53.750                                                                  
C10  38627174.840   201141832.496         471.684          42.250    38627180.320   155535626.547         366.660          48.250  
E04  24831622.180   130491053.715       -1851.211          47.000    24831625.220    99986647.176       -1418.406          51.000  
E09  23550541.540   123758929.152         544.684          51.250    23550543.740    94828264.391         416.969          52.000  
E24  26825668.920   140969865.184        3094.801          42.500    26825672.120   108015862.320        2369.523          45.750  
E31  23967417.340   125949638.207        1308.438          50.500    23967420.720    96506860.047        1001.434          51.750  
> 2022 12 06 11 46 20.0000000  0 23       0.000000000000
G13  20530577.780   107888910.703        1550.371          53.000                                                                  
G30  21178708.680   111294860.418       -1650.852          52.500    21178709.980    86723278.141       -1286.242          49.500  
G05  21087843.440   110817372.211       -1020.852          52.250    21087845.540    86351196.508        -794.934          48.500  
G07  23510313.600   123547529.883       -2691.102          48.250    23510313.380    96270797.633       -2095.426          42.250  
G15  22331666.380   117353694.551        3054.363          49.000    22331666.940    91444460.766        2381.465          44.500  
G14  20987849.280   110291884.902        1025.160          51.000                                                                  
G20  22154919.400   116424889.043       -3062.656          50.000                                                                  
R02  19162759.280   102256191.672         115.113          57.500    19162763.540    79532587.789          89.602          52.750  
R13  21011781.560   112201762.926        3302.656          46.250    21011784.000    87268036.543        2568.012          42.250  
R12  19149233.140   102291807.020        -178.230          56.500    19149239.540    79560292.945        -137.691          53.500  
R11  21958015.960   117337010.836       -3726.164          52.750    21958019.340    91262103.199       -2898.930          49.250  
R01  21794368.020   116503402.723       -3595.781          48.750    21794378.980    90613780.129       -2796.730          47.000  
R03  21437331.680   114755754.531        3508.176          51.000    21437342.680    89254477.969        2729.305          49.250  
C37  24754660.260   128904014.035        2909.887          46.000                                                                  
C07  38966148.860   202906968.082          71.852          42.750    38966151.240   156900527.813          52.902          47.250  
C23  21896537.200   114021016.301         679.527          53.250                                                                  
C25  22933164.940   119419011.941       -2120.043          51.750                                                                  
C32  22059787.540   114871103.758         569.848          53.250                                                                  
C10  38627086.540   201141372.430         470.125          41.500    38627092.000   155535270.789         363.594          48.250  
E04  24831976.660   130492916.820       -1851.297          46.750    24831979.760    99988074.758       -1417.605          51.250  
E09  23550440.340   123758397.484         543.313          51.500    23550442.520    94827857.000         415.484          52.000  
E24  26825082.660   140966783.887        3094.645          42.500    26825085.860   108013501.324        2369.977          45.750  
E31  23967170.780   125948342.723        1308.352          50.500    23967174.200    96505867.414        1002.055          51.750  
> 2022 12 06 11 46 21.0000000  0 23       0.000000000000
G13  20530282.780   107887360.902        1549.113          53.000                                                                  
G30  21179022.700   111296510.973       -1651.859          52.500    21179024.260    86724564.285       -1286.844          49.750  
G05  21088037.600   110818392.809       -1022.785          52.250    21088039.640    86351991.789        -795.906          48.750  
G07  23510825.600   123550220.711       -2692.133          48.250    23510825.220    96272894.375       -2097.742          42.000  
G15  22331085.320   117350639.441        3052.918          49.000    22331085.880    91442080.160        2379.969          44.250  
G14  20987654.280   110290859.871        1024.301          50.750                                                                  
G20  22155502.260   116427951.684       -3063.055          50.000                                                                  
R02  19162737.560   102256076.941         113.504          57.500    19162742.180    79532498.547          88.031          52.750  
R13  21011163.020   112198460.387        3301.625          46.000    21011165.560    87265467.918        2566.832          42.250  
R12  19149266.540   102291985.781        -180.313          56.500    19149273.140    79560431.977        -140.563          53.500  
R11  21958713.640   117340737.383       -3728.004          53.000    21958716.300    91265001.617       -2900.379          49.250  
R01  21795040.800   116506997.766       -3598.293          48.750    21795051.620    90616576.273       -2796.473          47.250  
R03  21436676.520   114752246.258        3507.254          51.000    21436687.420    89251749.309        2728.246          49.500  
C37  24754101.480   128901104.348        2908.547          46.000                                                                  
C07  38966135.400   202906896.520          70.289          42.750    38966137.540   156900472.480          54.922          47.250  
C23  21896406.660   114020335.848         678.926          53.250                                                                  
C25  22933572.200   119421132.285       -2120.844          51.500                                                                  
C32  22059678.300   114870534.469         567.867          53.250                                                                  
C10  38626996.060   201140900.910         470.977          41.500    38627001.480   155534906.188         366.121          48.500  
E04  24832329.060   130494768.434       -1852.191          46.750    24832332.080    99989493.520       -1419.742          51.250  
E09  23550337.080   123757854.363         541.891          51.500    23550339.160    94827440.852         414.492          52.000  
E24  26824494.300   140963690.992        3090.898          42.500    26824497.320   108011131.453        2369.488          45.750  
E31  23966922.060   125947035.941        1305.254          50.500    23966925.560    96504866.113        1001.977          51.750  
> 2022 12 06 11 46 22.0000000  0 23       0.000000000000
G13  20529990.180   107885823.996        1548.219          53.000                                                                  
G30  21179339.280   111298174.383       -1651.973          52.500    21179340.740    86725860.453       -1286.688          49.750  
G05  21088234.280   110819426.613       -1021.676          52.250    21088236.140    86352797.352        -796.055          48.750  
G07  23511340.100   123552924.160       -2691.691          48.250    23511340.000    96275000.957       -2098.094          42.500  
G15  22330506.360   117347597.098        3052.828          49.000    22330506.580    91439709.512        2379.051          44.750  
G14  20987461.600   110289848.004        1022.371          51.000                                                                  
G20  22156087.540   116431027.227       -3065.047          50.000                                                                  
R02  19162718.380   102255975.691         112.863          57.250    19162722.960    79532419.801          87.270          52.750  
R13  21010547.140   112195171.070        3300.305          45.750    21010549.820    87262909.559        2566.691          42.000  
R12  19149302.320   102292178.031        -180.844          56.250    19149309.060    79560581.508        -141.293          53.500  
R11  21959413.220   117344476.914       -3727.223          53.000    21959416.180    91267910.145       -2899.906          49.000  
R01  21795715.880   116510605.949       -3596.875          48.750    21795726.560    90619382.625       -2797.160          47.250  
R03  21436024.040   114748751.016        3506.672          51.250    21436034.100    89249030.785        2728.082          49.250  
C37  24753545.120   128898207.293        2908.613          46.500                                                                  
C07  38966123.900   202906837.531          69.551          43.250    38966126.240   156900426.871          54.477          46.750  
C23  21896278.460   114019668.258         678.453          53.500                                                                  
C25  22933981.800   119423265.336       -2122.086          52.000                                                                  
C32  22059571.660   114869978.098         567.391          53.500                                                                  
C10  38626907.640   201140441.973         469.957          42.000    38626913.200   155534551.316         363.285          48.000  
E04  24832683.860   130496632.805       -1852.719          47.000    24832686.800    99990922.070       -1419.336          51.250  
E09  23550236.180   123757324.055         541.648          51.500    23550238.220    94827034.512         414.105          52.000  
E24  26823908.280   140960610.770        3091.148          42.250    26823911.140   108008771.305        2369.891          45.750  
E31  23966675.660   125945742.129        1304.555          50.500    23966679.280    96503874.762        1000.238          51.750  
> 2022 12 06 11 46 23.0000000  0 23       0.000000000000
G13  20529697.780   107884287.820        1547.500          53.000                                                                  
G30  21179655.840   111299838.492       -1653.031          52.500    21179657.400    86727157.164       -1287.926          49.750  
G05  21088431.280   110820461.477       -1025.582          52.250    21088432.980    86353603.742        -797.027          48.750  
G07  23511854.680   123555628.074       -2693.977          48.250    23511854.480    96277107.910       -2098.809          42.750  
G15  22329927.720   117344555.398        3052.598          49.000    22329927.700    91437339.355        2378.430          44.750  
G14  20987269.280   110288837.145        1022.078          50.750                                                                  
G20  22156673.040   116434103.488       -3064.988          50.000                                                                  
R02  19162699.020   102255875.535         111.031          57.250    19162704.280    79532341.898          85.660          52.500  
R13  21009931.420   112191882.637        3297.977          46.250    21009932.540    87260351.879        2565.145          42.000  
R12  19149338.620   102292371.461        -182.926          56.500    19149345.140    79560731.953        -142.578          53.250  
R11  21960113.260   117348217.086       -3729.020          53.000    21960116.060    91270819.160       -2900.281          49.000  
R01  21796391.140   116514214.902       -3597.852          48.750    21796401.900    90622189.586       -2798.262          47.250  
R03  21435371.860   114745256.461        3506.191          51.500    21435380.940    89246312.793        2726.039          49.250  
C37  24752988.940   128895310.828        2907.480          46.500                                                                  
C07  38966112.600   202906779.066          68.895          43.250    38966114.860   156900381.672          53.957          46.750  
C23  21896150.380   114019001.488         677.563          53.750                                                                  
C25  22934391.620   119425399.039       -2123.023          52.000                                                                  
C32  22059464.940   114869422.605         565.676          53.750                                                                  
C10  38626819.700   201139983.555         470.199          42.000    38626825.160   155534196.836         361.387          48.000  
E04  24833038.680   130498497.797       -1854.629          47.000    24833041.600    99992351.094       -1421.117          51.250  
E09  23550135.300   123756794.391         540.656          51.500    23550137.340    94826628.668         414.004          52.000  
E24  26823322.200   140957531.078        3089.461          42.250    26823325.060   108006411.551        2366.813          45.750  
E31  23966429.820   125944449.125        1303.969          50.500    23966433.160    96502884.027         998.289          51.750  
> 2022 12 06 11 46 24.0000000  0 23       0.000000000000
G13  20529405.580   107882752.570        1546.203          52.750                                                                  
G30  21179972.640   111301503.477       -1654.297          52.500    21179974.220    86728454.555       -1288.844          50.000  
G05  21088628.580   110821497.574       -1025.766          52.250    21088630.040    86354411.086        -799.301          49.000  
G07  23512369.600   123558332.645       -2693.375          48.250    23512369.060    96279215.367       -2098.211          42.750  
G15  22329349.280   117341514.492        3052.316          49.000    22329349.040    91434969.828        2377.910          44.750  
G14  20987077.020   110287827.480        1020.773          50.500                                                                  
G20  22157258.380   116437180.699       -3066.332          49.500                                                                  
R02  19162680.220   102255776.648         109.656          57.250    19162686.000    79532264.992          86.145          52.500  
R13  21009315.560   112188595.254        3299.207          46.250    21009317.140    87257795.027        2564.691          42.250  
R12  19149375.120   102292566.246        -183.680          56.750    19149381.220    79560883.457        -142.531          53.250  
R11  21960812.820   117351958.090       -3730.684          53.000    21960816.620    91273728.828       -2901.559          48.750  
R01  21797066.460   116517824.824       -3599.457          49.000    21797077.640    90624997.309       -2797.309          47.250  
R03  21434719.660   114741762.789        3504.344          51.750    21434728.980    89243595.488        2726.156          49.250  
C37  24752432.820   128892415.133        2905.977          46.000                                                                  
C07  38966101.440   202906721.328          70.086          43.000    38966103.680   156900337.027          53.523          46.500  
C23  21896022.480   114018335.727         676.398          53.500                                                                  
C25  22934801.600   119427533.570       -2123.758          51.750                                                                  
C32  22059358.420   114868868.172         565.504          53.500                                                                  
C10  38626731.680   201139525.832         468.184          41.750    38626737.300   155533842.902         361.918          47.750  
E04  24833393.660   130500363.570       -1855.242          47.000    24833396.680    99993780.719       -1421.566          51.250  
E09  23550034.740   123756265.566         540.676          51.500    23550036.660    94826223.469         413.246          52.000  
E24  26822736.120   140954452.086        3088.586          42.000    26822739.080   108004052.328        2366.992          45.750  
E31  23966183.880   125943157.125        1303.449          50.500    23966187.300    96501894.047         998.438          51.500  
> 2022 12 06 11 46 25.0000000  0 23       0.000000000000
G13  20529113.580   107881217.699        1543.953          53.000                                                                  
G30  21180289.640   111303168.824       -1655.777          52.500    21180291.260    86729752.211       -1290.086          50.000  
G05  21088826.100   110822534.367       -1027.574          52.250    21088827.260    86355218.977        -798.625          49.000  
G07  23512884.480   123561037.332       -2694.676          48.250    23512883.500    96281322.906       -2099.844          43.000  
G15  22328770.580   117338473.848        3049.949          49.000    22328770.280    91432600.492        2375.867          44.750  
G14  20986885.000   110286818.500        1018.613          50.500                                                                  
G20  22157843.940   116440258.281       -3067.484          49.500                                                                  
R02  19162662.000   102255678.512         107.848          57.250    19162667.200    79532188.656          84.090          52.500  
R13  21008699.340   112185308.398        3295.836          46.000    21008701.020    87255238.594        2563.996          42.250  
R12  19149411.820   102292761.816        -185.855          56.750    19149417.860    79561035.566        -144.078          53.250  
R11  21961513.360   117355699.352       -3730.836          53.000    21961515.880    91276638.703       -2902.082          48.750  
R01  21797742.080   116521435.152       -3599.258          49.000    21797753.340    90627805.332       -2801.371          47.500  
R03  21434067.480   114738269.430        3503.410          51.750    21434076.480    89240878.438        2725.691          49.250  
C37  24751876.820   128889519.668        2904.801          46.500                                                                  
C07  38966090.580   202906663.797          69.059          43.000    38966092.680   156900292.512          53.289          46.500  
C23  21895894.680   114017670.426         674.668          53.500                                                                  
C25  22935211.580   119429668.414       -2125.945          52.000                                                                  
C32  22059252.080   114868314.270         562.918          53.500                                                                  
C10  38626643.820   201139068.293         468.133          41.750    38626649.340   155533489.098         361.145          47.500  
E04  24833748.860   130502229.586       -1856.387          47.000    24833751.760    99995210.504       -1423.500          51.250  
E09  23549934.120   123755737.039         538.914          51.500    23549936.160    94825818.480         412.418          52.000  
E24  26822150.100   140951373.258        3088.770          42.000    26822153.240   108001693.207        2366.234          45.750  
E31  23965938.140   125941865.570        1300.730          50.500    23965941.640    96500904.402         996.262          51.750  
> 2022 12 06 11 46 26.0000000  0 23       0.000000000000
G13  20528821.860   107879683.805        1543.309          53.000                                                                  
G30  21180606.860   111304835.086       -1656.941          52.750    21180608.360    86731050.602       -1290.738          50.000  
G05  21089023.700   110823572.445       -1029.070          52.500    21089025.020    86356027.871        -802.727          48.750  
G07  23513399.500   123563742.738       -2695.152          48.500    23513398.500    96283431.023       -2102.055          43.000  
G15  22328192.060   117335434.078        3049.898          49.250    22328191.580    91430231.848        2376.387          45.000  
G14  20986693.080   110285810.766        1016.535          50.500                                                                  
G20  22158429.620   116443336.832       -3068.180          49.500                                                                  
R02  19162643.860   102255581.754         107.230          57.250    19162648.720    79532113.395          83.051          52.250  
R13  21008083.940   112182022.668        3295.363          46.000    21008086.400    87252683.027        2562.250          42.250  
R12  19149449.000   102292958.770        -187.230          57.000    19149454.840    79561188.758        -146.859          53.250  
R11  21962213.420   117359441.500       -3731.508          53.000    21962216.000    91279549.246       -2902.531          48.750  
R01  21798417.220   116525046.512       -3602.234          49.250    21798429.740    90630614.160       -2801.395          47.500  
R03  21433415.220   114734776.980        3502.414          52.000    21433423.960    89238162.082        2724.461          49.250  
C37  24751320.980   128886625.035        2904.117          46.500                                                                  
C07  38966079.840   202906607.008          68.063          43.250    38966081.800   156900248.637          52.305          46.750  
C23  21895767.120   114017006.191         673.867          53.500                                                                  
C25  22935621.720   119431804.152       -2126.438          52.000                                                                  
C32  22059145.860   114867761.484         562.496          53.750                                                                  
C10  38626555.940   201138611.547         466.254          41.750    38626561.460   155533135.918         360.832          48.000  
E04  24834104.020   130504096.457       -1856.633          47.000    24834107.060    99996640.980       -1422.563          51.000  
E09  23549833.700   123755209.410         536.855          51.500    23549835.780    94825414.207         411.895          52.000  
E24  26821564.500   140948295.195        3087.516          41.750    26821567.600   107999334.711        2365.918          46.000  
E31  23965692.600   125940575.066        1299.297          50.500    23965696.080    96499915.598         996.512          51.500  
> 2022 12 06 11 46 27.0000000  0 23       0.000000000000
G13  20528530.020   107878150.738        1542.512          53.250                                                                  
G30  21180924.180   111306502.121       -1658.383          53.000    21180925.640    86732349.594       -1292.063          50.000  
G05  21089221.540   110824611.645       -1030.668          53.000    21089222.580    86356837.633        -803.383          48.750  
G07  23513914.360   123566448.715       -2696.215          48.750    23513913.380    96285539.555       -2102.102          43.250  
G15  22327613.600   117332395.016        3049.602          49.500    22327613.600    91427863.754        2375.719          44.750  
G14  20986501.500   110284804.125        1017.148          51.000                                                                  
G20  22159015.540   116446416.219       -3070.422          49.750                                                                  
R02  19162625.800   102255486.211         105.492          57.250    19162630.740    79532039.094          82.242          52.500  
R13  21007469.080   112178737.926        3294.156          46.000    21007472.040    87250128.219        2564.363          42.250  
R12  19149486.360   102293156.969        -188.508          57.000    19149491.800    79561342.910        -146.324          53.250  
R11  21962914.080   117363184.383       -3734.121          53.000    21962916.180    91282460.383       -2902.750          48.750  
R01  21799093.380   116528658.738       -3601.285          49.000    21799104.980    90633423.668       -2803.918          47.500  
R03  21432763.300   114731285.285        3501.945          52.000    21432771.760    89235446.316        2723.328          49.250  
C37  24750765.280   128883731.078        2904.309          46.500                                                                  
C07  38966069.180   202906550.863          65.258          43.500    38966070.840   156900205.195          51.156          46.750  
C23  21895639.680   114016342.863         672.086          53.500                                                                  
C25  22936032.040   119433940.617       -2127.387          52.000                                                                  
C32  22059039.860   114867209.656         561.063          53.500                                                                  
C10  38626468.360   201138155.410         465.391          41.250    38626473.960   155532783.188         359.422          47.750  
E04  24834459.300   130505964.031       -1858.039          47.000    24834462.440    99998071.961       -1423.992          51.000  
E09  23549733.500   123754682.508         536.887          51.500    23549735.540    94825010.465         410.961          52.000  
E24  26820978.800   140945217.723        3085.695          41.750    26820981.980   107996976.637        2362.992          45.750  
E31  23965447.220   125939285.469        1298.996          50.500    23965450.700    96498927.441         995.168          51.500  
> 2022 12 06 11 46 28.0000000  0 23       0.000000000000
G13  20528238.520   107876618.633        1541.590          53.500                                                                  
G30  21181241.640   111308170.082       -1658.336          53.000    21181243.160    86733649.293       -1292.594          50.000  
G05  21089419.600   110825652.113       -1031.156          53.250    21089420.540    86357648.379        -802.039          48.750  
G07  23514429.520   123569155.371       -2696.836          49.000    23514428.740    96287648.648       -2101.078          43.000  
G15  22327035.340   117329356.785        3049.180          49.500    22327035.640    91425496.293        2374.070          45.000  
G14  20986310.100   110283798.719        1015.039          51.000                                                                  
G20  22159601.480   116449496.566       -3071.016          49.750                                                                  
R02  19162608.180   102255391.996         103.543          57.250    19162613.440    79531965.801          80.582          52.500  
R13  21006853.520   112175454.262        3292.629          45.750    21006857.320    87247574.262        2562.289          42.750  
R12  19149523.820   102293356.566        -190.695          57.000    19149529.120    79561498.145        -148.387          53.250  
R11  21963614.660   117366928.117       -3734.992          52.750    21963617.060    91285372.172       -2904.516          49.000  
R01  21799769.340   116532271.957       -3603.195          49.000    21799780.700    90636233.949       -2803.086          47.500  
R03  21432111.560   114727794.488        3500.195          52.000    21432119.000    89232731.250        2722.113          49.250  
C37  24750209.760   128880837.918        2901.492          46.500                                                                  
C07  38966058.780   202906495.473          63.465          43.000    38966060.060   156900162.359          50.734          46.500  
C23  21895512.420   114015680.570         671.867          53.500                                                                  
C25  22936442.500   119436077.953       -2127.617          52.000                                                                  
C32  22058934.140   114866658.922         560.121          53.500                                                                  
C10  38626380.880   201137700.016         464.496          41.500    38626386.360   155532431.047         358.137          48.000  
E04  24834814.880   130507832.414       -1859.555          47.000    24834818.020    99999503.574       -1423.902          51.000  
E09  23549633.460   123754156.480         535.211          51.500    23549635.420    94824607.402         410.414          52.000  
E24  26820393.000   140942140.988        3087.211          41.750    26820396.620   107994619.148        2365.637          46.000  
E31  23965202.040   125937996.891        1297.648          50.500    23965205.540    96497940.086         993.957          51.500  
> 2022 12 06 11 46 29.0000000  0 23       0.000000000000
G13  20527946.880   107875086.660        1540.438          53.500                                                                  
G30  21181559.020   111309838.152       -1659.277          53.000    21181560.580    86734949.082       -1294.184          50.000  
G05  21089617.860   110826693.020       -1031.980          53.250    21089618.740    86358459.484        -804.250          48.750  
G07  23514944.540   123571861.898       -2698.852          48.750    23514943.520    96289757.660       -2101.301          43.000  
G15  22326457.100   117326318.586        3045.453          49.500    22326457.500    91423128.879        2374.887          44.750  
G14  20986118.740   110282793.719        1013.121          51.250                                                                  
G20  22160187.700   116452577.047       -3072.574          49.500                                                                  
R02  19162590.780   102255298.254         102.480          57.250    19162596.080    79531892.887          78.402          52.500  
R13  21006238.700   112172170.898        3292.008          45.500    21006243.140    87245020.535        2559.871          42.750  
R12  19149561.280   102293556.723        -191.594          56.750    19149566.780    79561653.824        -149.582          53.000  
R11  21964315.360   117370671.883       -3735.656          52.750    21964317.340    91288283.988       -2905.031          48.750  
R01  21800445.780   116535885.359       -3605.363          49.000    21800456.740    90639044.367       -2801.918          47.500  
R03  21431459.000   114724303.758        3499.582          51.750    21431466.680    89230016.238        2721.879          49.500  
C37  24749654.120   128877944.758        2901.285          46.500                                                                  
C07  38966047.880   202906440.016          63.238          43.250    38966049.480   156900119.477          50.621          46.750  
C23  21895385.200   114015018.500         669.926          53.250                                                                  
C25  22936852.900   119438215.348       -2128.840          52.000                                                                  
C32  22058828.220   114866108.469         558.563          53.250                                                                  
C10  38626293.020   201137244.563         463.863          41.500    38626298.720   155532078.855         358.973          47.750  
E04  24835170.260   130509700.813       -1858.523          47.000    24835173.500   100000935.211       -1425.832          51.250  
E09  23549533.480   123753630.512         534.098          51.500    23549535.360    94824204.383         409.574          52.000  
E24  26819807.320   140939064.184        3085.238          41.250    26819811.000   107992261.590        2364.352          45.750  
E31  23964956.760   125936708.527        1296.926          50.500    23964960.360    96496952.902         993.836          51.500  
> 2022 12 06 11 46 30.0000000  0 23       0.000000000000
G13  20527655.460   107873555.340        1539.242          53.500                                                                  
G30  21181876.440   111311506.805       -1661.484          53.000    21181878.140    86736249.340       -1293.594          49.750  
G05  21089816.340   110827734.902       -1034.477          53.250    21089816.800    86359271.332        -805.180          48.500  
G07  23515459.540   123574568.824       -2697.855          48.750    23515458.520    96291866.930       -2102.676          43.000  
G15  22325879.240   117323280.918        3045.426          49.500    22325879.460    91420761.852        2372.902          44.750  
G14  20985927.820   110281789.629        1012.496          51.250                                                                  
G20  22160773.740   116455658.188       -3073.555          49.250                                                                  
R02  19162573.520   102255205.496         100.516          57.250    19162578.440    79531820.750          78.645          52.250  
R13  21005624.280   112168888.348        3290.305          45.500    21005628.340    87242467.434        2559.766          42.500  
R12  19149599.040   102293757.918        -193.145          56.750    19149604.480    79561810.309        -151.066          53.000  
R11  21965015.920   117374416.195       -3735.461          52.750    21965018.220    91291196.215       -2905.086          48.750  
R01  21801122.000   116539499.445       -3605.676          49.250    21801133.000    90641855.332       -2804.758          47.250  
R03  21430806.840   114720813.613        3498.266          51.500    21430814.420    89227301.688        2719.340          49.000  
C37  24749098.700   128875052.102        2900.508          46.750                                                                  
C07  38966037.680   202906385.027          64.750          43.250    38966038.660   156900076.938          50.875          46.250  
C23  21895258.180   114014357.168         669.289          53.500                                                                  
C25  22937263.460   119440353.301       -2131.035          52.000                                                                  
C32  22058722.660   114865558.809         558.133          53.500                                                                  
C10  38626205.640   201136789.551         464.246          41.500    38626211.380   155531727.012         358.234          47.500  
E04  24835525.940   130511569.730       -1859.887          46.750    24835529.160   100002367.230       -1425.641          51.250  
E09  23549433.440   123753105.102         533.492          51.250    23549435.420    94823801.793         408.305          52.000  
E24  26819221.780   140935987.813        3084.438          41.000    26819225.660   107989904.367        2363.121          46.000  
E31  23964711.800   125935420.895        1295.121          50.500    23964715.320    96495966.273         993.055          51.750  
> 2022 12 06 11 46 31.0000000  0 23       0.000000000000
G13  20527363.900   107872024.020        1538.590          53.250                                                                  
G30  21182193.940   111313175.426       -1661.945          53.000    21182195.400    86737549.566       -1295.477          49.500  
G05  21090014.880   110828777.086       -1035.797          53.250    21090014.980    86360083.430        -806.559          48.500  
G07  23515974.660   123577275.477       -2699.340          48.500    23515973.880    96293976.008       -2102.391          43.000  
G15  22325301.300   117320243.129        3044.117          49.500    22325301.460    91418394.762        2373.883          44.500  
G14  20985736.980   110280785.836        1010.660          51.000                                                                  
G20  22161359.940   116458739.332       -3073.195          49.000                                                                  
R02  19162556.360   102255113.137          99.898          57.750    19162561.120    79531748.906          77.324          52.250  
R13  21005010.260   112165605.930        3289.605          46.000    21005014.040    87239914.438        2558.602          42.750  
R12  19149636.740   102293959.516        -194.000          57.250    19149642.080    79561967.105        -150.344          53.000  
R11  21965716.560   117378160.406       -3737.445          53.250    21965718.840    91294108.387       -2905.227          48.750  
R01  21801797.700   116543113.570       -3606.668          49.500    21801808.940    90644666.316       -2804.992          47.000  
R03  21430154.740   114717323.414        3497.789          52.000    21430162.340    89224587.086        2720.301          48.750  
C37  24748543.100   128872159.305        2899.602          46.750                                                                  
C07  38966026.960   202906329.820          62.758          43.250    38966028.160   156900034.273          48.383          46.250  
C23  21895131.120   114013695.926         668.574          53.500                                                                  
C25  22937674.080   119442491.199       -2131.027          52.000                                                                  
C32  22058617.020   114865009.293         555.863          53.250                                                                  
C10  38626118.160   201136334.320         461.848          41.250    38626123.900   155531375.016         356.504          47.500  
E04  24835881.640   130513438.523       -1862.035          46.750    24835884.760   100003799.168       -1427.289          51.250  
E09  23549333.500   123752579.598         532.820          51.250    23549335.400    94823399.152         407.547          52.250  
E24  26818636.460   140932911.219        3085.465          41.000    26818640.240   107987546.992        2363.602          46.000  
E31  23964466.900   125934133.324        1295.168          50.500    23964470.340    96494979.699         993.480          51.750  
> 2022 12 06 11 46 32.0000000  0 23       0.000000000000
G13  20527071.160   107870485.645        1538.363          53.250                                                                  
G30  21182510.280   111314836.953       -1662.121          53.000    21182511.580    86738844.262       -1293.734          49.500  
G05  21090211.900   110829812.504       -1036.520          53.250    21090211.740    86360890.254        -807.074          48.250  
G07  23516488.240   123579974.816       -2700.637          48.500    23516487.460    96296079.387       -2104.059          43.000  
G15  22324721.540   117317198.176        3045.445          49.500    22324722.260    91416022.070        2373.520          44.500  
G14  20985544.660   110279775.250        1009.617          51.000                                                                  
G20  22161944.640   116461813.430       -3075.789          48.750                                                                  
R02  19162537.560   102255014.012          98.262          57.750    19162542.640    79531671.813          76.008          52.250  
R13  21004393.380   112162316.438        3288.410          46.250    21004398.040    87237355.969        2557.430          42.750  
R12  19149673.200   102294154.340        -195.301          57.250    19149678.640    79562118.629        -152.250          52.750  
R11  21966415.980   117381897.313       -3737.750          53.250    21966418.540    91297014.867       -2906.977          48.500  
R01  21802472.720   116546720.539       -3607.191          49.500    21802483.580    90647471.730       -2806.734          47.000  
R03  21429501.020   114713825.918        3497.277          52.250    21429508.820    89221866.813        2720.668          48.500  
C37  24747986.240   128869259.375        2899.586          46.750                                                                  
C07  38966015.220   202906267.441          61.914          43.250    38966016.260   156899986.039          46.363          46.500  
C23  21895002.820   114013027.773         666.910          53.500                                                                  
C25  22938083.300   119444622.012       -2130.625          52.250                                                                  
C32  22058510.180   114864452.934         556.465          53.250                                                                  
C10  38626029.580   201135871.914         462.441          41.500    38626035.180   155531017.449         357.387          47.500  
E04  24836236.020   130515300.105       -1861.543          46.750    24836238.940   100005225.586       -1425.730          51.250  
E09  23549232.080   123752046.969         532.652          51.250    23549234.020    94822991.027         407.570          52.000  
E24  26818049.720   140929827.320        3083.484          41.000    26818053.320   107985184.027        2362.602          46.000  
E31  23964220.640   125932838.777        1294.691          50.500    23964224.020    96493987.773         991.059          51.750  
> 2022 12 06 11 46 33.0000000  0 23       0.000000000000
G13  20526779.900   107868955.332        1537.922          53.500                                                                  
G30  21182828.020   111316506.500       -1660.906          53.250    21182829.180    86740145.199       -1293.836          49.500  
G05  21090410.480   110830856.309       -1035.164          53.250    21090410.300    86361703.609        -805.980          48.250  
G07  23517003.220   123582681.953       -2698.496          48.500    23517002.520    96298188.836       -2102.703          43.250  
G15  22324143.540   117314161.176        3045.141          49.500    22324144.260    91413655.574        2373.074          44.750  
G14  20985353.940   110278772.996        1010.395          51.000                                                                  
G20  22162531.060   116464895.578       -3073.066          48.750                                                                  
R02  19162520.580   102254923.484          98.570          58.000    19162526.040    79531601.406          76.906          52.250  
R13  21003778.820   112159035.297        3291.133          46.250    21003783.580    87234803.969        2559.520          43.250  
R12  19149711.340   102294357.781        -194.820          57.500    19149716.720    79562276.863        -151.684          53.000  
R11  21967116.820   117385642.309       -3736.695          53.750    21967119.060    91299927.637       -2906.375          48.750  
R01  21803149.360   116550335.738       -3606.770          50.000    21803159.940    90650283.551       -2804.297          47.000  
R03  21428849.220   114710336.555        3497.887          52.500    21428857.260    89219152.875        2720.457          48.750  
C37  24747431.040   128866367.297        2900.391          47.000                                                                  
C07  38966004.780   202906212.871          63.746          43.750    38966005.720   156899943.836          48.992          46.750  
C23  21894876.040   114012367.715         668.629          53.500                                                                  
C25  22938494.040   119446760.734       -2130.750          52.250                                                                  
C32  22058404.860   114863904.707         555.492          53.500                                                                  
C10  38625942.220   201135417.297         462.430          41.750    38625947.900   155530665.918         359.965          47.750  
E04  24836591.560   130517169.641       -1861.203          46.750    24836594.700   100006658.082       -1425.750          51.250  
E09  23549132.300   123751522.309         533.672          51.500    23549134.160    94822589.004         408.516          52.250  
E24  26817464.560   140926751.289        3083.648          41.000    26817468.040   107982827.070        2361.926          46.000  
E31  23963975.760   125931552.359        1294.348          50.500    23963979.180    96493002.074         992.379          51.750  
> 2022 12 06 11 46 34.0000000  0 23       0.000000000000
G13  20526488.840   107867425.211        1538.426          53.750                                                                  
G30  21183145.800   111318176.184       -1661.367          53.500    21183146.760    86741446.254       -1294.332          49.500  
G05  21090609.080   110831900.609       -1035.348          53.250    21090608.980    86362517.352        -807.559          48.250  
G07  23517518.400   123585389.012       -2697.965          48.750    23517518.000    96300298.238       -2102.324          43.250  
G15  22323565.740   117311124.250        3044.742          49.500    22323566.240    91411289.145        2372.766          44.750  
G14  20985163.240   110277771.219        1010.336          51.250                                                                  
G20  22163117.380   116467977.926       -3073.777          48.750                                                                  
R02  19162503.760   102254833.500          98.520          58.000    19162508.740    79531531.418          76.625          52.500  
R13  21003164.840   112155754.461        3290.836          46.250    21003169.160    87232252.199        2559.426          43.750  
R12  19149749.440   102294561.816        -195.453          57.500    19149754.640    79562435.555        -152.184          53.250  
R11  21967817.740   117389387.371       -3736.965          53.750    21967819.860    91302840.461       -2905.023          48.750  
R01  21803825.460   116553951.156       -3607.520          49.750    21803836.240    90653095.543       -2805.840          47.250  
R03  21428197.480   114706847.301        3497.086          52.500    21428204.960    89216439.012        2721.637          48.750  
C37  24746875.760   128863475.246        2900.176          47.000                                                                  
C07  38965994.540   202906158.270          63.750          43.500    38965995.220   156899901.625          48.148          46.750  
C23  21894749.340   114011707.926         668.281          53.500                                                                  
C25  22938904.760   119448899.578       -2130.617          52.250                                                                  
C32  22058299.500   114863356.828         556.023          53.500                                                                  
C10  38625854.780   201134962.676         464.453          41.500    38625860.400   155530314.367         357.117          47.750  
E04  24836947.120   130519039.242       -1859.746          46.750    24836950.460   100008090.629       -1425.832          51.250  
E09  23549032.500   123750997.762         532.207          51.500    23549034.380    94822187.086         408.984          52.000  
E24  26816879.340   140923675.234        3083.754          41.250    26816882.600   107980470.105        2363.141          46.000  
E31  23963731.080   125930266.219        1295.824          50.500    23963734.460    96492016.594         992.043          51.750  
> 2022 12 06 11 46 35.0000000  0 23       0.000000000000
G13  20526197.600   107865894.660        1538.199          53.750                                                                  
G30  21183463.640   111319845.410       -1661.422          53.500    21183464.120    86742746.938       -1293.930          49.500  
G05  21090807.640   110832944.785       -1036.199          53.500    21090807.620    86363330.992        -807.480          48.250  
G07  23518033.420   123588095.371       -2698.805          48.750    23518032.940    96302407.074       -2102.707          43.500  
G15  22322987.600   117308086.781        3046.164          49.750    22322988.360    91408922.277        2372.176          44.750  
G14  20984972.400   110276769.266        1010.305          51.250                                                                  
G20  22163703.520   116471059.855       -3074.648          48.500                                                                  
R02  19162487.180   102254743.387          97.633          58.000    19162491.960    79531461.336          76.602          52.500  
R13  21002550.580   112152473.328        3289.168          46.000    21002556.220    87229700.203        2558.133          43.500  
R12  19149787.680   102294765.801        -196.258          57.250    19149793.100    79562594.207        -153.082          53.250  
R11  21968518.580   117393131.891       -3737.840          53.250    21968520.980    91305752.859       -2905.535          48.750  
R01  21804501.440   116557566.156       -3606.941          49.250    21804512.380    90655907.203       -2805.281          47.250  
R03  21427545.700   114703357.512        3497.527          52.250    21427552.680    89213724.734        2720.305          48.750  
C37  24746320.020   128860582.656        2900.773          47.250                                                                  
C07  38965983.820   202906103.035          61.383          43.500    38965984.760   156899858.910          51.133          46.750  
C23  21894622.440   114011047.816         668.227          53.500                                                                  
C25  22939315.320   119451037.910       -2130.738          52.250                                                                  
C32  22058194.100   114862808.656         556.102          53.500                                                                  
C10  38625767.180   201134507.426         463.813          41.500    38625772.980   155529962.336         357.168          47.750  
E04  24837302.640   130520908.273       -1858.879          46.750    24837306.120   100009522.738       -1426.035          51.250  
E09  23548932.480   123750472.691         533.316          51.750    23548934.440    94821784.754         407.984          52.000  
E24  26816293.860   140920598.523        3084.109          41.250    26816297.120   107978112.629        2361.922          46.000  
E31  23963486.240   125928979.703        1295.516          50.500    23963489.660    96491030.816         991.758          51.750  
> 2022 12 06 11 46 36.0000000  0 23       0.000000000000
G13  20525906.260   107864364.383        1538.289          53.750                                                                  
G30  21183781.280   111321514.859       -1661.406          53.500    21183781.620    86744047.805       -1293.469          49.500  
G05  21091006.300   110833989.559       -1036.871          53.250    21091006.140    86364145.109        -808.031          48.250  
G07  23518548.360   123590801.754       -2699.109          48.750    23518548.400    96304515.949       -2103.801          43.500  
G15  22322409.340   117305049.484        3045.578          49.750    22322410.480    91406555.566        2371.906          44.750  
G14  20984781.820   110275767.879        1009.145          51.000                                                                  
G20  22164289.680   116474142.063       -3074.250          48.500                                                                  
R02  19162470.600   102254653.898          96.977          58.000    19162475.360    79531391.738          75.438          52.500  
R13  21001935.460   112149192.637        3288.633          45.500    21001940.880    87227148.566        2558.367          43.750  
R12  19149825.680   102294970.484        -197.277          57.000    19149831.720    79562753.414        -151.910          53.250  
R11  21969219.220   117396876.586       -3736.336          53.250    21969221.660    91308665.391       -2906.270          49.000  
R01  21805177.740   116561181.465       -3606.992          49.250    21805188.400    90658719.109       -2807.449          47.250  
R03  21426893.940   114699867.941        3497.785          52.250    21426900.220    89211010.617        2720.313          48.750  
C37  24745764.380   128857690.199        2899.516          47.250                                                                  
C07  38965973.000   202906047.926          62.871          43.250    38965974.280   156899816.289          49.574          46.750  
C23  21894495.680   114010388.063         667.219          53.250                                                                  
C25  22939725.980   119453176.445       -2130.426          52.250                                                                  
C32  22058088.840   114862260.918         555.320          53.250                                                                  
C10  38625679.340   201134052.273         463.824          41.250    38625685.660   155529610.375         358.211          47.750  
E04  24837658.420   130522777.457       -1860.738          46.750    24837661.860   100010954.965       -1425.559          51.250  
E09  23548832.520   123749947.820         531.473          51.500    23548834.580    94821382.582         408.758          52.250  
E24  26815708.260   140917521.898        3083.020          41.250    26815711.620   107975755.199        2363.754          46.000  
E31  23963241.540   125927693.555        1293.445          50.500    23963244.900    96490045.324         992.152          51.750  
> 2022 12 06 11 46 37.0000000  0 23       0.000000000000
G13  20525615.240   107862835.059        1536.992          53.750                                                                  
G30  21184099.100   111323185.223       -1662.480          53.500    21184099.460    86745349.395       -1295.102          49.500  
G05  21091205.200   110835035.594       -1038.305          53.250    21091205.140    86364960.191        -809.711          48.250  
G07  23519063.480   123593508.816       -2699.023          48.750    23519063.560    96306625.352       -2103.770          43.750  
G15  22321831.620   117302013.031        3044.262          49.500    22321832.640    91404189.496        2371.969          45.000  
G14  20984591.400   110274767.727        1009.141          51.000                                                                  
G20  22164876.440   116477225.227       -3076.695          48.500                                                                  
R02  19162454.120   102254565.781          95.855          57.750    19162458.660    79531323.207          74.621          52.750  
R13  21001321.200   112145913.066        3287.766          45.250    21001327.020    87224597.797        2557.008          43.750  
R12  19149864.120   102295176.563        -198.797          56.750    19149870.280    79562913.688        -154.617          53.500  
R11  21969920.260   117400622.133       -3737.152          53.000    21969922.760    91311578.598       -2906.648          49.000  
R01  21805853.660   116564797.785       -3608.793          49.000    21805865.300    90661531.797       -2805.879          47.250  
R03  21426242.600   114696379.270        3496.836          52.500    21426248.920    89208297.207        2718.859          48.750  
C37  24745209.300   128854798.531        2898.977          47.250                                                                  
C07  38965962.540   202905993.551          62.582          43.250    38965964.020   156899774.254          49.875          46.750  
C23  21894369.080   114009729.344         667.160          53.000                                                                  
C25  22940136.780   119455315.855       -2131.668          52.250                                                                  
C32  22057983.960   114861714.266         554.441          53.250                                                                  
C10  38625592.120   201133597.836         463.973          41.250    38625598.460   155529258.977         358.078          47.500  
E04  24838014.180   130524647.469       -1860.875          46.500    24838017.700   100012387.832       -1426.727          51.250  
E09  23548732.820   123749423.816         531.926          51.500    23548734.860    94820981.066         407.250          52.250  
E24  26815123.300   140914445.992        3083.398          41.250    26815126.280   107973398.348        2362.629          46.000  
E31  23962997.080   125926408.434        1292.520          50.500    23963000.360    96489060.617         990.992          51.750  
> 2022 12 06 11 46 38.0000000  0 23       0.000000000000
G13  20525324.200   107861305.457        1537.625          53.750                                                                  
G30  21184416.940   111324855.266       -1663.383          53.500    21184417.080    86746650.719       -1295.332          49.500  
G05  21091404.240   110836081.645       -1039.789          53.250    21091404.300    86365775.297        -809.027          48.250  
G07  23519578.600   123596215.332       -2699.215          48.500    23519579.060    96308734.316       -2104.449          44.000  
G15  22321253.540   117298976.172        3043.711          49.750    22321254.860    91401823.109        2371.559          45.000  
G14  20984400.900   110273767.555        1006.012          51.000                                                                  
G20  22165463.020   116480308.094       -3076.516          48.250                                                                  
R02  19162437.720   102254477.785          94.539          57.750    19162442.500    79531254.758          74.328          52.750  
R13  21000706.700   112142633.324        3286.250          45.250    21000713.200    87222046.906        2554.863          43.750  
R12  19149902.560   102295382.750        -199.332          56.750    19149908.720    79563074.063        -155.859          53.250  
R11  21970621.020   117404367.277       -3737.711          53.000    21970623.820    91314491.484       -2907.285          49.000  
R01  21806530.420   116568413.832       -3609.488          49.000    21806540.720    90664344.277       -2806.348          47.250  
R03  21425590.860   114692890.234        3496.566          52.500    21425597.460    89205583.520        2719.242          49.000  
C37  24744653.980   128851906.441        2898.992          47.250                                                                  
C07  38965951.980   202905938.707          62.031          43.500    38965953.440   156899731.836          47.156          46.500  
C23  21894242.420   114009070.434         666.320          53.250                                                                  
C25  22940547.660   119457454.875       -2131.918          52.250                                                                  
C32  22057878.760   114861167.477         553.605          53.250                                                                  
C10  38625504.800   201133142.930         462.496          41.250    38625510.900   155528907.223         357.719          47.250  
E04  24838369.900   130526517.066       -1863.277          46.500    24838373.440   100013820.391       -1426.098          51.250  
E09  23548633.100   123748899.445         532.164          51.750    23548635.060    94820579.277         408.453          52.250  
E24  26814537.800   140911369.574        3082.348          41.250    26814540.780   107971041.090        2360.691          46.250  
E31  23962752.480   125925123.090        1292.738          50.500    23962755.740    96488075.758         990.691          51.750  
> 2022 12 06 11 46 39.0000000  0 23       0.000000000000
G13  20525033.240   107859776.434        1535.590          54.000                                                                  
G30  21184734.940   111326525.852       -1663.574          53.750    21184734.860    86747952.469       -1295.543          49.250  
G05  21091603.480   110837128.582       -1040.152          53.750    21091603.500    86366591.094        -809.805          48.250  
G07  23520093.580   123598922.156       -2699.422          48.750    23520094.320    96310843.547       -2104.516          44.000  
G15  22320675.780   117295939.797        3044.469          50.000    22320676.760    91399457.090        2370.590          45.000  
G14  20984210.960   110272768.250        1006.328          51.500                                                                  
G20  22166049.660   116483391.566       -3077.730          48.750                                                                  
R02  19162421.440   102254390.777          93.977          57.750    19162426.560    79531187.090          72.715          52.750  
R13  21000091.900   112139354.336        3284.773          45.000    21000099.380    87219496.590        2557.582          43.750  
R12  19149941.180   102295589.930        -200.543          56.500    19149947.340    79563235.203        -156.078          53.500  
R11  21971322.460   117408112.898       -3738.910          53.250    21971324.700    91317404.738       -2908.188          49.000  
R01  21807206.980   116572030.512       -3609.949          48.750    21807217.400    90667157.254       -2806.215          47.250  
R03  21424939.280   114689401.734        3495.340          52.500    21424945.480    89202870.230        2718.672          48.750  
C37  24744098.660   128849014.797        2897.473          47.250                                                                  
C07  38965941.420   202905884.250          63.180          43.250    38965942.940   156899689.719          48.926          46.500  
C23  21894115.840   114008412.199         665.137          53.000                                                                  
C25  22940958.640   119459594.430       -2133.473          52.250                                                                  
C32  22057773.980   114860621.426         552.707          53.250                                                                  
C10  38625417.240   201132688.410         463.410          41.250    38625423.640   155528555.742         357.063          47.500  
E04  24838725.720   130528387.113       -1863.199          46.500    24838729.340   100015253.281       -1427.148          51.250  
E09  23548533.280   123748375.570         530.246          51.750    23548535.400    94820177.875         407.148          52.250  
E24  26813952.900   140908293.512        3082.754          41.250    26813955.460   107968684.113        2362.402          46.000  
E31  23962508.060   125923838.414        1291.125          50.500    23962511.260    96487091.387         989.094          51.750  
> 2022 12 06 11 46 40.0000000  0 23       0.000000000000
G13  20524742.440   107858248.195        1534.797          54.250                                                                  
G30  21185052.960   111328197.168       -1663.730          54.000    21185052.840    86749254.797       -1297.602          49.250  
G05  21091803.000   110838176.621       -1042.645          54.000    21091802.880    86367407.746        -811.113          48.000  
G07  23520608.720   123601629.516       -2700.621          48.500    23520609.460    96312953.164       -2104.961          44.000  
G15  22320098.240   117292904.074        3043.020          50.000    22320098.860    91397091.602        2371.977          44.750  
G14  20984021.000   110271769.992        1006.289          51.500                                                                  
G20  22166636.540   116486475.801       -3077.996          48.750                                                                  
R02  19162405.340   102254304.891          92.664          57.750    19162410.220    79531120.289          70.891          53.000  
R13  20999477.900   112136076.242        3283.582          45.000    20999485.260    87216946.973        2555.469          44.000  
R12  19149980.400   102295798.297        -201.336          56.500    19149986.500    79563397.270        -156.449          53.500  
R11  21972023.780   117411859.199       -3739.746          53.250    21972025.600    91320318.527       -2909.152          49.250  
R01  21807883.340   116575648.004       -3611.934          48.500    21807893.820    90669970.855       -2806.773          47.250  
R03  21424287.780   114685913.926        3494.859          52.500    21424294.120    89200157.496        2717.746          49.250  
C37  24743543.420   128846123.773        2897.289          47.000                                                                  
C07  38965931.220   202905830.355          60.480          42.750    38965932.240   156899648.047          46.207          46.500  
C23  21893989.640   114007754.816         663.816          52.750                                                                  
C25  22941369.720   119461734.664       -2134.207          51.750                                                                  
C32  22057669.340   114860076.277         550.711          52.750                                                                  
C10  38625330.420   201132234.410         458.988          41.000    38625336.340   155528204.715         356.379          47.500  
E04  24839081.760   130530257.781       -1862.824          46.500    24839085.280   100016686.656       -1427.918          51.500  
E09  23548433.680   123747852.387         529.539          51.500    23548435.760    94819776.992         405.133          52.250  
E24  26813367.480   140905218.027        3083.102          41.500    26813370.260   107966327.578        2361.223          46.000  
E31  23962263.640   125922554.594        1291.086          50.500    23962266.940    96486107.680         987.480          51.750  
> 2022 12 06 11 46 41.0000000  0 23       0.000000000000
G13  20524451.540   107856719.789        1534.000          54.250                                                                  
G30  21185370.940   111329868.277       -1665.523          54.000    21185370.820    86750556.957       -1297.391          49.000  
G05  21092002.540   110839224.797       -1042.992          54.000    21092002.200    86368224.500        -813.172          48.000  
G07  23521123.560   123604336.438       -2702.156          48.250    23521124.940    96315062.441       -2103.727          44.250  
G15  22319520.420   117289868.074        3042.898          50.000    22319521.060    91394725.895        2369.953          44.750  
G14  20983831.060   110270771.844        1003.285          51.500                                                                  
G20  22167223.400   116489559.867       -3080.172          48.750                                                                  
R02  19162389.140   102254219.152          91.102          57.750    19162394.100    79531053.605          71.746          53.000  
R13  20998863.620   112132798.121        3283.934          45.000    20998871.260    87214397.313        2555.336          43.750  
R12  19150019.440   102296006.910        -202.801          56.500    19150025.360    79563559.520        -156.969          53.750  
R11  21972724.920   117415605.211       -3740.645          53.250    21972727.280    91323232.086       -2908.160          49.500  
R01  21808559.420   116579265.359       -3610.957          48.250    21808570.020    90672784.352       -2807.711          47.250  
R03  21423636.100   114682425.848        3493.652          52.500    21423642.960    89197444.543        2716.859          49.250  
C37  24742988.280   128843232.441        2896.121          47.000                                                                  
C07  38965920.960   202905776.113          60.121          43.000    38965921.820   156899606.098          45.266          46.750  
C23  21893863.260   114007097.363         663.105          52.500                                                                  
C25  22941780.840   119463874.648       -2134.297          51.750                                                                  
C32  22057564.660   114859531.113         551.051          52.750                                                                  
C10  38625242.600   201131780.098         461.699          41.000    38625248.960   155527853.391         355.965          47.500  
E04  24839437.580   130532128.180       -1864.598          46.250    24839441.200   100018119.816       -1428.715          51.250  
E09  23548334.060   123747328.953         528.953          51.750    23548336.200    94819375.922         405.453          52.250  
E24  26812782.520   140902142.148        3081.211          41.250    26812784.980   107963970.754        2360.660          46.000  
E31  23962019.200   125921270.664        1289.660          50.750    23962022.640    96485123.898         987.543          51.750  
> 2022 12 06 11 46 42.0000000  0 23       0.000000000000
G13  20524160.600   107855191.477        1533.449          53.750                                                                  
G30  21185688.960   111331539.438       -1666.410          53.500    21185688.700    86751859.152       -1298.617          49.250  
G05  21092202.200   110840273.383       -1043.230          53.750    21092201.940    86369041.574        -814.145          48.250  
G07  23521638.320   123607043.172       -2701.957          48.000    23521640.240    96317171.602       -2103.934          44.500  
G15  22318942.820   117286832.066        3040.586          49.750    22318943.480    91392360.160        2370.219          45.000  
G14  20983641.200   110269774.063        1003.352          51.250                                                                  
G20  22167810.580   116492644.023       -3078.555          48.500                                                                  
R02  19162373.220   102254133.867          90.289          58.000    19162378.280    79530987.273          69.559          52.750  
R13  20998249.920   112129520.195        3283.363          45.250    20998257.020    87211847.824        2552.742          43.250  
R12  19150058.380   102296216.031        -204.020          56.750    19150064.600    79563722.176        -158.770          53.250  
R11  21973425.860   117419351.203       -3741.363          53.250    21973428.120    91326145.637       -2909.441          49.250  
R01  21809235.880   116582882.836       -3610.273          48.250    21809246.300    90675597.938       -2808.492          47.000  
R03  21422984.760   114678937.789        3493.461          52.500    21422991.640    89194731.617        2716.316          49.000  
C37  24742433.140   128840341.070        2896.074          47.500                                                                  
C07  38965910.440   202905721.766          59.223          43.500    38965911.420   156899564.078          45.816          46.500  
C23  21893737.040   114006440.094         661.594          53.000                                                                  
C25  22942191.800   119466014.656       -2135.480          52.250                                                                  
C32  22057460.120   114858986.191         550.816          53.500                                                                  
C10  38625155.360   201131325.656         459.227          41.250    38625161.760   155527501.984         356.488          47.500  
E04  24839793.440   130533998.566       -1865.441          46.250    24839797.120   100019552.953       -1429.820          51.250  
E09  23548234.480   123746805.527         529.258          51.750    23548236.560    94818974.844         404.637          52.250  
E24  26812196.880   140899066.168        3080.953          41.250    26812199.660   107961613.820        2360.551          46.250  
E31  23961774.760   125919986.906        1288.438          50.500    23961778.360    96484140.234         987.680          51.750  
> 2022 12 06 11 46 43.0000000  0 23       0.000000000000
G13  20523868.940   107853658.555        1531.891          53.750                                                                  
G30  21186006.000   111333205.945       -1667.762          53.250    21186005.780    86753157.738       -1299.574          49.250  
G05  21092400.840   110841317.672       -1044.465          53.500    21092400.700    86369855.309        -813.766          48.250  
G07  23522152.320   123609745.059       -2703.102          47.750    23522154.720    96319276.957       -2105.320          44.500  
G15  22318364.020   117283791.324        3040.262          49.500    22318365.080    91389990.766        2368.961          45.000  
G14  20983450.360   110268771.957        1000.344          50.750                                                                  
G20  22168396.820   116495723.598       -3079.395          48.500                                                                  
R02  19162356.260   102254044.305          89.281          57.750    19162361.240    79530917.613          69.086          52.750  
R13  20997635.740   112126237.770        3281.590          45.250    20997642.040    87209294.836        2550.813          43.250  
R12  19150096.980   102296420.863        -205.563          56.750    19150102.900    79563881.484        -159.898          53.250  
R11  21974126.260   117423092.402       -3740.711          53.250    21974128.060    91329055.461       -2909.609          49.250  
R01  21809911.020   116586495.676       -3611.992          48.250    21809922.700    90678407.910       -2810.742          47.000  
R03  21422332.140   114675444.945        3492.480          52.500    21422338.960    89192014.961        2715.766          49.000  
C37  24741876.900   128837444.996        2896.066          47.500                                                                  
C07  38965898.860   202905662.676          58.215          43.250    38965900.200   156899518.371          46.934          46.500  
C23  21893609.880   114005778.348         661.859          52.750                                                                  
C25  22942601.680   119468150.027       -2134.914          52.000                                                                  
C32  22057354.640   114858436.852         549.613          53.000                                                                  
C10  38625067.040   201130866.480         460.504          41.000    38625073.460   155527146.914         354.676          47.500  
E04  24840148.300   130535864.176       -1866.730          46.250    24840152.180   100020982.449       -1428.871          51.250  
E09  23548133.860   123746277.418         527.621          51.750    23548136.060    94818570.191         403.859          52.000  
E24  26811611.140   140895985.340        3082.063          41.250    26811613.340   107959253.195        2359.750          46.250  
E31  23961529.600   125918698.625        1287.738          50.500    23961533.180    96483153.113         987.594          51.750  
> 2022 12 06 11 46 44.0000000  0 23       0.000000000000
G13  20523578.600   107852132.184        1531.320          53.500                                                                  
G30  21186324.420   111334878.957       -1667.422          53.000    21186324.180    86754461.375       -1299.402          49.000  
G05  21092600.860   110842368.813       -1046.000          53.250    21092600.740    86370674.375        -813.633          48.250  
G07  23522667.300   123612453.215       -2700.898          47.250    23522670.200    96321387.207       -2104.809          44.250  
G15  22317786.460   117280757.020        3040.980          49.250    22317787.720    91387626.379        2369.109          44.750  
G14  20983261.020   110267776.660        1000.063          50.500                                                                  
G20  22168983.940   116498809.691       -3081.027          48.250                                                                  
R02  19162340.840   102253961.766          88.137          57.750    19162345.980    79530853.414          68.637          52.750  
R13  20997022.200   112122962.125        3282.242          45.250    20997029.040    87206747.102        2552.102          43.000  
R12  19150136.760   102296632.727        -206.680          56.750    19150142.420    79564046.266        -160.242          53.250  
R11  21974827.140   117426840.137       -3741.867          53.000    21974829.900    91331970.348       -2909.691          49.250  
R01  21810588.160   116590115.168       -3612.738          48.000    21810599.500    90681223.078       -2810.891          46.750  
R03  21421680.600   114671958.691        3490.910          52.250    21421687.680    89189303.438        2716.059          48.750  
C37  24741321.860   128834555.266        2895.074          47.250                                                                  
C07  38965888.400   202905609.859          57.480          43.000    38965890.100   156899477.547          44.477          46.250  
C23  21893484.100   114005123.184         660.281          52.750                                                                  
C25  22943012.960   119470291.789       -2135.980          51.750                                                                  
C32  22057250.480   114857894.141         548.359          53.000                                                                  
C10  38624980.120   201130413.570         459.043          40.750    38624986.260   155526796.703         354.754          47.250  
E04  24840504.680   130537736.227       -1865.500          46.250    24840508.440   100022416.871       -1429.543          51.500  
E09  23548034.720   123745755.762         527.633          51.500    23548036.820    94818170.484         402.867          52.250  
E24  26811026.160   140892910.832        3081.367          41.500    26811028.280   107956897.410        2360.113          46.250  
E31  23961285.620   125917416.957        1287.410          50.500    23961289.280    96482171.059         986.711          51.750  
> 2022 12 06 11 46 45.0000000  0 23       0.000000000000
G13  20523288.280   107850606.242        1531.254          53.500                                                                  
G30  21186642.680   111336552.359       -1667.234          53.000    21186642.720    86755765.332       -1300.164          49.000  
G05  21092801.100   110843420.703       -1046.984          53.250    21092800.800    86371494.027        -815.668          48.000  
G07  23523182.700   123615161.563       -2700.789          47.250    23523185.900    96323497.594       -2105.566          44.500  
G15  22317209.280   117277723.039        3038.781          49.250    22317210.160    91385262.234        2368.363          44.750  
G14  20983071.660   110266782.078         999.836          50.500                                                                  
G20  22169571.180   116501896.242       -3079.922          48.250                                                                  
R02  19162325.200   102253880.027          86.793          57.750    19162330.540    79530789.840          66.844          52.750  
R13  20996408.740   112119687.066        3281.125          45.250    20996414.840    87204199.828        2550.465          42.750  
R12  19150176.640   102296845.465        -207.402          57.000    19150182.260    79564211.727        -160.648          53.250  
R11  21975528.240   117430588.191       -3742.148          53.000    21975531.440    91334885.504       -2911.543          49.250  
R01  21811265.040   116593735.145       -3614.570          48.250    21811277.660    90684038.605       -2811.008          46.750  
R03  21421028.640   114668472.816        3491.438          52.000    21421035.680    89186592.195        2715.617          48.750  
C37  24740766.960   128831665.820        2895.676          47.250                                                                  
C07  38965878.560   202905557.285          58.313          43.000    38965880.140   156899436.887          44.531          46.250  
C23  21893358.320   114004468.535         659.641          52.750                                                                  
C25  22943424.300   119472433.914       -2136.887          51.750                                                                  
C32  22057146.340   114857352.020         548.156          53.000                                                                  
C10  38624893.160   201129960.906         456.172          41.000    38624899.520   155526446.676         353.957          47.000  
E04  24840861.220   130539608.559       -1867.785          46.250    24840864.720   100023851.516       -1430.934          51.500  
E09  23547935.540   123745234.465         526.402          51.500    23547937.620    94817771.047         403.301          52.250  
E24  26810441.060   140889836.543        3080.434          42.000    26810443.280   107954541.809        2358.293          46.250  
E31  23961041.860   125916135.797        1285.727          50.500    23961045.440    96481189.391         985.359          52.000  
> 2022 12 06 11 46 46.0000000  0 23       0.000000000000
G13  20522997.960   107849080.012        1531.004          53.750                                                                  
G30  21186961.100   111338225.445       -1667.980          53.250    21186961.320    86757069.016       -1300.566          49.250  
G05  21093001.400   110844472.605       -1047.273          53.500    21093000.920    86372313.695        -816.309          48.250  
G07  23523698.160   123617869.340       -2701.832          47.250    23523701.200    96325607.543       -2107.211          44.750  
G15  22316631.920   117274688.660        3038.633          49.250    22316632.460    91382897.777        2368.938          44.750  
G14  20982882.320   110265787.488        1000.086          50.750                                                                  
G20  22170158.480   116504982.488       -3083.301          48.500                                                                  
R02  19162309.560   102253798.320          86.188          57.500    19162315.280    79530726.289          66.758          52.750  
R13  20995795.960   112116411.859        3280.191          45.500    20995802.140    87201652.449        2550.293          42.750  
R12  19150216.700   102297058.324        -208.020          57.000    19150222.520    79564377.281        -161.594          53.250  
R11  21976229.920   117434335.840       -3742.445          53.250    21976232.980    91337800.348       -2911.695          49.500  
R01  21811942.400   116597354.855       -3614.906          48.000    21811954.340    90686853.934       -2811.637          46.750  
R03  21420377.020   114664986.582        3490.648          52.000    21420384.460    89183880.684        2714.238          48.500  
C37  24740212.040   128828775.945        2895.051          47.750                                                                  
C07  38965868.400   202905504.238          58.266          43.500    38965869.860   156899395.859          45.434          46.750  
C23  21893232.600   114003813.680         660.105          53.000                                                                  
C25  22943835.620   119474575.672       -2137.250          52.250                                                                  
C32  22057042.260   114856809.750         547.715          53.500                                                                  
C10  38624806.180   201129507.754         456.527          41.000    38624812.660   155526096.262         354.262          47.500  
E04  24841217.520   130541480.473       -1866.266          46.500    24841220.980   100025285.844       -1431.184          51.000  
E09  23547836.360   123744712.781         526.273          51.500    23547838.360    94817371.316         403.590          52.000  
E24  26809856.060   140886761.785        3080.285          41.750    26809858.220   107952185.820        2360.746          46.000  
E31  23960798.000   125914854.426        1286.430          50.500    23960801.600    96480207.555         985.000          51.750  
> 2022 12 06 11 46 47.0000000  0 23       0.000000000000
G13  20522707.580   107847554.066        1530.797          53.500                                                                  
G30  21187279.600   111339898.750       -1668.148          53.250    21187279.780    86758372.895       -1298.629          49.250  
G05  21093201.720   110845525.094       -1047.422          53.250    21093201.200    86373133.820        -815.043          48.000  
G07  23524213.120   123620577.125       -2700.047          47.000    23524216.760    96327717.512       -2106.508          44.500  
G15  22316054.400   117271654.430        3038.895          49.250    22316055.040    91380533.461        2366.633          44.750  
G14  20982693.320   110264793.445         998.613          50.750                                                                  
G20  22170745.940   116508069.008       -3082.512          48.500                                                                  
R02  19162294.440   102253717.254          85.797          57.500    19162299.800    79530663.238          66.234          52.750  
R13  20995184.020   112113137.086        3279.680          45.500    20995188.320    87199105.414        2551.422          42.500  
R12  19150256.820   102297271.867        -209.336          56.750    19150262.280    79564543.371        -161.609          53.000  
R11  21976931.240   117438083.652       -3742.438          53.000    21976934.380    91340715.313       -2910.758          49.500  
R01  21812620.200   116600974.863       -3614.371          48.000    21812631.700    90689669.496       -2812.363          46.500  
R03  21419725.520   114661500.563        3490.715          51.750    21419733.020    89181169.336        2714.973          48.250  
C37  24739657.080   128825886.215        2895.242          47.500                                                                  
C07  38965858.220   202905451.258          57.961          43.250    38965859.580   156899354.914          44.574          46.750  
C23  21893107.020   114003159.207         658.727          53.000                                                                  
C25  22944246.960   119476717.621       -2137.852          52.000                                                                  
C32  22056938.280   114856267.902         545.844          53.250                                                                  
C10  38624718.980   201129054.695         458.902          41.000    38624725.600   155525745.930         352.484          47.500  
E04  24841573.840   130543352.551       -1869.086          46.250    24841577.240   100026720.293       -1430.188          51.000  
E09  23547737.080   123744191.297         526.340          51.500    23547739.100    94816971.738         402.262          52.000  
E24  26809271.200   140883687.055        3079.055          41.750    26809273.080   107949829.859        2359.648          46.000  
E31  23960554.220   125913573.398        1285.648          50.500    23960557.820    96479225.996         984.828          51.500  
> 2022 12 06 11 46 48.0000000  0 23       0.000000000000
G13  20522417.260   107846027.855        1530.492          53.750                                                                  
G30  21187597.920   111341571.750       -1669.422          53.250    21187598.140    86759676.535       -1300.715          49.000  
G05  21093402.160   110846577.629       -1048.820          53.750    21093401.560    86373953.980        -817.648          47.750  
G07  23524728.220   123623284.391       -2701.789          47.250    23524732.020    96329827.055       -2106.324          44.500  
G15  22315477.180   117268619.848        3038.660          49.500    22315477.520    91378168.832        2368.840          44.500  
G14  20982504.320   110263799.418         998.672          51.000                                                                  
G20  22171333.380   116511155.285       -3082.563          48.750                                                                  
R02  19162279.460   102253636.332          85.855          57.500    19162284.980    79530600.297          66.281          52.750  
R13  20994570.220   112109862.141        3279.883          45.500    20994574.500    87196558.223        2551.805          42.500  
R12  19150296.980   102297485.543        -210.000          56.750    19150302.000    79564709.559        -162.559          53.250  
R11  21977632.720   117441831.094       -3742.523          53.000    21977636.000    91343629.980       -2910.496          49.750  
R01  21813297.140   116604594.625       -3615.461          48.000    21813308.580    90692484.852       -2811.551          46.500  
R03  21419073.940   114658014.199        3490.930          51.750    21419081.520    89178457.727        2714.766          48.250  
C37  24739102.080   128822996.070        2895.469          47.500                                                                  
C07  38965847.760   202905397.863          59.016          43.250    38965849.340   156899313.598          45.098          47.000  
C23  21892981.320   114002504.566         658.953          53.000                                                                  
C25  22944658.140   119478859.242       -2137.996          52.000                                                                  
C32  22056834.280   114855725.945         546.410          53.250                                                                  
C10  38624632.160   201128601.145         458.023          41.000    38624638.340   155525395.223         353.957          47.500  
E04  24841930.100   130545224.227       -1867.742          46.250    24841933.420   100028154.426       -1430.707          51.000  
E09  23547637.780   123743669.473         527.492          51.500    23547639.800    94816571.895         403.758          52.000  
E24  26808685.700   140880611.852        3078.422          41.750    26808687.880   107947473.551        2360.004          46.000  
E31  23960310.420   125912292.191        1285.094          50.500    23960313.980    96478244.289         984.957          51.500  
> 2022 12 06 11 46 49.0000000  0 23       0.000000000000
G13  20522126.800   107844501.723        1529.988          53.750                                                                  
G30  21187916.040   111343244.793       -1668.625          53.250    21187916.660    86760980.191       -1299.418          49.000  
G05  21093602.640   110847630.555       -1048.461          53.750    21093601.800    86374774.441        -817.473          47.750  
G07  23525243.360   123625991.461       -2702.332          47.250    23525247.180    96331936.469       -2105.484          44.250  
G15  22314899.700   117265585.215        3039.176          49.500    22314900.040    91375804.176        2367.402          44.500  
G14  20982315.420   110262805.734         997.668          51.000                                                                  
G20  22171920.680   116514241.629       -3081.852          49.000                                                                  
R02  19162264.200   102253555.883          84.988          57.500    19162269.640    79530537.723          66.031          52.750  
R13  20993957.460   112106587.418        3278.820          45.750    20993960.840    87194011.219        2550.457          42.500  
R12  19150336.940   102297699.676        -209.938          56.750    19150342.040    79564876.105        -162.496          53.250  
R11  21978333.560   117445578.492       -3743.125          53.000    21978337.040    91346544.625       -2911.285          49.750  
R01  21813974.440   116608214.484       -3614.684          48.250    21813985.340    90695300.301       -2810.551          46.500  
R03  21418422.820   114654527.840        3491.652          51.750    21418429.940    89175746.105        2714.809          48.250  
C37  24738547.020   128820105.883        2895.906          47.500                                                                  
C07  38965837.480   202905344.313          58.441          43.250    38965839.160   156899272.191          46.438          46.750  
C23  21892855.700   114001850.090         659.051          53.000                                                                  
C25  22945069.320   119481000.855       -2138.016          52.000                                                                  
C32  22056730.240   114855184.215         546.656          53.250                                                                  
C10  38624545.360   201128147.477         458.066          40.750    38624551.200   155525044.406         352.551          47.500  
E04  24842286.340   130547095.848       -1866.773          46.500    24842289.600   100029588.527       -1431.105          51.000  
E09  23547538.520   123743147.633         525.867          51.500    23547540.460    94816172.039         403.027          52.000  
E24  26808101.020   140877536.527        3079.797          42.000    26808102.620   107945117.109        2359.395          46.000  
E31  23960066.680   125911011.133        1285.496          50.500    23960070.200    96477262.691         985.125          51.500  
> 2022 12 06 11 46 50.0000000  0 23       0.000000000000
G13  20521836.400   107842975.184        1530.984          53.750                                                                  
G30  21188234.360   111344917.375       -1668.418          53.250    21188234.940    86762283.504       -1300.246          49.000  
G05  21093802.940   110848683.359       -1048.246          53.750    21093802.180    86375594.797        -815.410          47.750  
G07  23525758.180   123628697.852       -2701.219          47.250    23525762.020    96334045.332       -2105.137          44.500  
G15  22314322.100   117262550.070        3039.934          49.500    22314322.400    91373439.125        2368.211          44.500  
G14  20982126.340   110261811.926         997.406          51.000                                                                  
G20  22172508.040   116517327.570       -3081.246          49.000                                                                  
R02  19162249.020   102253475.363          84.184          57.500    19162254.560    79530475.094          65.129          52.250  
R13  20993344.320   112103312.387        3277.918          45.750    20993348.200    87191463.980        2551.828          42.250  
R12  19150376.760   102297913.805        -210.043          56.750    19150382.000    79565042.645        -164.074          52.750  
R11  21979035.000   117449325.348       -3742.480          53.000    21979038.460    91349458.848       -2910.980          49.500  
R01  21814651.460   116611833.949       -3614.922          48.250    21814662.280    90698115.445       -2811.418          46.250  
R03  21417771.860   114651040.988        3491.238          52.000    21417778.340    89173034.121        2715.770          48.000  
C37  24737991.680   128817215.125        2895.070          47.750                                                                  
C07  38965826.760   202905290.156          57.664          43.500    38965828.840   156899230.328          44.660          46.750  
C23  21892729.940   114001195.281         659.023          53.250                                                                  
C25  22945480.460   119483141.977       -2137.926          52.250                                                                  
C32  22056626.080   114854642.215         545.430          53.750                                                                  
C10  38624458.140   201127693.184         457.891          41.500    38624464.120   155524693.121         354.676          47.500  
E04  24842642.720   130548966.934       -1867.250          46.500    24842645.640   100031022.215       -1430.047          51.000  
E09  23547439.160   123742625.297         527.664          51.500    23547441.020    94815771.816         402.898          51.750  
E24  26807515.400   140874460.535        3079.883          42.000    26807517.320   107942760.211        2357.988          46.000  
E31  23959822.820   125909729.738        1285.785          50.500    23959826.320    96476280.852         985.543          51.500  
> 2022 12 06 11 46 51.0000000  0 23       0.000000000000
G13  20521546.040   107841449.090        1530.633          54.250                                                                  
G30  21188552.700   111346590.344       -1668.270          53.500    21188553.440    86763587.125       -1299.504          49.000  
G05  21094003.420   110849736.914       -1048.492          54.000    21094002.640    86376415.766        -816.852          47.750  
G07  23526273.400   123631404.422       -2701.992          47.750    23526276.980    96336154.352       -2104.582          44.250  
G15  22313744.640   117259515.246        3039.848          50.000    22313744.760    91371074.352        2368.453          44.250  
G14  20981937.260   110260818.832         998.281          51.500                                                                  
G20  22173095.440   116520413.938       -3082.117          49.500                                                                  
R02  19162234.280   102253395.617          84.883          57.750    19162239.420    79530413.070          65.152          52.250  
R13  20992730.960   112100037.949        3278.348          45.750    20992735.040    87188917.180        2550.926          42.250  
R12  19150416.760   102298128.797        -210.082          56.500    19150422.000    79565209.867        -164.008          52.750  
R11  21979736.680   117453072.547       -3742.430          53.250    21979740.060    91352373.336       -2910.605          49.500  
R01  21815328.960   116615453.902       -3615.391          48.250    21815339.340    90700930.949       -2810.688          46.250  
R03  21417120.680   114647554.500        3491.516          52.000    21417127.080    89170322.406        2715.336          48.250  
C37  24737436.460   128814324.664        2897.098          47.750                                                                  
C07  38965816.200   202905236.293          58.418          43.250    38965818.400   156899188.660          44.844          46.500  
C23  21892604.340   114000541.004         658.566          53.000                                                                  
C25  22945891.620   119485283.457       -2137.004          52.000                                                                  
C32  22056522.100   114854100.805         546.438          53.500                                                                  
C10  38624370.760   201127239.156         460.473          41.000    38624376.780   155524342.043         355.246          47.250  
E04  24842998.800   130550838.332       -1866.902          46.500    24843001.740   100032456.141       -1430.219          51.000  
E09  23547339.780   123742103.316         526.672          51.500    23547341.740    94815371.859         403.332          51.750  
E24  26806930.040   140871384.797        3080.305          42.000    26806932.120   107940403.477        2361.402          46.000  
E31  23959579.160   125908448.848        1285.859          50.500    23959582.560    96475299.391         986.020          51.500  
> 2022 12 06 11 46 52.0000000  0 23       0.000000000000
G13  20521255.760   107839923.402        1530.379          54.250                                                                  
G30  21188870.960   111348263.703       -1667.746          53.500    21188871.900    86764891.043       -1300.180          49.000  
G05  21094204.020   110850791.203       -1049.266          54.000    21094203.160    86377237.281        -818.738          47.750  
G07  23526788.360   123634111.141       -2700.668          48.000    23526791.740    96338263.488       -2103.742          44.250  
G15  22313167.140   117256480.734        3040.195          50.250    22313167.160    91368709.789        2369.945          44.250  
G14  20981748.360   110259826.434         997.293          51.500                                                                  
G20  22173682.900   116523500.734       -3081.727          49.500                                                                  
R02  19162219.560   102253316.660          84.020          58.000    19162224.700    79530351.652          65.379          52.500  
R13  20992118.660   112096764.051        3279.559          45.750    20992121.560    87186370.820        2551.914          42.500  
R12  19150456.560   102298344.613        -210.805          56.500    19150462.560    79565377.723        -163.023          53.000  
R11  21980438.180   117456820.047       -3741.500          53.250    21980441.180    91355288.066       -2911.641          49.750  
R01  21816006.240   116619074.305       -3614.766          48.250    21816016.000    90703746.820       -2809.547          46.250  
R03  21416469.040   114644068.348        3491.414          52.250    21416476.400    89167610.953        2714.410          48.250  
C37  24736881.480   128811434.488        2895.113          47.250                                                                  
C07  38965806.300   202905182.617          60.430          42.750    38965808.300   156899147.188          45.852          46.500  
C23  21892478.760   113999887.238         658.734          52.750                                                                  
C25  22946302.780   119487425.270       -2136.277          51.500                                                                  
C32  22056418.240   114853559.945         545.605          53.000                                                                  
C10  38624283.600   201126785.328         457.051          40.750    38624289.460   155523991.137         354.941          47.000  
E04  24843355.020   130552710.012       -1867.223          46.500    24843357.860   100033890.293       -1430.734          50.750  
E09  23547240.500   123741581.668         527.180          51.500    23547242.400    94814972.172         403.496          51.750  
E24  26806345.020   140868309.230        3080.691          42.250    26806346.800   107938046.887        2359.004          45.750  
E31  23959335.380   125907168.457        1286.469          50.500    23959338.800    96474318.324         984.332          51.250  
> 2022 12 06 11 46 53.0000000  0 23       0.000000000000
G13  20520965.240   107838396.758        1530.965          54.250                                                                  
G30  21189189.200   111349936.055       -1667.328          53.500    21189190.380    86766194.164       -1299.273          49.000  
G05  21094404.520   110851844.832       -1048.984          54.000    21094403.720    86378058.285        -818.785          47.750  
G07  23527303.280   123636816.648       -2699.680          48.250    23527307.060    96340371.660       -2104.730          44.250  
G15  22312589.460   117253445.145        3040.750          50.000    22312589.620    91366344.395        2368.359          44.250  
G14  20981559.500   110258833.348         997.117          51.500                                                                  
G20  22174270.280   116526586.578       -3082.188          49.500                                                                  
R02  19162204.900   102253237.133          83.883          58.000    19162209.820    79530289.793          63.613          52.500  
R13  20991504.800   112093489.340        3279.152          45.750    20991508.540    87183823.816        2550.563          42.500  
R12  19150496.800   102298559.867        -210.859          56.500    19150503.000    79565545.141        -164.641          53.000  
R11  21981138.840   117460566.473       -3742.277          53.000    21981142.540    91358201.945       -2911.344          50.000  
R01  21816682.780   116622693.777       -3614.531          48.500    21816693.080    90706561.957       -2811.629          46.250  
R03  21415817.580   114640581.152        3491.523          52.250    21415824.000    89164898.699        2715.699          48.250  
C37  24736326.240   128808543.227        2895.102          47.250                                                                  
C07  38965795.820   202905127.805          59.910          43.000    38965797.980   156899104.773          45.777          46.500  
C23  21892353.000   113999232.621         658.535          52.750                                                                  
C25  22946713.840   119489566.070       -2136.684          51.500                                                                  
C32  22056314.300   114853018.301         546.105          53.000                                                                  
C10  38624195.920   201126330.371         458.863          40.500    38624202.300   155523639.316         353.910          47.000  
E04  24843710.980   130554580.605       -1867.219          46.750    24843713.840   100035323.590       -1430.246          50.750  
E09  23547141.040   123741058.984         526.668          51.500    23547142.960    94814571.660         404.211          51.750  
E24  26805759.520   140865232.516        3081.738          42.000    26805761.340   107935689.406        2361.828          45.750  
E31  23959091.600   125905887.184        1285.039          50.500    23959095.000    96473336.551         984.555          51.250  
> 2022 12 06 11 46 54.0000000  0 23       0.000000000000
G13  20520673.920   107836865.969        1530.063          54.250                                                                  
G30  21189506.580   111351604.211       -1667.922          53.500    21189507.920    86767494.023       -1300.359          49.250  
G05  21094604.240   110852894.625       -1051.129          54.000    21094603.540    86378876.313        -817.680          47.750  
G07  23527817.480   123639517.730       -2700.676          48.250    23527821.160    96342476.406       -2105.637          44.500  
G15  22312011.020   117250405.285        3038.910          50.000    22312011.280    91363975.676        2367.508          44.500  
G14  20981369.860   110257836.391         996.293          51.750                                                                  
G20  22174856.800   116529668.270       -3081.434          49.750                                                                  
R02  19162189.260   102253153.773          83.000          58.000    19162194.140    79530224.965          64.488          52.500  
R13  20990890.820   112090210.535        3279.742          45.750    20990893.740    87181273.633        2549.609          42.500  
R12  19150536.320   102298771.293        -212.121          56.500    19150542.700    79565709.586        -166.160          53.000  
R11  21981838.840   117464308.555       -3743.105          53.000    21981843.200    91361112.441       -2910.035          50.250  
R01  21817358.740   116626309.055       -3615.586          48.250    21817369.040    90709373.840       -2812.668          46.000  
R03  21415165.520   114637089.660        3490.980          52.250    21415171.640    89162183.086        2715.137          48.500  
C37  24735770.180   128805647.691        2895.559          47.000                                                                  
C07  38965784.660   202905068.660          58.344          42.500    38965786.700   156899059.051          45.918          46.250  
C23  21892226.400   113998573.969         658.328          52.500                                                                  
C25  22947124.120   119491702.660       -2136.984          51.250                                                                  
C32  22056209.440   114852472.684         545.117          52.750                                                                  
C10  38624107.940   201125871.094         459.055          40.250    38624113.840   155523284.164         355.176          47.000  
E04  24844066.360   130556446.910       -1865.000          46.750    24844068.980   100036753.621       -1429.117          51.000  
E09  23547040.720   123740532.063         526.535          51.500    23547042.680    94814167.910         403.734          51.750  
E24  26805173.080   140862151.402        3079.199          42.500    26805175.080   107933328.570        2358.898          45.750  
E31  23958847.060   125904601.820        1284.598          50.750    23958850.400    96472351.672         984.891          51.250  
> 2022 12 06 11 46 55.0000000  0 23       0.000000000000
G13  20520383.640   107835340.137        1530.609          54.500                                                                  
G30  21189824.840   111353277.289       -1668.051          53.500    21189826.360    86768797.715       -1299.086          49.500  
G05  21094804.940   110853949.688       -1049.805          54.000    21094804.340    86379698.430        -819.383          47.750  
G07  23528332.640   123642223.508       -2700.230          48.500    23528335.920    96344584.813       -2103.996          44.250  
G15  22311433.720   117247370.301        3039.918          50.250    22311433.740    91361610.758        2367.840          44.500  
G14  20981180.940   110256844.668         996.219          51.500                                                                  
G20  22175444.320   116532754.926       -3081.207          50.000                                                                  
R02  19162174.920   102253075.859          82.863          57.750    19162179.280    79530164.359          63.422          52.500  
R13  20990277.340   112086936.934        3278.445          45.250    20990280.940    87178727.531        2550.961          42.500  
R12  19150577.220   102298988.152        -212.254          56.500    19150583.320    79565878.258        -165.211          53.000  
R11  21982540.160   117468055.566       -3741.668          52.750    21982544.420    91364026.777       -2909.762          50.250  
R01  21818035.940   116629929.402       -3614.816          47.750    21818045.700    90712189.672       -2813.992          45.750  
R03  21414514.380   114633603.152        3491.633          52.000    21414520.380    89159471.363        2715.480          48.500  
C37  24735214.840   128802756.949        2896.648          47.000                                                                  
C07  38965774.140   202905014.285          59.918          43.000    38965775.980   156899016.988          46.492          46.250  
C23  21892100.840   113997920.340         657.891          52.750                                                                  
C25  22947535.240   119493844.105       -2136.398          51.500                                                                  
C32  22056105.700   114851932.137         544.680          53.000                                                                  
C10  38624020.620   201125416.520         458.578          40.500    38624026.760   155522932.668         355.656          47.000  
E04  24844422.680   130558318.059       -1865.742          46.750    24844425.080   100038187.355       -1430.109          50.750  
E09  23546941.360   123740010.023         526.895          51.500    23546943.320    94813767.902         404.109          51.750  
E24  26804587.680   140859075.059        3082.270          42.500    26804589.720   107930971.355        2361.957          45.750  
E31  23958603.440   125903321.516        1285.742          50.750    23958606.760    96471370.656         985.023          51.250  
> 2022 12 06 11 46 56.0000000  0 23       0.000000000000
G13  20520093.200   107833814.109        1529.660          54.250                                                                  
G30  21190143.060   111354950.125       -1668.156          53.500    21190144.900    86770101.223       -1300.645          49.500  
G05  21095005.600   110855004.871       -1050.215          53.750    21095005.180    86380520.652        -820.527          48.000  
G07  23528847.800   123644928.828       -2700.445          48.500    23528850.620    96346692.848       -2103.969          44.500  
G15  22310856.120   117244334.984        3038.777          50.250    22310855.980    91359245.586        2368.277          44.500  
G14  20980992.340   110255853.020         996.039          51.500                                                                  
G20  22176031.960   116535841.379       -3082.242          50.000                                                                  
R02  19162160.520   102252998.082          82.102          58.000    19162164.600    79530103.871          63.648          52.500  
R13  20989664.000   112083663.289        3277.570          45.000    20989667.960    87176181.355        2550.387          42.500  
R12  19150618.280   102299205.215        -212.758          56.750    19150623.900    79566047.086        -165.105          53.250  
R11  21983241.340   117471802.242       -3742.121          52.750    21983245.440    91366940.863       -2910.734          50.250  
R01  21818713.400   116633549.566       -3615.336          48.000    21818722.660    90715005.348       -2812.035          45.750  
R03  21413862.880   114630116.355        3491.215          52.000    21413869.460    89156759.414        2714.102          48.500  
C37  24734659.900   128799865.863        2895.090          47.000                                                                  
C07  38965763.420   202904959.512          57.930          42.750    38965765.460   156898974.641          46.430          46.500  
C23  21891975.320   113997266.594         657.449          52.750                                                                  
C25  22947946.440   119495985.270       -2136.984          51.500                                                                  
C32  22056001.800   114851391.531         545.043          53.000                                                                  
C10  38623933.240   201124961.566         458.211          40.750    38623939.400   155522580.852         356.336          47.000  
E04  24844778.820   130560188.883       -1867.387          47.000    24844781.060   100039620.836       -1429.723          51.000  
E09  23546841.920   123739487.695         526.887          51.500    23546843.960    94813367.676         403.527          52.000  
E24  26804002.600   140855998.309        3082.180          42.750    26804004.280   107928613.848        2361.000          46.000  
E31  23958359.880   125902041.074        1284.730          50.750    23958363.080    96470389.543         984.230          51.500  
> 2022 12 06 11 46 57.0000000  0 23       0.000000000000
G13  20519802.800   107832288.316        1529.340          54.250                                                                  
G30  21190461.420   111356623.160       -1668.895          53.250    21190463.340    86771404.898       -1301.016          49.750  
G05  21095206.420   110856060.609       -1051.570          53.750    21095205.980    86381343.301        -819.828          47.750  
G07  23529362.880   123647634.109       -2701.680          48.500    23529365.300    96348800.855       -2103.789          44.250  
G15  22310278.660   117241299.801        3039.172          50.000    22310278.320    91356880.488        2367.195          44.250  
G14  20980803.720   110254861.898         993.574          51.250                                                                  
G20  22176619.640   116538928.082       -3084.039          50.000                                                                  
R02  19162146.000   102252920.875          81.496          58.000    19162150.040    79530043.820          63.559          52.500  
R13  20989050.380   112080390.012        3275.793          45.250    20989055.580    87173635.461        2548.891          42.500  
R12  19150659.480   102299422.930        -214.168          57.000    19150664.660    79566216.418        -167.004          53.250  
R11  21983942.140   117475549.055       -3742.660          52.500    21983947.040    91369855.055       -2910.727          50.500  
R01  21819390.240   116637169.996       -3616.035          47.750    21819399.540    90717821.223       -2814.652          45.750  
R03  21413211.280   114626629.719        3490.441          52.000    21413218.300    89154047.586        2714.820          48.750  
C37  24734104.680   128796974.879        2894.582          47.250                                                                  
C07  38965753.000   202904904.777          58.645          42.500    38965754.920   156898932.309          46.164          46.500  
C23  21891849.840   113996613.176         657.371          52.750                                                                  
C25  22948357.700   119498126.578       -2138.684          51.500                                                                  
C32  22055898.100   114850851.316         543.320          53.000                                                                  
C10  38623845.820   201124506.664         457.750          40.500    38623852.140   155522229.078         354.875          47.250  
E04  24845135.040   130562059.797       -1866.473          47.000    24845137.060   100041054.398       -1430.352          51.250  
E09  23546742.560   123738965.531         526.449          51.500    23546744.580    94812967.578         403.781          52.000  
E24  26803417.140   140852921.555        3080.152          42.750    26803418.820   107926256.348        2361.219          46.250  
E31  23958116.320   125900760.953        1283.891          50.750    23958119.460    96469408.676         984.016          51.500  
