     3.04           OBSERVATION DATA    M: Mixed            RINEX VERSION / TYPE
sbp2rinex v2.3 (RTKL                    20240410 141434 UTC PGM / RUN BY / DATE 
format: Swift Navigation SBP-JSON, option:                  COMMENT             
log: .\swift-gnss-20240410-130031.sbp.json                  COMMENT             
                                                            MARKER NAME         
                                                            MARKER NUMBER       
                                                            MARKER TYPE         
                                                            OBSERVER / AGENCY   
                                                            REC # / TYPE / VERS 
                                                            ANT # / TYPE        
  4388883.3571   924301.8656  4519457.8017                  APPROX POSITION XYZ 
        0.0000        0.0000        0.0000                  ANTENNA: DELTA H/E/N
G    8 C1C L1C D1C S1C C2S L2S D2S S2S                      SYS / # / OBS TYPES 
R    8 C1C L1C D1C S1C C2C L2C D2C S2C                      SYS / # / OBS TYPES 
E    8 C1B L1B D1B S1B C7I L7I D7I S7I                      SYS / # / OBS TYPES 
C    8 C2I L2I D2I S2I C7I L7I D7I S7I                      SYS / # / OBS TYPES 
  2024    04    10    11    00   48.0000000     GPS         TIME OF FIRST OBS   
  2024    04    10    11    06   42.0000000     GPS         TIME OF LAST OBS    
G L1C                                                       SYS / PHASE SHIFT   
G L2S  0.00000                                              SYS / PHASE SHIFT   
R L1C                                                       SYS / PHASE SHIFT   
R L2C                                                       SYS / PHASE SHIFT   
E L1B                                                       SYS / PHASE SHIFT   
E L7I                                                       SYS / PHASE SHIFT   
C L2I                                                       SYS / PHASE SHIFT   
C L7I                                                       SYS / PHASE SHIFT   
  5 R12 -1 R13 -2 R21  4 R22 -3 R23  3                      GLONASS SLOT / FRQ #
 C1C    0.000 C1P    0.000 C2C    0.000 C2P    0.000        GLONASS COD/PHS/BIS 
                                                            END OF HEADER       
> 2024 04 10 11 00 48.0000000  0 21       0.000000000000
G28  22164210.180   116473708.195       -2649.152          41.000    22164220.160    90758761.387       -2065.148          47.000  
G18  21186116.140   111333799.570        2022.734          49.500    21186121.540    86753635.273        1575.465          50.000  
G29  21087820.760   110817237.332       -1658.621          55.500    21087821.360    86351102.387       -1293.828          48.500  
G31  21625330.520   113641896.547       -1026.637          45.250    21625335.040    88552157.6561       -801.484          38.750  
G05  23314201.480   122516957.0471        714.133          44.000    23314205.340    95467789.8791        556.711          46.000  
G26  21141615.360   111099928.629        2019.371          46.250    21141620.120    86571375.820        1575.461          44.750  
G25                                                                  22905046.580    93792334.6951      -2542.309          34.000  
R22  19516982.140   104183014.496       -1687.141          53.000    19516989.780    81031233.215       -1312.090          54.500  
R13  19765568.760   105547127.434        1977.887          37.250                                                                  
R12  19544304.460   104402203.203       -1757.195          52.000    19544313.300    81201717.840       -1365.266          52.250  
R23  20072930.200   107376689.914        2251.699          47.250                                                                  
C23  24198778.740   126009355.9771      -3025.680          45.250                                                                  
C28  21600114.640   112477464.383         697.227          51.500                                                                  
C37  22178361.160   115488553.082        -410.395          48.000                                                                  
C08  38336465.440   199628040.770         198.660          45.250    38336465.660   154365050.672         154.176          45.250  
C13  37993137.120   197840237.758         619.313          46.000    37993146.940   152982658.711         479.934          45.750  
E15  25862968.740   135910837.738       -2303.762          46.250    25862979.240   104139472.957       -1764.691          50.250  
E13  23494414.160   123463990.027         382.512          52.750    23494418.880    94602273.281         293.039          50.000  
E21  23408821.960   123014171.676         -49.113          51.000    23408826.520    94257620.152         -37.512          51.000  
E27  25786294.820   135507925.3831      -2272.672          39.500    25786304.900   103830750.941       -1741.641          40.000  
E26  25519714.860   134107018.320        2825.207          45.250    25519719.680   102757346.613        2163.301          47.000  
> 2024 04 10 11 00 49.0000000  0 21       0.000000000000
G28  22164717.400   116476369.930       -2651.633          43.000    22164726.440    90760835.430       -2066.754          47.250  
G18  21185733.480   111331788.504        2020.984          49.500    21185738.700    86752068.219        1574.629          49.750  
G29  21088138.280   110818906.922       -1659.453          55.500    21088139.060    86352403.367       -1294.320          48.250  
G31  21625528.200   113642932.723       -1026.816          46.250    21625532.720    88552965.023        -798.801          40.250  
G05  23314068.460   122516253.973         712.699          44.000    23314071.180    95467242.027         555.734          46.000  
G26  21141231.380   111097918.590        2020.473          44.250    21141237.540    86569809.508        1572.086          44.500  
G25                                                                  22905670.100    93794885.938       -2543.484          35.000  
R22  19517299.740   104184712.422       -1686.992          52.500    19517308.400    81032553.836       -1312.246          54.750  
R13  19765202.420   105545162.637        1978.574          37.250    19765212.000    82090660.0943       1535.461          34.750  
R12  19544635.420   104403970.270       -1756.270          51.750    19544644.180    81203092.223       -1366.020          52.000  
R23  20072511.160   107374448.441        2251.863          47.000                                                                  
C23  24199361.620   126012392.125       -3026.766          45.000                                                                  
C28  21599982.780   112476777.492         697.605          51.750                                                                  
C37  22178441.880   115488974.637        -411.863          48.000                                                                  
C08  38336429.160   199627851.402         199.664          45.500    38336428.740   154364904.277         154.820          43.750  
C13  37993020.660   197839628.344         620.082          46.250    37993029.520   152982187.488         479.230          45.500  
E15  25863409.140   135913152.465       -2304.500          45.250    25863419.420   104141246.609       -1764.020          49.500  
E13  23494343.600   123463618.508         381.938          52.750    23494348.060    94601988.605         291.988          50.000  
E21  23408833.040   123014230.816         -47.633          50.750    23408837.820    94257665.480         -37.887          51.000  
E27  25786730.480   135510207.500       -2270.820          41.500    25786739.280   103832499.570       -1739.242          39.500  
E26  25519179.400   134104204.086        2826.070          45.750    25519184.220   102755190.277        2164.758          47.500  
> 2024 04 10 11 00 50.0000000  0 21       0.000000000000
G28  22165224.440   116479031.063       -2651.727          43.500    22165232.740    90762909.027       -2065.914          47.250  
G18  21185350.820   111329777.016        2021.164          49.750    21185355.820    86750500.809        1574.828          49.500  
G29  21088455.900   110820575.855       -1659.422          55.750    21088456.880    86353703.820       -1292.680          48.250  
G31  21625725.760   113643968.500       -1027.172          47.000    21625729.980    88553772.129        -800.543          39.750  
G05  23313934.960   122515550.590         713.867          44.000    23313937.020    95466693.926         557.035          45.750  
G26  21140846.700   111095907.840        2022.969          43.250    21140855.120    86568242.711        1574.422          44.250  
G25                                                                  22906292.160    93797436.629       -2543.027          35.250  
R22  19517617.240   104186409.957       -1687.930          52.000    19517626.420    81033874.164       -1312.375          54.750  
R13  19764834.760   105543197.500        1975.027          37.500    19764843.220    82089131.590        1534.125          35.000  
R12  19544966.340   104405737.105       -1757.035          51.500    19544974.840    81204466.414       -1366.293          52.000  
R23  20072093.120   107372206.574        2253.199          47.500                                                                  
C23  24199944.520   126015427.578       -3024.617          45.250                                                                  
C28  21599850.700   112476090.004         696.875          51.750                                                                  
C37  22178522.680   115489395.711        -412.031          48.500                                                                  
C08  38336392.200   199627661.355         200.258          45.750    38336391.200   154364757.301         154.504          42.750  
C13  37992904.300   197839018.207         620.555          47.000    37992911.560   152981715.691         478.359          45.250  
E15  25863848.860   135915466.492       -2301.375          44.750    25863859.480   104143019.695       -1765.984          49.000  
E13  23494272.800   123463246.477         381.566          53.000    23494277.140    94601703.535         291.789          50.000  
E21  23408844.280   123014289.289         -48.422          51.000    23408848.960    94257710.281         -37.223          51.000  
E27  25787166.000   135512488.816       -2272.289          42.000    25787173.000   103834247.609       -1742.199          38.000  
E26  25518644.040   134101389.086        2824.164          46.750    25518648.500   102753033.340        2163.492          47.500  
> 2024 04 10 11 00 51.0000000  0 21       0.000000000000
G28  22165729.520   116481682.227       -2649.371          44.000    22165736.900    90764974.871       -2066.648          46.500  
G18  21184966.460   111327755.629        2021.375          49.500    21184971.360    86748925.711        1574.715          49.750  
G29  21088771.480   110822234.703       -1658.633          55.500    21088772.480    86354996.426       -1293.926          48.000  
G31  21625921.380   113644994.512       -1025.730          46.750    21625925.080    88554571.617        -801.973          39.250  
G05  23313799.420   122514837.434         712.473          44.750    23313801.120    95466138.219         555.938          45.750  
G26  21140460.940   111093887.129        2020.070          43.250    21140470.420    86566668.105        1575.285          44.250  
G25                                                                  22906913.000    93799979.430       -2542.578          34.250  
R22  19517932.920   104188097.574       -1688.750          52.250    19517942.660    81035186.758       -1312.988          54.500  
R13  19764464.580   105541222.477        1973.535          37.750    19764472.700    82087595.465        1533.707          34.500  
R12  19545295.280   104407494.109       -1757.891          51.750    19545303.660    81205832.965       -1366.336          52.000  
R23  20071672.940   107369954.746        2249.793          48.000                                                                  
C23  24200525.780   126018452.969       -3025.523          45.750                                                                  
C28  21599716.680   112475392.621         696.680          52.000                                                                  
C37  22178601.720   115489807.020        -412.168          48.500                                                                  
C08  38336353.780   199627461.254         201.625          46.250    38336352.900   154364602.551         155.238          43.250  
C13  37992785.780   197838398.012         619.703          47.750    37992791.940   152981236.090         479.184          44.750  
E15  25864287.340   135917770.418       -2302.617          45.000    25864297.700   104144785.039       -1765.074          49.500  
E13  23494200.080   123462864.508         381.879          53.000    23494204.440    94601410.859         292.516          50.000  
E21  23408853.600   123014337.672         -49.012          51.250    23408858.140    94257747.352         -38.008          51.000  
E27  25787597.800   135514759.984       -2270.578          42.250    25787604.900   103835987.852       -1742.020          38.000  
E26  25518106.160   134098563.914        2824.574          46.500    25518110.720   102750868.594        2165.324          47.250  
> 2024 04 10 11 00 52.0000000  0 21       0.000000000000
G28  22166236.340   116484344.129       -2651.008          43.250    22166243.160    90767049.082       -2065.191          46.250  
G18  21184584.020   111325745.117        2021.184          49.500    21184588.780    86747359.086        1574.762          49.500  
G29  21089089.200   110823904.230       -1659.047          55.000    21089090.060    86356297.367       -1293.152          48.000  
G31  21626119.160   113646031.480       -1024.414          47.000    21626121.740    88555379.637        -801.508          38.750  
G05  23313666.320   122514135.328         712.688          44.750    23313666.960    95465591.117         555.613          45.250  
G26  21140077.900   111091877.172        2023.102          42.250    21140087.880    86565101.910        1575.523          43.500  
G25                                                                  22907535.100    93802530.504       -2542.664          34.250  
R22  19518251.280   104189796.348       -1687.516          52.500    19518261.140    81036508.031       -1312.645          54.500  
R13  19764096.240   105539258.711        1975.172          37.250    19764107.660    82086068.066        1534.320          34.750  
R12  19545626.200   104409262.328       -1758.137          51.750    19545635.180    81207208.242       -1368.039          52.000  
R23  20071254.560   107367714.043        2252.383          48.250                                                                  
C23  24201108.920   126021488.816       -3025.098          45.750                                                                  
C28  21599584.900   112474705.887         698.168          51.750                                                                  
C37  22178682.660   115490229.070        -411.969          48.000                                                                  
C08  38336317.240   199627271.645         200.195          46.250    38336316.460   154364455.926         154.523          43.250  
C13  37992668.840   197837788.305         620.941          47.750    37992674.760   152980764.629         479.215          44.750  
E15  25864728.400   135920085.020       -2305.098          45.000    25864738.080   104146558.551       -1765.531          49.750  
E13  23494129.280   123462493.355         382.297          52.750    23494133.940    94601126.469         292.605          49.750  
E21  23408864.520   123014396.723         -49.359          50.750    23408869.380    94257792.609         -36.738          51.000  
E27  25788032.060   135517041.676       -2272.684          42.500    25788039.020   103837736.176       -1739.359          37.750  
E26  25517570.860   134095749.266        2825.176          46.250    25517575.260   102748711.934        2164.313          47.500  
> 2024 04 10 11 00 53.0000000  0 21       0.000000000000
G28  22166742.480   116487005.777       -2652.023          42.750    22166749.760    90769123.055       -2065.195          46.000  
G18  21184201.500   111323734.406        2019.629          49.500    21184205.940    86745792.309        1574.223          49.250  
G29  21089406.580   110825573.250       -1658.895          54.500    21089407.640    86357597.895       -1292.270          48.250  
G31  21626316.620   113647068.363       -1027.254          47.000    21626318.920    88556187.602        -801.781          39.250  
G05  23313532.220   122513433.055         714.703          43.250    23313532.820    95465043.863         554.223          45.250  
G26  21139695.480   111089866.887        2020.445          42.250    21139705.340    86563535.414        1574.168          44.000  
G25                                                                  22908156.860    93805081.059       -2543.395          34.500  
R22  19518569.820   104191494.871       -1688.664          53.250    19518579.460    81037829.117       -1313.816          54.250  
R13  19763729.020   105537294.754        1973.551          37.250    19763740.980    82084540.629        1534.992          35.000  
R12  19545957.040   104411030.477       -1757.023          52.000    19545966.020    81208583.477       -1367.301          52.250  
R23  20070835.800   107365473.234        2251.477          48.500                                                                  
C23  24201691.900   126024524.219       -3024.777          45.500                                                                  
C28  21599453.100   112474018.813         696.531          51.750                                                                  
C37  22178763.720   115490650.930        -412.398          48.250                                                                  
C08  38336280.820   199627081.445         200.535          46.250    38336280.340   154364308.840         155.391          43.500  
C13  37992551.340   197837177.980         620.789          47.500    37992557.800   152980292.672         481.453          45.500  
E15  25865168.520   135922399.023       -2302.797          45.750    25865178.300   104148331.617       -1765.215          49.750  
E13  23494058.540   123462121.891         382.375          52.750    23494063.240    94600841.840         292.305          49.750  
E21  23408875.780   123014455.305         -48.211          51.250    23408880.460    94257837.500         -36.422          51.000  
E27  25788466.540   135519322.844       -2270.953          43.500    25788473.340   103839484.039       -1740.527          38.000  
E26  25517034.640   134092934.164        2825.996          46.250    25517039.480   102746554.918        2164.234          47.250  
> 2024 04 10 11 00 54.0000000  0 21       0.000000000000
G28  22167249.260   116489667.324       -2652.539          43.500    22167256.180    90771196.988       -2066.695          45.250  
G18  21183819.200   111321723.684        2021.039          49.500    21183823.020    86744225.508        1574.594          48.750  
G29  21089724.300   110827242.031       -1659.113          54.000    21089725.480    86358898.250       -1293.012          48.500  
G31  21626514.620   113648105.383       -1027.395          48.000    21626516.320    88556995.641        -800.102          39.500  
G05  23313397.640   122512730.875         712.234          40.000    23313399.260    95464496.648         554.660          45.500  
G26  21139313.900   111087856.516        2020.066          43.750    21139322.760    86561968.840        1574.367          43.500  
G25                                                                  22908778.640    93807631.441       -2540.535          37.000  
R22  19518888.780   104193193.508       -1688.988          54.250    19518897.020    81039150.262       -1312.625          54.000  
R13  19763361.860   105535331.016        1976.020          36.750    19763373.520    82083013.230        1535.801          35.000  
R12  19546287.900   104412798.832       -1758.832          51.750    19546297.640    81209958.863       -1367.711          52.500  
R23  20070417.220   107363232.527        2251.195          49.000                                                                  
C23  24202275.280   126027559.281       -3025.875          45.250                                                                  
C28  21599320.820   112473331.641         697.059          52.000                                                                  
C37  22178845.160   115491072.836        -411.922          49.250                                                                  
C08  38336244.060   199626890.953         199.363          46.750    38336243.700   154364161.508         154.629          44.500  
C13  37992433.680   197836567.332         621.984          47.250    37992440.960   152979820.461         480.324          47.000  
E15  25865609.540   135924712.703       -2304.102          46.000    25865618.440   104150104.473       -1765.750          50.000  
E13  23493987.560   123461750.332         380.871          52.500    23493992.460    94600557.133         292.574          49.750  
E21  23408886.620   123014513.672         -47.355          51.250    23408891.740    94257882.227         -36.699          51.500  
E27  25788901.980   135521603.633       -2271.219          44.500    25788906.920   103841231.605       -1738.883          36.250  
E26  25516499.520   134090118.711        2824.504          46.750    25516503.840   102744397.660        2166.598          47.500  
> 2024 04 10 11 00 55.0000000  0 21       0.000000000000
G28  22167755.400   116492327.785       -2650.996          43.750    22167762.280    90773270.086       -2066.813          45.500  
G18  21183436.760   111319712.016        2021.844          49.250    21183439.900    86742657.980        1574.938          48.750  
G29  21090041.780   110828909.699       -1658.566          53.750    21090042.960    86360197.715       -1292.031          48.500  
G31  21626712.580   113649141.488       -1028.113          48.000    21626713.960    88557803.012        -798.820          39.750  
G05  23313265.120   122512027.910         711.566          41.250    23313265.460    95463948.887         553.883          45.250  
G26  21138931.600   111085844.941        2020.844          44.000    21138939.800    86560401.375        1574.609          42.750  
G25                                                                  22909402.200    93810180.813       -2541.473          38.250  
R22  19519207.480   104194891.273       -1687.480          54.500    19519214.620    81040470.750       -1313.566          53.500  
R13  19762992.860   105533366.402        1976.609          37.250    19763004.400    82081485.172        1536.656          35.250  
R12  19546618.600   104414566.469       -1757.898          51.750    19546628.820    81211333.691       -1367.789          52.500  
R23  20069998.560   107360990.863        2249.930          49.000                                                                  
C23  24202857.920   126030593.133       -3025.918          45.500                                                                  
C28  21599188.400   112472643.371         696.559          51.750                                                                  
C37  22178925.980   115491493.738        -412.301          49.250                                                                  
C08  38336207.360   199626699.219         201.016          47.250    38336206.860   154364013.242         153.508          43.750  
C13  37992315.980   197835955.469         620.559          47.500    37992323.760   152979347.320         480.660          46.500  
E15  25866049.200   135927025.234       -2303.590          46.250    25866058.360   104151876.418       -1764.371          49.000  
E13  23493916.780   123461377.797         381.797          52.500    23493921.520    94600271.668         291.336          49.750  
E21  23408897.460   123014570.898         -47.605          51.250    23408902.800    94257926.066         -37.184          51.500  
E27  25789336.280   135523883.164       -2270.391          45.250    25789340.460   103842978.313       -1738.195          36.250  
E26  25515963.220   134087301.996        2826.098          46.500    25515968.020   102742239.398        2165.539          48.000  
> 2024 04 10 11 00 56.0000000  0 21       0.000000000000
G28  22168262.080   116494987.871       -2648.910          44.500    22168268.640    90775342.891       -2065.164          46.000  
G18  21183053.740   111317700.090        2021.219          49.750    21183056.760    86741090.254        1574.922          48.750  
G29  21090358.740   110830576.898       -1657.520          54.000    21090360.480    86361496.832       -1292.383          48.500  
G31  21626910.040   113650177.449       -1026.000          48.750    21626910.920    88558610.203        -798.707          39.000  
G05  23313130.860   122511324.797         714.320          41.000    23313131.520    95463401.031         554.668          45.250  
G26  21138549.960   111083833.020        2020.891          45.500    21138556.780    86558833.648        1573.691          43.000  
G25                                                                  22910024.500    93812729.813       -2539.859          37.750  
R22  19519525.520   104196588.875       -1687.379          54.250    19519532.360    81041791.094       -1312.945          53.500  
R13  19762625.760   105531401.648        1975.684          36.750    19762636.540    82079957.113        1534.691          34.500  
R12  19546949.000   104416334.031       -1757.441          51.750    19546959.900    81212708.461       -1366.754          52.500  
R23  20069579.260   107358749.035        2251.289          49.000                                                                  
C23  24203439.840   126033626.477       -3024.125          45.750                                                                  
C28  21599055.920   112471954.730         697.941          51.750                                                                  
C37  22179006.920   115491914.410        -411.598          49.500                                                                  
C08  38336170.660   199626506.988         201.438          47.250    38336170.320   154363864.590         154.598          43.250  
C13  37992198.740   197835343.082         621.531          47.500    37992205.940   152978873.789         480.035          46.000  
E15  25866489.600   135929337.320       -2302.672          45.750    25866498.360   104153648.004       -1764.375          49.000  
E13  23493845.820   123461004.934         382.969          52.250    23493850.440    94599985.973         293.059          49.750  
E21  23408908.100   123014627.660         -47.418          50.500    23408913.680    94257969.559         -36.621          51.750  
E27  25789769.540   135526162.117       -2269.043          44.500    25789773.660   103844724.492       -1737.957          36.250  
E26  25515427.320   134084484.715        2825.961          46.500    25515432.060   102740080.707        2165.816          48.250  
> 2024 04 10 11 00 57.0000000  0 21       0.000000000000
G28  22168768.500   116497648.230       -2652.738          43.750    22168774.880    90777415.914       -2066.090          46.250  
G18  21182671.080   111315688.555        2020.379          49.750    21182673.920    86739522.820        1574.324          49.000  
G29  21090675.860   110832244.223       -1658.477          53.750    21090678.120    86362796.043       -1293.168          48.750  
G31  21627107.180   113651213.895       -1025.121          48.250    21627108.420    88559417.836        -802.137          39.500  
G05  23312997.460   122510622.160         712.438          40.750    23312997.820    95462853.504         553.754          45.000  
G26  21138168.000   111081821.313        2019.605          45.500    21138173.940    86557266.086        1572.965          42.750  
G25                                                                  22910646.140    93815278.785       -2543.051          37.000  
R22  19519843.600   104198286.910       -1688.336          54.250    19519850.340    81043111.789       -1314.422          53.500  
R13  19762256.680   105529437.449        1974.664          36.500    19762270.300    82078429.355        1536.270          35.000  
R12  19547280.220   104418102.176       -1759.004          52.000    19547290.660    81214083.676       -1367.098          52.250  
R23  20069160.660   107356507.668        2250.113          49.000                                                                  
C23  24204021.880   126036659.887       -3023.281          45.250                                                                  
C28  21598923.600   112471266.340         697.871          51.500                                                                  
C37  22179087.640   115492335.445        -411.984          49.250                                                                  
C08  38336133.840   199626314.813         201.367          46.750    38336133.120   154363716.004         155.516          43.250  
C13  37992080.940   197834730.703         621.910          47.000    37992088.280   152978400.254         479.848          46.250  
E15  25866929.140   135931649.453       -2301.805          45.750    25866938.380   104155419.633       -1764.500          49.000  
E13  23493774.680   123460632.371         381.867          52.000    23493779.680    94599700.516         292.598          49.750  
E21  23408918.860   123014684.566         -47.855          50.500    23408924.640    94258013.164         -36.238          51.750  
E27  25790202.980   135528441.090       -2270.242          44.000    25790207.140   103846470.707       -1740.512          36.750  
E26  25514891.560   134081667.516        2826.051          47.000    25514896.040   102737922.063        2163.789          48.000  
> 2024 04 10 11 00 58.0000000  0 21       0.000000000000
G28  22169274.220   116500308.883       -2649.633          43.500    22169281.420    90779489.145       -2066.543          46.500  
G18  21182288.460   111313677.383        2019.984          49.750    21182291.260    86737955.676        1574.965          49.500  
G29  21090993.140   110833911.691       -1657.492          53.750    21090995.520    86364095.371       -1292.398          48.750  
G31  21627304.300   113652250.785       -1027.395          48.000    21627305.260    88560225.805        -801.852          39.250  
G05  23312863.900   122509919.980         711.484          42.750    23312864.060    95462306.383         554.656          44.750  
G26  21137784.660   111079809.820        2021.125          44.750    21137791.460    86555698.707        1574.930          43.500  
G25                                                                  22911269.260    93817827.840       -2541.992          37.000  
R22  19520161.360   104199985.383       -1688.762          54.000    19520168.360    81044432.828       -1313.293          53.500  
R13  19761888.880   105527473.688        1969.750          35.750    19761905.340    82076902.004        1535.023          35.000  
R12  19547611.380   104419870.883       -1759.188          52.000    19547621.500    81215459.332       -1368.027          52.000  
R23  20068741.660   107354266.730        2251.227          49.000                                                                  
C23  24204604.380   126039693.387       -3023.188          44.750                                                                  
C28  21598791.400   112470578.184         698.113          51.250                                                                  
C37  22179168.500   115492756.836        -411.609          48.500                                                                  
C08  38336096.960   199626122.680         201.441          46.250    38336096.180   154363567.434         156.367          42.750  
C13  37991963.260   197834118.371         622.297          46.750    37991970.640   152977926.758         481.145          45.750  
E15  25867368.800   135933961.691       -2301.125          45.500    25867378.480   104157191.344       -1764.121          49.000  
E13  23493703.940   123460260.117         381.543          52.250    23493708.860    94599415.273         292.699          49.750  
E21  23408929.920   123014741.629         -47.859          50.750    23408935.400    94258056.887         -36.477          51.750  
E27  25790636.920   135530720.109       -2270.441          44.250    25790641.000   103848216.973       -1739.535          37.250  
E26  25514355.380   134078850.355        2827.352          47.000    25514359.760   102735763.469        2165.691          48.250  
> 2024 04 10 11 00 59.0000000  0 21       0.000000000000
G28  22169780.340   116502971.012       -2651.203          43.000    22169787.900    90781563.543       -2065.227          47.000  
G18  21181905.780   111311667.820        2021.152          49.500    21181909.020    86736389.781        1574.027          49.500  
G29  21091310.620   110835580.551       -1657.512          53.750    21091313.080    86365395.785       -1292.152          48.500  
G31  21627501.720   113653289.367       -1027.648          47.750    21627503.360    88561035.102        -800.918          40.000  
G05  23312731.160   122509219.520         711.098          44.500    23312730.200    95461760.578         554.000          44.500  
G26  21137402.280   111077799.801        2021.688          44.500    21137409.340    86554132.477        1575.379          43.250  
G25                                                                  22911891.620    93820377.938       -2538.945          36.250  
R22  19520480.100   104201685.578       -1688.652          54.000    19520487.040    81045755.199       -1313.441          53.500  
R13  19761520.240   105525511.766        1975.859          35.500    19761538.980    82075376.023        1536.133          35.000  
R12  19547943.420   104421641.398       -1760.188          52.250    19547952.680    81216836.398       -1368.535          52.250  
R23  20068323.300   107352027.508        2249.941          48.750                                                                  
C23  24205186.480   126042728.176       -3023.367          44.750                                                                  
C28  21598659.780   112469891.500         697.727          51.250                                                                  
C37  22179249.700   115493179.797        -412.754          48.500                                                                  
C08  38336060.400   199625931.836         200.594          46.250    38336059.360   154363419.902         157.063          43.000  
C13  37991845.940   197833507.324         621.316          46.500    37991853.460   152977454.289         480.039          45.750  
E15  25867809.500   135936275.281       -2302.984          45.500    25867818.660   104158964.082       -1764.727          49.250  
E13  23493633.560   123459889.395         381.309          52.500    23493638.240    94599131.230         292.695          50.000  
E21  23408940.880   123014800.090         -47.309          50.750    23408946.400    94258101.676         -36.727          51.750  
E27  25791069.860   135533000.434       -2269.898          43.250    25791074.800   103849964.203       -1737.699          36.250  
E26  25513820.080   134076034.484        2827.305          47.500    25513824.040   102733605.832        2165.602          48.750  
> 2024 04 10 11 01 00.0000000  0 21       0.000000000000
G28  22170286.360   116505633.430       -2653.000          42.750    22170294.480    90783638.141       -2065.645          47.750  
G18  21181523.280   111309658.605        2019.531          49.750    21181526.500    86734824.168        1575.004          49.500  
G29  21091628.460   110837249.527       -1657.988          54.000    21091630.660    86366696.293       -1292.031          48.750  
G31  21627698.900   113654328.418       -1026.391          47.250    21627701.460    88561844.750        -802.176          40.500  
G05  23312598.100   122508519.523         711.168          45.000    23312596.500    95461215.156         556.793          44.250  
G26  21137018.440   111075789.980        2020.586          43.000    21137027.000    86552566.387        1574.898          43.750  
G25                                                                  22912514.740    93822928.055       -2541.219          36.000  
R22  19520798.860   104203386.176       -1689.387          53.750    19520806.080    81047077.902       -1313.570          54.000  
R13  19761155.200   105523550.238        1973.762          35.750    19761171.280    82073850.398        1533.945          35.500  
R12  19548275.320   104423412.461       -1759.891          52.500    19548284.000    81218213.895       -1369.590          52.000  
R23  20067904.600   107349788.738        2250.316          48.500                                                                  
C23  24205768.720   126045763.055       -3022.219          44.750                                                                  
C28  21598528.180   112469205.027         697.555          52.000                                                                  
C37  22179331.140   115493603.125        -410.660          48.750                                                                  
C08  38336023.940   199625741.059         202.020          46.250    38336022.580   154363272.395         157.609          43.250  
C13  37991728.860   197832896.316         621.945          47.000    37991736.260   152976981.816         480.520          45.500  
E15  25868249.880   135938588.938       -2302.387          45.250    25868259.040   104160736.883       -1763.996          49.500  
E13  23493563.120   123459518.945         381.281          52.500    23493567.860    94598847.379         292.074          50.000  
E21  23408952.300   123014858.664         -47.324          50.750    23408957.380    94258146.559         -36.461          51.500  
E27  25791502.380   135535280.707       -2270.859          42.250    25791508.960   103851711.461       -1738.039          36.750  
E26  25513284.140   134073218.660        2828.305          47.250    25513288.220   102731448.262        2166.352          48.500  
> 2024 04 10 11 01 01.0000000  0 21       0.000000000000
G28  22170793.340   116508296.367       -2650.730          42.500    22170801.160    90785713.148       -2066.113          47.500  
G18  21181140.820   111307649.984        2020.574          49.250    21181144.220    86733259.023        1574.613          49.500  
G29  21091946.200   110838918.844       -1657.922          54.000    21091948.400    86367997.055       -1290.199          48.500  
G31  21627897.040   113655368.211       -1027.957          47.500    21627900.020    88562654.992        -800.016          40.250  
G05  23312464.240   122507820.262         710.586          43.250    23312463.440    95460670.250         553.613          44.750  
G26  21136636.480   111073780.711        2019.746          45.000    21136644.520    86551000.719        1576.176          43.750  
G25                                                                  22913136.540    93825478.363       -2542.617          35.500  
R22  19521117.580   104205087.434       -1688.988          53.750    19521124.460    81048401.094       -1313.203          53.500  
R13  19760787.020   105521589.512        1974.023          35.250    19760802.400    82072325.371        1534.602          34.750  
R12  19548606.820   104425184.320       -1759.410          52.250    19548615.640    81219592.016       -1368.973          52.250  
R23  20067486.280   107347550.668        2250.484          47.750                                                                  
C23  24206350.160   126048798.191       -3023.848          43.750                                                                  
C28  21598396.540   112468519.031         697.684          51.750                                                                  
C37  22179412.400   115494027.063        -411.582          49.000                                                                  
C08  38335987.720   199625550.516         201.453          46.250    38335985.680   154363125.066         157.449          42.750  
C13  37991611.900   197832285.516         622.066          47.250    37991618.780   152976509.535         479.492          45.750  
E15  25868689.760   135940902.887       -2302.199          44.750    25868699.300   104162509.918       -1763.500          48.750  
E13  23493492.740   123459149.012         382.426          52.250    23493497.460    94598563.914         293.219          50.000  
E21  23408963.040   123014917.613         -46.551          50.250    23408968.620    94258191.727         -35.633          52.000  
E27  25791936.340   135537561.258       -2268.711          42.000    25791943.140   103853458.883       -1734.438          35.750  
E26  25512748.480   134070403.141        2827.609          47.500    25512752.400   102729290.918        2167.281          48.500  
> 2024 04 10 11 01 02.0000000  0 21       0.000000000000
G28  22171298.000   116510947.238       -2651.691          42.500    22171305.540    90787778.762       -2065.594          47.250  
G18  21180756.300   111305629.449        2020.293          49.500    21180759.680    86731684.570        1573.941          49.500  
G29  21092261.700   110840576.012       -1657.688          53.750    21092263.760    86369288.359       -1292.398          48.500  
G31  21628093.240   113656396.184       -1027.891          48.750    21628095.500    88563455.992        -801.824          40.250  
G05  23312329.120   122507109.145         710.363          43.500    23312328.500    95460116.133         550.625          44.500  
G26  21136253.100   111071759.355        2019.453          46.250    21136259.980    86549425.629        1572.855          42.750  
G25                                                                  22913756.600    93828019.191       -2541.195          34.500  
R22  19521434.500   104206776.676       -1689.609          54.000    19521440.580    81049714.930       -1313.559          53.000  
R13  19760418.500   105519616.750        1972.891          35.000    19760432.760    82070790.992        1534.105          34.000  
R12  19548936.180   104426944.270       -1759.488          52.000    19548944.860    81220960.871       -1369.539          52.000  
R23  20067065.440   107345300.535        2249.012          48.000                                                                  
C23  24206929.460   126051821.207       -3023.875          42.500                                                                  
C28  21598262.240   112467821.102         697.535          51.500                                                                  
C37  22179491.640   115494439.195        -411.195          48.750                                                                  
C08  38335948.760   199625347.883         201.691          46.000    38335946.540   154362968.363         157.430          42.500  
C13  37991492.420   197831662.605         621.480          47.250    37991498.540   152976027.836         480.773          45.250  
E15  25869128.300   135943204.633       -2303.094          45.000    25869137.260   104164273.590       -1763.934          48.750  
E13  23493419.800   123458767.086         381.543          52.000    23493424.740    94598271.270         292.973          50.250  
E21  23408972.360   123014964.438         -47.238          50.250    23408977.520    94258227.602         -36.789          52.000  
E27  25792368.760   135539829.551       -2267.129          41.250    25792372.160   103855196.883       -1739.117          32.750  
E26  25512210.320   134067575.375        2827.270          47.250    25512214.460   102727124.203        2165.809          49.000  
> 2024 04 10 11 01 03.0000000  0 21       0.000000000000
G28  22171804.460   116513610.367       -2651.535          44.250    22171812.020    90789853.867       -2066.375          46.000  
G18  21180374.020   111303621.227        2019.129          49.500    21180377.440    86730119.707        1573.238          49.000  
G29  21092578.980   110842245.031       -1656.520          53.000    21092581.640    86370588.887       -1292.008          48.500  
G31  21628291.700   113657436.469       -1027.793          49.500    21628292.560    88564266.652        -798.563          40.000  
G05  23312195.660   122506410.055         709.613          41.000    23312195.780    95459571.445         553.754          45.000  
G26  21135872.280   111069749.965        2022.563          48.250    21135877.320    86547859.859        1574.453          42.500  
G25                                                                  22914380.600    93830569.121       -2541.008          35.250  
R22  19521754.040   104208478.242       -1689.371          55.500    19521758.940    81051038.367       -1313.406          53.000  
R13  19760052.520   105517656.359        1971.934          34.750    19760065.280    82069266.242        1535.973          35.500  
R12  19549267.920   104428716.887       -1760.656          52.250    19549276.380    81222339.543       -1369.109          51.500  
R23  20066647.020   107343062.949        2249.898          48.500                                                                  
C23  24207513.200   126054856.160       -3023.906          45.500                                                                  
C28  21598130.380   112467135.176         697.902          51.750                                                                  
C37  22179573.240   115494863.465        -410.945          49.750                                                                  
C08  38335911.940   199625156.828         203.055          46.250    38335910.180   154362820.566         156.930          42.250  
C13  37991375.060   197831051.301         623.656          47.250    37991380.820   152975555.063         481.715          44.500  
E15  25869568.560   135945518.031       -2301.395          46.000    25869577.180   104166046.176       -1762.137          48.750  
E13  23493349.060   123458397.285         381.551          52.000    23493354.300    94597987.902         292.832          50.500  
E21  23408984.140   123015023.203         -46.910          51.000    23408988.640    94258272.645         -34.688          51.750  
E27  25792804.380   135542109.672       -2265.371          40.750                                                                  
E26  25511673.280   134064759.613        2827.379          46.250    25511678.000   102724966.660        2167.191          47.000  
> 2024 04 10 11 01 04.0000000  0 21       0.000000000000
G28  22172312.220   116516272.719       -2652.184          44.750    22172317.420    90791928.430       -2065.512          42.750  
G18  21179991.560   111301612.320        2019.410          50.000    21179994.740    86728554.301        1574.621          48.500  
G29  21092895.720   110843913.277       -1656.281          52.750    21092899.420    86371888.824       -1291.523          48.750  
G31  21628490.040   113658476.277       -1028.523          50.250    21628490.100    88565076.902        -802.125          39.750  
G05  23312059.400   122505710.633         709.199          40.500    23312064.160    95459026.480         553.867          45.750  
G26  21135491.340   111067739.934        2020.703          49.750    21135494.260    86546293.641        1574.691          41.750  
G25                                                                  22915003.120    93833118.469       -2540.922          35.750  
R22  19522073.020   104210179.332       -1690.109          56.250    19522077.580    81052361.422       -1314.426          54.000  
R13  19759680.680   105515695.664        1971.816          34.250    19759697.540    82067741.270        1531.918          35.750  
R12  19549599.720   104430488.969       -1760.883          52.750    19549608.140    81223717.828       -1369.938          52.000  
R23  20066227.360   107340824.832        2250.188          49.000                                                                  
C23  24208097.640   126057890.113       -3023.203          46.750                                                                  
C28  21597998.440   112466448.488         697.691          51.750                                                                  
C37  22179655.020   115495287.109        -413.371          51.000                                                                  
C08  38335874.540   199624964.992         201.879          46.500    38335874.260   154362672.180         156.398          43.750  
C13  37991256.500   197830439.176         621.980          46.250    37991264.380   152975081.723         480.117          45.750  
E15  25870010.020   135947830.754       -2300.348          48.000    25870017.760   104167818.242       -1763.234          49.250  
E13  23493278.500   123458026.770         381.027          52.000    23493283.760    94597703.988         292.719          50.250  
E21  23408994.780   123015081.156         -46.785          51.500    23408999.680    94258317.035         -35.840          51.750  
E27  25793239.060   135544388.891       -2269.082          41.000                                                                  
E26  25511135.180   134061942.875        2828.637          44.250    25511141.180   102722808.430        2166.418          45.750  
> 2024 04 10 11 01 05.0000000  0 21       0.000000000000
G28  22172819.680   116518936.805       -2651.773          43.750    22172823.560    90794004.328       -2066.660          42.500  
G18  21179609.640   111299605.313        2019.254          50.000    21179612.720    86726990.402        1573.781          48.500  
G29  21093213.280   110845583.297       -1658.340          52.750    21093217.300    86373190.141       -1290.969          48.500  
G31  21628688.080   113659518.055       -1029.688          50.000    21628688.720    88565888.660        -802.035          40.250  
G05  23311925.240   122505013.414         710.871          40.250    23311932.240    95458483.184         553.020          45.750  
G26  21135109.580   111065731.637        2021.172          49.500    21135111.300    86544728.746        1573.578          42.000  
G25                                                                  22915626.580    93835669.082       -2539.750          36.500  
R22  19522391.980   104211882.488       -1690.984          56.500    19522396.840    81053686.094       -1315.559          54.250  
R13  19759313.160   105513737.047        1972.125          35.250    19759330.180    82066217.922        1533.988          34.750  
R12  19549931.480   104432263.234       -1761.348          53.000    19549940.040    81225097.809       -1369.637          52.000  
R23  20065808.940   107338588.715        2249.285          49.250                                                                  
C23  24208681.540   126060925.727       -3023.621          46.500                                                                  
C28  21597867.020   112465763.570         697.539          51.750                                                                  
C37  22179737.040   115495712.609        -413.488          50.500                                                                  
C08  38335838.080   199624774.844         202.945          46.250    38335837.380   154362525.168         156.758          42.250  
C13  37991138.340   197829828.684         623.836          46.000    37991147.260   152974609.688         482.008          45.750  
E15  25870450.680   135950145.211       -2303.023          48.500    25870458.420   104169591.664       -1762.453          49.250  
E13  23493208.380   123457658.156         380.891          52.500    23493213.480    94597421.555         292.758          50.250  
E21  23409005.980   123015140.824         -47.352          51.750    23409011.000    94258362.773         -35.531          51.750  
E27  25793673.760   135546669.703       -2268.129          41.500                                                                  
E26  25510598.920   134059127.703        2828.184          44.250    25510605.460   102720651.367        2166.641          46.500  
> 2024 04 10 11 01 06.0000000  0 21       0.000000000000
G28  22173326.660   116521601.117       -2652.523          44.750    22173331.020    90796080.391       -2066.875          44.000  
G18  21179227.640   111297598.594        2018.293          50.500    21179230.760    86725426.734        1572.105          48.750  
G29  21093530.960   110847253.391       -1658.094          52.750    21093535.140    86374491.508       -1291.629          48.750  
G31  21628886.440   113660560.246       -1029.633          50.250    21628887.180    88566700.754        -803.293          40.750  
G05  23311792.600   122504316.652         711.461          39.750    23311799.640    95457940.223         553.313          45.750  
G26  21134727.360   111063723.555        2020.453          49.500    21134728.980    86543164.000        1575.281          42.000  
G25                                                                  22916249.100    93838219.648       -2541.500          34.500  
R22  19522711.020   104213586.031       -1691.891          56.500    19522716.080    81055011.074       -1315.914          54.000  
R13  19758948.180   105511778.859        1971.633          35.500    19758963.500    82064694.840        1529.270          33.750  
R12  19550263.620   104434038.000       -1761.992          53.000    19550272.880    81226478.176       -1370.824          52.000  
R23  20065390.560   107336353.008        2248.262          49.500                                                                  
C23  24209264.840   126063961.348       -3023.500          46.250                                                                  
C28  21597735.660   112465078.816         696.477          52.000                                                                  
C37  22179818.600   115496138.426        -413.250          50.750                                                                  
C08  38335801.460   199624584.707         202.859          46.500    38335800.240   154362378.164         158.031          41.250  
C13  37991020.620   197829218.176         622.172          46.000    37991029.400   152974137.605         481.746          44.250  
E15  25870890.460   135952459.707       -2302.281          48.250    25870899.020   104171365.105       -1763.223          48.750  
E13  23493138.020   123457289.766         380.352          52.500    23493143.520    94597139.277         291.773          50.250  
E21  23409017.820   123015200.582         -47.109          52.000    23409022.360    94258408.555         -35.918          51.750  
E27  25794107.600   135548950.516       -2268.867          41.000                                                                  
E26  25510064.060   134056312.523        2827.242          45.250    25510069.580   102718494.254        2164.926          46.000  
> 2024 04 10 11 01 07.0000000  0 21       0.000000000000
G28  22173833.580   116524265.957       -2653.250          45.250    22173838.420    90798156.914       -2068.152          44.500  
G18  21178845.900   111295592.598        2016.887          50.250    21178849.420    86723863.621        1571.707          49.000  
G29  21093848.920   110848923.930       -1658.914          53.000    21093853.040    86375793.223       -1292.703          48.250  
G31  21629084.860   113661603.176       -1030.836          49.750    21629085.860    88567513.449        -803.684          40.750  
G05  23311660.060   122503620.609         708.758          39.000    23311667.220    95457397.844         551.203          45.250  
G26  21134345.300   111061715.957        2018.715          49.500    21134346.460    86541599.645        1573.117          41.750  
G25                                                                  22916872.420    93840770.488       -2540.895          35.500  
R22  19523030.120   104215290.301       -1691.961          56.250    19523035.540    81056336.625       -1316.000          53.750  
R13  19758583.700   105509821.445        1968.250          35.250    19758597.060    82063172.422        1531.625          33.750  
R12  19550595.840   104435813.656       -1763.402          52.750    19550605.440    81227859.230       -1371.293          52.000  
R23  20064973.520   107334118.066        2247.117          49.750                                                                  
C23  24209847.960   126066997.355       -3023.461          46.500                                                                  
C28  21597604.200   112464394.609         696.629          52.250                                                                  
C37  22179900.620   115496564.895        -414.805          51.000                                                                  
C08  38335764.940   199624394.938         202.891          46.500    38335763.740   154362231.434         156.191          40.750  
C13  37990904.040   197828608.031         623.063          46.750    37990912.100   152973665.836         480.152          44.250  
E15  25871330.520   135954774.578       -2302.719          47.750    25871339.320   104173138.844       -1764.270          48.250  
E13  23493067.980   123456921.977         378.945          52.500    23493073.540    94596857.477         291.160          50.500  
E21  23409029.680   123015260.789         -48.207          52.000    23409033.700    94258454.699         -36.895          51.500  
E27  25794541.960   135551231.652       -2267.375          41.250    25794537.300   103863897.5001      -1737.559          30.250  
E26  25509528.060   134053497.758        2826.785          45.750    25509534.000   102716337.477        2167.707          46.000  
> 2024 04 10 11 01 08.0000000  0 21       0.000000000000
G28  22174341.140   116526932.301       -2654.813          45.500    22174345.960    90800234.586       -2067.738          44.500  
G18  21178464.120   111293588.117        2015.945          49.750    21178468.180    86722301.699        1570.082          49.000  
G29  21094167.160   110850595.750       -1659.023          53.250    21094171.220    86377095.938       -1292.973          48.250  
G31  21629283.800   113662647.785       -1032.414          49.750    21629284.900    88568327.441        -804.777          40.500  
G05  23311529.100   122502926.156         707.027          41.000    23311534.580    95456856.727         551.758          45.000  
G26  21133963.700   111059709.805        2017.996          49.500    21133964.560    86540036.406        1573.457          41.500  
G25                                                                  22917495.180    93843322.344       -2542.371          34.750  
R22  19523349.560   104216996.180       -1693.324          56.000    19523355.140    81057663.422       -1317.590          53.750  
R13  19758217.580   105507865.684        1968.164          35.500    19758226.960    82061651.293        1531.781          34.000  
R12  19550928.560   104437591.031       -1765.285          52.500    19550937.920    81229241.637       -1372.383          51.750  
R23  20064556.560   107331884.777        2245.801          49.250                                                                  
C23  24210431.100   126070034.625       -3024.316          46.250                                                                  
C28  21597472.880   112463711.793         695.605          52.000                                                                  
C37  22179983.080   115496992.902        -415.191          51.000                                                                  
C08  38335728.660   199624206.309         200.496          46.500    38335726.760   154362085.582         156.523          40.000  
C13  37990787.260   197827999.035         620.336          47.000    37990794.900   152973194.906         479.891          43.750  
E15  25871771.580   135957090.691       -2303.676          47.500    25871779.920   104174913.516       -1764.379          48.500  
E13  23492997.900   123456555.648         378.430          52.250    23493003.640    94596576.777         290.703          50.250  
E21  23409041.160   123015322.305         -49.457          52.000    23409045.360    94258501.828         -37.402          51.750  
E27  25794975.740   135553513.965       -2270.957          41.250    25794973.380   103865646.230       -1738.895          32.000  
E26  25508992.100   134050684.203        2827.090          45.500    25508998.280   102714181.633        2164.996          46.000  
> 2024 04 10 11 01 09.0000000  0 21       0.000000000000
G28  22174849.420   116529600.402       -2654.840          46.250    22174853.980    90802313.621       -2070.938          44.000  
G18  21178083.640   111291585.551        2015.457          51.250    21178086.980    86720741.297        1569.926          49.250  
G29  21094485.580   110852269.094       -1660.227          53.250    21094489.300    86378399.820       -1293.473          48.000  
G31  21629482.360   113663694.215       -1032.984          48.250    21629484.060    88569142.871        -803.922          40.750  
G05  23311398.280   122502233.570         706.402          44.000    23311402.400    95456317.129         549.109          44.500  
G26  21133581.560   111057705.074        2018.430          47.250    21133583.260    86538474.246        1572.363          42.500  
G25                                                                  22918119.320    93845875.422       -2544.059          36.750  
R22  19523669.480   104218703.824       -1693.645          55.250    19523675.080    81058991.617       -1318.418          53.250  
R13  19757851.740   105505911.711        1965.223          37.250    19757861.580    82060131.559        1529.996          34.500  
R12  19551261.900   104439370.539       -1766.934          52.500    19551270.440    81230625.711       -1374.660          51.500  
R23  20064139.180   107329653.367        2245.113          48.250                                                                  
C23  24211014.020   126073073.609       -3026.352          44.250                                                                  
C28  21597341.860   112463030.535         694.262          51.750                                                                  
C37  22180065.720   115497422.621        -415.859          50.750                                                                  
C08  38335692.680   199624019.094         199.270          45.750    38335690.960   154361940.836         155.871          41.000  
C13  37990670.940   197827391.453         620.500          48.000    37990678.500   152972725.164         479.426          44.250  
E15  25872211.500   135959408.223       -2303.313          46.250    25872221.080   104176689.277       -1765.422          49.500  
E13  23492928.280   123456191.082         377.434          51.750    23492934.140    94596297.434         289.598          50.250  
E21  23409052.900   123015385.348         -50.684          51.250    23409057.440    94258550.133         -38.449          51.500  
E27  25795409.760   135555797.813       -2271.836          42.750                                                                  
E26  25508456.600   134047872.371        2824.305          46.250    25508463.700   102712027.094        2164.000          47.250  
> 2024 04 10 11 01 10.0000000  0 19       0.000000000000
G28  22175358.280   116532273.219       -2658.352          45.000    22175362.560    90804396.402       -2071.262          46.750  
G18  21177703.860   111289587.820        2014.617          53.250    21177706.980    86719184.664        1569.090          49.500  
G29  21094804.720   110853946.660       -1660.980          54.000    21094808.280    86379707.051       -1294.910          50.000  
G31  21629680.820   113664745.098       -1033.496          47.250    21629684.380    88569961.703        -808.395          38.500  
G05  23311265.960   122501545.781         702.555          43.500    23311270.780    95455781.176         548.684          43.250  
G26  21133199.880   111055704.246        2017.469          45.500    21133203.500    86536915.352        1572.230          41.500  
R22  19523989.920   104220416.051       -1695.219          55.250    19523995.160    81060323.324       -1318.648          52.750  
R12  19551596.560   104441155.184       -1768.168          53.500    19551605.240    81232013.754       -1374.988          53.750  
R23  20063724.020   107327426.777        2242.930          43.250                                                                  
C23  24211597.000   126076117.535       -3028.652          42.000                                                                  
C28  21597212.140   112462353.730         693.641          51.500                                                                  
C37  22180148.540   115497856.813        -418.023          48.250                                                                  
C08  38335656.560   199623835.895         198.848          46.000    38335657.860   154361799.230         153.926          47.000  
C13  37990554.040   197826788.176         619.844          46.000    37990564.220   152972258.535         480.602          45.500  
E15  25872655.260   135961729.785       -2306.023          47.000    25872663.360   104178468.188       -1766.621          51.250  
E13  23492860.900   123455831.148         376.125          50.500    23492865.980    94596021.633         287.285          51.500  
E21  23409065.460   123015452.750         -51.023          50.750    23409070.360    94258601.789         -39.219          50.750  
E27  25795841.840   135558086.391       -2275.125          41.250    25795849.300   103869183.0511      -1739.996          39.000  
E26  25507924.260   134045065.027        2824.660          47.750    25507931.040   102709876.020        2164.004          50.000  
> 2024 04 10 11 01 11.0000000  0 20       0.000000000000
G18  21177322.680   111287587.340        2012.512          51.500    21177326.000    86717625.742        1568.617          50.750  
G29  21095124.020   110855621.859       -1662.281          52.750    21095126.400    86381012.352       -1294.297          48.000  
G31  21629880.320   113665792.531       -1036.637          45.000                                                                  
G05  23311133.600   122500856.332         701.371          42.500    23311139.840    95455243.992         547.598          41.500  
G26  21132819.540   111053699.895        2015.168          40.250    21132822.560    86535353.645        1570.500          38.000  
G28                                                                  22175869.620    90806476.219       -2070.613          44.500  
R22  19524310.160   104222125.840       -1696.980          54.750    19524316.100    81061653.168       -1319.734          55.250  
R13  19757122.320   105501966.6293       1967.063          34.250    19757129.100    82057096.7153       1528.152          38.500  
R12  19551930.620   104442937.215       -1770.266          56.000    19551938.660    81233399.809       -1377.148          53.500  
R23  20063305.300   107325196.633        2242.043          42.750                                                                  
C23  24212181.780   126079158.207       -3029.813          44.000                                                                  
C28  21597081.820   112461673.789         692.648          50.250                                                                  
C37  22180231.340   115498287.902        -419.172          49.000                                                                  
C08  38335620.860   199623650.668         199.320          44.750    38335623.500   154361655.945         152.922          45.250  
C13  37990437.900   197826182.496         619.465          44.500    37990447.940   152971790.332         478.250          44.750  
E15  25873096.920   135964049.227       -2306.914          46.750    25873103.220   104180245.410       -1768.813          45.500  
E13  23492791.300   123455468.668         374.406          49.500    23492797.000    94595743.926         286.746          51.250  
E21  23409077.860   123015517.219         -51.930          52.000    23409082.120    94258651.172         -39.711          51.000  
E26  25507389.200   134042254.043        2823.258          49.000    25507395.580   102707722.230        2162.320          48.750  
E27                                                                  25796284.500   103870934.504       -1737.488          40.000  
> 2024 04 10 11 01 12.0000000  0 18       0.000000000000
G28  22176374.880   116537642.7663      -2661.082          44.250    22176378.220    90808556.703       -2070.703          46.250  
G18  21176942.340   111285587.320        2011.961          51.000    21176944.620    86716067.324        1567.883          49.250  
G29  21095442.500   110857296.113       -1662.109          51.500    21095445.280    86382317.016       -1295.430          48.250  
G31  21630079.620   113666840.320       -1038.477          38.250    21630081.060    88571573.5121       -804.793          34.250  
G05  23311002.880   122500166.195         700.664          44.750    23311007.800    95454706.309         546.922          41.500  
G26  21132437.640   111051695.348        2016.453          46.000                                                                  
R22  19524630.560   104223835.035       -1697.449          56.250    19524636.720    81062982.570       -1319.840          54.250  
R12  19552263.880   104444719.734       -1770.098          55.500    19552272.000    81234786.266       -1377.574          52.750  
R23  20062888.120   107322967.242        2241.871          49.750                                                                  
C23  24212766.400   126082199.406       -3027.078          43.750                                                                  
C28  21596951.540   112460993.875         691.281          50.000                                                                  
C37  22180313.340   115498719.297        -418.727          46.000                                                                  
C08  38335584.940   199623464.043         199.402          44.250    38335587.980   154361511.664         153.496          48.500  
C13  37990321.020   197825575.973         617.020          45.250    37990331.540   152971321.250         478.633          44.750  
E15  25873538.500   135966367.211       -2306.488          47.500    25873544.480   104182021.563       -1767.543          47.250  
E13  23492722.560   123455106.023         374.219          50.750    23492728.300    94595466.133         287.316          52.250  
E21  23409090.140   123015581.281         -52.258          51.500    23409094.160    94258700.324         -39.844          48.750  
E26  25506854.440   134039443.840        2823.605          48.250    25506861.040   102705569.008        2162.523          49.500  
> 2024 04 10 11 01 13.0000000  0 18       0.000000000000
G28  22176878.820   116540300.7192      -2663.742          37.250    22176884.540    90810627.680       -2073.711          43.750  
G18  21176559.460   111283575.613        2009.926          51.500    21176562.140    86714499.766        1565.930          50.750  
G29  21095759.200   110858958.590       -1664.297          53.000    21095761.380    86383612.480       -1296.406          48.250  
G31  21630277.260   113667876.438       -1036.586          47.000    21630278.280    88572380.543        -808.637          39.250  
G05  23310869.020   122499464.813         701.578          46.500                                                                  
G26  21132054.140   111049678.578        2018.832          42.250                                                                  
R22  19524948.060   104225532.527       -1698.477          53.500    19524954.660    81064302.895       -1321.016          53.000  
R12  19552595.780   104446490.641       -1772.273          56.250    19552603.260    81236163.668       -1377.801          53.250  
R23  20062469.080   107320725.855        2241.648          48.500                                                                  
C23  24213347.360   126085229.117       -3030.336          42.500                                                                  
C28  21596818.760   112460302.160         689.633          47.750                                                                  
C37  22180394.400   115499138.770        -421.695          50.250                                                                  
C08  38335546.880   199623265.785         198.660          45.500    38335550.620   154361358.270         155.359          48.000  
C13  37990202.320   197824957.805         618.676          45.500    37990213.480   152970843.234         476.809          47.000  
E15  25873975.980   135968673.516       -2305.449          45.000    25873984.280   104183788.727       -1768.297          47.250  
E13  23492651.380   123454731.762         373.457          51.000    23492657.100    94595179.309         286.277          50.000  
E21  23409100.560   123015633.434         -52.383          50.000    23409104.400    94258740.211         -40.191          51.000  
E26  25506316.540   134036621.633        2820.922          47.750    25506324.340   102703406.457        2161.598          50.500  
> 2024 04 10 11 01 14.0000000  0 16       0.000000000000
G28  22177387.900   116542976.531       -2659.199          43.250    22177394.420    90812712.645       -2073.980          40.500  
G18  21176179.960   111281581.090        2009.699          52.750    21176182.700    86712945.621        1566.289          51.000  
G29  21096078.540   110860637.754       -1664.305          52.500    21096081.060    86384920.844       -1297.156          48.250  
G31  21630478.260   113668930.148       -1036.566          47.750                                                                  
G05  23310738.580   122498780.090         700.160          48.500                                                                  
R22  19525269.540   104227247.301       -1697.723          52.000    19525275.640    81065636.563       -1322.613          50.750  
R12  19552930.880   104448279.184       -1772.797          56.750    19552938.500    81237554.664       -1379.508          54.000  
C23  24213932.120   126088275.375       -3030.395          43.250                                                                  
C28  21596689.080   112459627.406         691.504          47.500                                                                  
C37  22180478.280   115499575.742        -421.227          51.250                                                                  
C08  38335511.620   199623083.563         196.574          44.500    38335515.420   154361217.480         151.543          47.500  
C13  37990085.840   197824355.762         617.426          44.250    37990098.000   152970377.680         476.188          46.500  
E15  25874418.740   135970996.117       -2307.082          47.250    25874426.940   104185568.313       -1768.824          47.750  
E13  23492583.220   123454374.430         373.344          51.000    23492589.180    94594905.527         286.551          51.000  
E21  23409113.760   123015702.484         -53.805          52.750    23409117.800    94258793.191         -41.695          50.000  
E26  25505782.940   134033816.434        2821.953          47.000    25505790.800   102701257.113        2161.641          49.250  
> 2024 04 10 11 01 15.0000000  0 20       0.000000000000
G28  22177903.080   116545670.4183      -2660.793          37.750    22177902.780    90814798.695       -2074.063          42.000  
G18  21175800.280   111279588.332        2008.590          51.000    21175803.360    86711392.871        1565.363          52.500  
G29  21096397.680   110862318.391       -1663.523          52.000    21096401.700    86386230.457       -1297.578          47.250  
G31  21630677.780   113669985.715       -1040.184          44.500                                                                  
G05  23310609.060   122498097.305         698.191          49.750    23310614.500    95453078.0431        545.297          37.000  
G25  22921853.040                       -3269.359          32.250                                                                  
G26                                                                  21131298.360    86529125.4181       1571.051          38.500  
R22  19525590.880   104228964.020       -1699.484          54.250    19525598.520    81066971.758       -1322.266          51.500  
R12  19553265.080   104450069.672       -1774.469          55.250    19553273.780    81238947.352       -1379.246          53.250  
R13                                                                  19755663.920    82051004.5392       1527.645          38.000  
C23  24214517.840   126091322.949       -3030.488          47.000                                                                  
C28  21596559.700   112458954.262         688.551          47.500                                                                  
C37  22180562.420   115500014.414        -422.180          49.500                                                                  
C08  38335477.320   199622902.980         197.145          44.250    38335481.140   154361077.801         152.723          49.250  
C13  37989971.840   197823755.070         616.453          47.750    37989981.600   152969913.309         476.363          47.250  
E15  25874861.000   135973320.258       -2309.820          45.500    25874868.080   104187349.227       -1766.816          45.250  
E13  23492515.580   123454018.813         372.156          50.250    23492521.600    94594633.055         284.711          53.750  
E21  23409125.960   123015773.238         -54.910          49.750    23409131.140    94258847.434         -42.547          49.500  
E26  25505250.640   134031012.742        2819.336          46.750    25505257.000   102699108.793        2159.551          50.000  
E27                                                                  25798024.480   103877938.004       -1744.191          39.750  
> 2024 04 10 11 01 16.0000000  0 19       0.000000000000
G28  22178409.920   116548344.2193      -2659.930          43.750    22178411.860    90816882.316       -2073.535          41.250  
G18  21175420.420   111277592.996        2008.855          52.000    21175423.940    86709838.086        1565.258          50.500  
G29  21096717.100   110863996.324       -1665.313          52.500    21096720.340    86387537.898       -1298.156          48.000  
G31  21630878.220   113671038.484       -1041.113          45.500    21630882.280    88574843.684        -808.586          40.000  
G05  23310478.640   122497412.461         697.051          48.250    23310484.380    95452544.434         542.539          44.500  
G25  22922476.560   120458428.7193      -3264.863          36.750                                                                  
G26  21130911.640   111043684.8283       2013.180          43.000    21130917.140    86527566.355        1570.398          37.500  
R22  19525912.240   104230677.988       -1701.086          50.250    19525918.540    81068304.926       -1322.848          49.750  
R13  19755291.080   105492170.0002       1963.141          36.000                                                                  
R12  19553599.640   104451857.813       -1774.852          55.250    19553608.540    81240338.059       -1380.707          54.000  
R23  20061222.400   107314047.8523       2239.766          46.750                                                                  
C23  24215102.640   126094367.863       -3033.051          48.500                                                                  
C28  21596430.340   112458277.988         687.160          42.750                                                                  
C08  38335442.140   199622719.672         196.191          45.250    38335445.740   154360936.035         151.172          47.000  
C13  37989856.100   197823151.816         617.148          49.250    37989866.160   152969446.809         475.680          47.000  
E15  25875302.540   135975641.742       -2309.715          47.000    25875310.960   104189127.930       -1769.012          48.250  
E13  23492448.040   123453660.621         371.723          51.000    23492453.800    94594358.531         284.445          52.000  
E21  23409138.840   123015840.938         -54.832          50.250    23409144.060    94258899.309         -41.086          50.000  
E26  25504715.140   134028205.973        2820.301          47.000    25504723.060   102696958.105        2159.703          48.500  
> 2024 04 10 11 01 17.0000000  0 17       0.000000000000
G28  22178918.020   116551021.0632      -2661.578          48.500    22178920.040    90818968.121       -2075.184          42.000  
G18  21175041.620   111275600.461        2008.645          51.500    21175044.780    86708285.391        1563.996          53.750  
G29  21097037.140   110865677.137       -1664.922          54.500    21097040.400    86388847.660       -1298.422          48.000  
G31  21631078.780   113672094.328       -1038.324          42.750    21631081.540    88575666.293        -808.902          41.750  
G05  23310348.160   122496730.598         695.840          47.750    23310354.560    95452013.180         544.051          41.250  
G26  21130535.200   111041688.8912       2012.547          36.500    21130536.900    86526010.043        1568.723          35.500  
R22  19526233.320   104232395.336       -1700.914          51.500    19526239.700    81069640.574       -1323.059          50.500  
R12  19553935.540   104453648.953       -1777.254          56.500    19553943.240    81241731.191       -1380.836          51.750  
R23  20060806.920   107311826.3592       2236.383          45.500                                                                  
C23  24215687.820   126097415.316       -3033.758          48.750                                                                  
C28  21596301.820   112457605.070         684.941          46.500                                                                  
C08  38335407.200   199622539.180         197.113          44.500    38335410.840   154360796.477         152.305          46.250  
C13  37989740.020   197822551.320         614.762          47.750    37989751.460   152968982.418         475.258          46.750  
E15  25875745.720   135977966.238       -2309.582          46.250    25875753.320   104190909.066       -1768.629          46.750  
E13  23492380.400   123453305.227         370.715          53.000    23492385.740    94594086.246         283.352          52.000  
E21  23409153.140   123015911.582         -56.301          44.250    23409157.680    94258953.438         -43.199          45.250  
E26  25504180.860   134025401.703        2818.605          45.750    25504189.580   102694809.297        2161.445          46.500  
> 2024 04 10 11 01 18.0000000  0 19       0.000000000000
G28  22179427.760   116553699.7422      -2664.047          47.000    22179429.600    90821055.465       -2075.410          47.000  
G18  21174662.960   111273609.895        2006.551          54.500    21174665.940    86706734.238        1562.148          49.000  
G29  21097357.660   110867359.930       -1665.867          52.250    21097359.480    86390158.961       -1297.879          45.250  
G31  21631280.700   113673152.379       -1041.617          45.250    21631283.580    88576490.844        -814.059          39.250  
G05  23310219.440   122496051.125         696.180          48.750    23310225.200    95451483.719         542.992          41.750  
R22  19526555.440   104234115.109       -1703.121          53.000    19526563.420    81070978.195       -1324.797          51.750  
R12  19554271.900   104455442.371       -1777.383          57.000    19554279.220    81243126.066       -1381.875          53.250  
R23  20060392.900   107309607.793        2234.008          47.750                                                                  
R13                                                                  19754570.060    82046470.6602       1521.941          42.250  
C23  24216272.820   126100464.039       -3032.105          47.250                                                                  
C28  21596172.820   112456934.172         686.625          47.250                                                                  
C37  22180814.420   115501303.8833       -424.965          47.000                                                                  
C08  38335372.620   199622360.699         193.680          42.000    38335376.500   154360658.469         150.805          45.750  
C13  37989626.040   197821952.641         614.609          48.750    37989636.200   152968519.520         475.156          45.000  
E15  25876187.680   135980292.695       -2310.730          45.000    25876195.940   104192691.617       -1769.961          45.500  
E13  23492311.440   123452951.883         369.828          46.250    23492319.000    94593815.449         283.383          52.500  
E21  23409166.860   123015984.148         -56.246          48.750    23409171.580    94259008.965         -43.188          47.250  
E26  25503650.800   134022598.922        2818.992          43.750    25503656.220   102692661.824        2160.551          46.250  
E27                                                                  25799333.740   103883229.063       -1745.625          41.500  
> 2024 04 10 11 01 19.0000000  0 21       0.000000000000
G28  22179936.300   116556378.1332      -2663.777          40.750    22179939.480    90823142.445       -2073.574          47.750  
G18  21174284.260   111271618.770        2006.406          56.000    21174287.000    86705182.809        1562.145          48.500  
G29  21097677.560   110869042.578       -1667.891          51.750    21097680.540    86391470.121       -1300.055          48.000  
G31  21631482.900   113674210.902       -1042.676          51.250    21631483.440    88577315.566        -813.586          35.000  
G05  23310089.980   122495371.605         695.027          42.750    23310096.680    95450954.086         539.801          42.750  
G25  22924348.520   120468261.7732      -3269.285          43.500    22924361.180    93871432.9181      -2548.797          33.250  
G26  21129776.320   111037710.8593       2000.031          36.750                                                                  
R22  19526879.600   104235835.086       -1705.211          54.750    19526885.780    81072315.949       -1326.270          50.500  
R13  19754200.080   105486349.9962       1955.777          40.750    19754206.000    82044960.7972       1520.285          42.250  
R12  19554607.780   104457235.547       -1778.703          55.500    19554615.300    81244520.758       -1383.035          52.750  
R23  20059978.440   107307388.566        2234.254          44.250                                                                  
C23  24216858.080   126103511.672       -3032.656          48.000                                                                  
C28  21596043.100   112456262.805         686.844          46.500                                                                  
C37  22180899.060   115501744.8132       -426.141          45.750                                                                  
C08  38335338.920   199622181.973         193.586          45.500    38335340.420   154360520.305         149.922          44.250  
C13  37989509.960   197821353.508         613.203          47.000    37989522.020   152968056.234         473.551          46.500  
E15  25876632.040   135982619.109       -2312.418          46.750    25876639.500   104194474.211       -1770.086          47.750  
E13  23492244.800   123452598.145         368.953          49.750    23492251.360    94593544.477         281.500          48.750  
E21  23409180.880   123016056.426         -57.895          49.750    23409185.880    94259064.340         -44.480          48.500  
E27  25799762.360   135578681.5511      -2281.031          36.250    25799769.100   103884985.555       -1743.949          39.500  
E26  25503116.320   134019795.266        2817.953          43.250    25503122.760   102690513.676        2164.781          40.250  
> 2024 04 10 11 01 20.0000000  0 19       0.000000000000
G28  22180447.780   116559058.652       -2662.820          40.250    22180449.820    90825230.965       -2076.516          46.500  
G18  21173906.620   111269630.676        2003.973          52.500    21173908.960    86703633.609        1561.387          50.000  
G29  21097998.160   110870727.996       -1669.566          51.250    21098000.660    86392783.348       -1300.672          47.000  
G31  21631684.440   113675270.605       -1042.555          53.000    21631684.920    88578141.371        -814.289          42.000  
G05  23309961.220   122494696.078         692.355          46.500    23309967.480    95450427.813         538.250          43.500  
G25  22924974.500   120471552.031       -3273.199          39.750                                                                  
R22  19527201.720   104237557.520       -1705.781          54.250    19527207.740    81073655.602       -1327.641          48.750  
R13  19753837.740   105484410.406        1957.285          42.500    19753842.900    82043451.848        1522.004          43.000  
R12  19554943.620   104459032.070       -1780.063          55.500    19554951.440    81245918.047       -1385.422          51.750  
R23  20059563.780   107305171.340        2235.336          42.000                                                                  
C23  24217443.900   126106562.988       -3034.570          45.500                                                                  
C28  21595914.520   112455593.418         685.934          45.500                                                                  
C37  22180984.820   115502187.4412       -429.605          43.750                                                                  
C08  38335305.420   199622006.191         189.949          46.250    38335307.480   154360384.324         148.371          47.250  
C13  37989396.000   197820757.695         610.336          47.750    37989407.100   152967595.457         473.898          45.000  
E15  25877072.400   135984948.305       -2313.309          44.750    25877081.620   104196258.930       -1773.273          45.250  
E13  23492178.760   123452247.297         367.250          50.000    23492184.640    94593275.797         280.785          50.250  
E21  23409193.860   123016130.730         -57.063          46.000    23409200.760    94259121.617         -45.551          42.500  
E26  25502584.220   134016993.277        2817.008          39.500    25502588.680   102688367.238        2162.027          41.750  
> 2024 04 10 11 01 21.0000000  0 19       0.000000000000
G28  22180956.000   116561738.043       -2661.129          42.250    22180959.600    90827318.637       -2075.738          43.500  
G18  21173528.060   111267642.875        2003.461          52.250    21173530.980    86702084.590        1563.211          48.000  
G29  21098319.400   110872414.570       -1670.996          52.750    21098322.060    86394097.535       -1301.082          47.000  
G31  21631886.240   113676329.637       -1043.195          50.000    21631887.100    88578966.535        -811.117          45.750  
G05  23309833.220   122494022.641         689.176          49.000    23309839.580    95449903.078         534.090          43.500  
G25  22925602.700   120474842.363       -3269.535          38.750                                                                  
R22  19527524.560   104239281.180       -1706.684          56.000    19527530.260    81074996.188       -1327.199          52.750  
R13  19753474.160   105482470.590        1957.156          40.250    19753479.700    82041943.188        1521.934          40.250  
R12  19555280.060   104460829.254       -1780.113          55.000    19555287.600    81247315.859       -1384.156          50.250  
R23  20059150.200   107302953.758        2234.605          46.250                                                                  
C23  24218030.480   126109614.121       -3033.930          49.250                                                                  
C28  21595784.880   112454923.840         686.555          45.250                                                                  
C08  38335271.700   199621831.813         187.453          44.500    38335274.400   154360249.582         147.590          46.250  
C13  37989281.760   197820163.246         609.391          48.000    37989292.460   152967135.805         473.566          44.750  
E15  25877516.540   135987278.953       -2314.016          46.250    25877525.020   104198044.711       -1773.266          47.500  
E13  23492111.200   123451897.570         367.254          47.500    23492118.160    94593007.672         280.266          49.750  
E21  23409209.340   123016205.637         -57.617          46.750    23409214.380    94259178.766         -43.313          46.000  
E26  25502050.680   134014190.848        2817.035          41.500    25502055.580   102686220.270        2159.918          40.500  
E27                                                                  25800644.800   103888495.5471      -1750.258          38.250  
> 2024 04 10 11 01 22.0000000  0 19       0.000000000000
G18  21173149.100   111265653.039        1999.824          46.500    21173151.820    86700534.352        1560.297          44.750  
G29  21098640.220   110874099.270       -1671.305          52.250    21098642.800    86395410.340       -1303.891          47.750  
G31  21632087.220   113677386.965       -1044.668          51.750    21632088.620    88579790.363        -813.348          46.750  
G05  23309704.740   122493347.875         688.590          51.000    23309711.220    95449377.234         535.648          45.500  
G28                                                                  22181469.660    90829405.004       -2076.492          40.250  
R22  19527846.620   104241003.219       -1708.875          54.750    19527853.060    81076335.535       -1328.660          52.000  
R12  19555616.000   104462624.734       -1784.422          52.250    19555625.380    81248712.406       -1387.738          43.250  
R23  20058734.860   107300743.9491       2233.102          46.500                                                                  
R13                                                                  19753118.200    82040433.512        1529.938          37.500  
C23  24218615.200   126112663.035       -3035.688          47.000                                                                  
C28  21595656.340   112454252.691         684.344          48.500                                                                  
C37  22181154.440   115503089.2273       -427.277          46.500                                                                  
C08  38335237.680   199621655.801         189.805          45.000    38335241.240   154360113.398         145.012          49.250  
C13  37989167.260   197819566.988         610.387          48.750    37989177.980   152966674.766         471.324          46.000  
E15  25877959.560   135989607.902       -2317.887          48.250    25877968.340   104199829.230       -1774.707          49.250  
E13  23492045.500   123451545.824         366.031          49.250    23492051.580    94592738.063         279.000          49.500  
E21  23409221.800   123016278.574         -61.102          46.750    23409227.600    94259234.621         -45.332          47.250  
E27  25801072.180   135585563.6841      -2284.094          37.250                                                                  
E26  25501515.500   134011386.656        2818.563          45.000    25501521.940   102684071.301        2158.398          47.000  
> 2024 04 10 11 01 23.0000000  0 15       0.000000000000
G18  21172770.200   111263662.602        2002.598          43.250    21172773.680    86698983.508        1561.465          42.750  
G29  21098960.360   110875783.109       -1672.176          52.000    21098962.920    86396722.434       -1302.395          44.750  
G31  21632288.180   113678443.660       -1045.887          53.500    21632290.000    88580613.789        -812.230          47.000  
G05  23309576.360   122492672.715         686.730          50.250    23309582.760    95448851.141         534.754          45.500  
R22  19528169.300   104242724.730       -1709.035          55.750    19528175.440    81077674.523       -1329.629          52.000  
R12  19555951.940   104464419.621       -1782.859          52.250    19555960.500    81250108.348       -1386.375          45.500  
R23  20058318.440   107298523.594        2231.680          47.500                                                                  
C23  24219200.240   126115711.023       -3035.641          46.250                                                                  
C28  21595527.460   112453580.586         683.500          48.000                                                                  
C37  22181239.160   115503529.1882       -428.191          50.250                                                                  
C08  38335202.880   199621478.836         191.215          41.000    38335207.480   154359976.625         144.816          47.000  
C13  37989052.500   197818969.875         609.465          47.250    37989063.060   152966213.086         471.867          46.000  
E15  25878403.220   135991935.969       -2314.543          46.500    25878411.740   104201613.207       -1774.367          48.750  
E13  23491977.620   123451193.160         364.406          50.500    23491983.860    94592467.926         279.297          47.750  
E21  23409236.800   123016350.492         -60.863          45.000    23409241.500    94259289.633         -46.512          43.000  
> 2024 04 10 11 01 24.0000000  0 18       0.000000000000
G18  21172390.420   111261660.672        2003.109          41.750    21172393.260    86697423.098        1560.938          43.750  
G29  21099278.860   110877454.848       -1671.742          53.000    21099281.520    86398025.148       -1304.922          46.500  
G31  21632486.840   113679488.633       -1045.395          52.500    21632488.900    88581428.035        -813.891          45.250  
G05  23309445.600   122491985.750         683.699          50.500    23309452.340    95448315.891         535.566          45.750  
G28  22182479.880   116569719.0393      -2657.684          47.750    22182484.520    90833573.7501      -2076.852          44.000  
R22  19528489.580   104244434.223       -1710.289          54.500    19528494.840    81079004.086       -1329.953          51.000  
R12  19556285.680   104466203.066       -1782.188          47.000    19556293.120    81251495.586       -1387.855          40.750  
R23  20057901.320   107296291.664        2232.344          49.250                                                                  
C23  24219782.360   126118747.168       -3037.617          43.250                                                                  
C28  21595396.460   112452896.652         683.727          51.000                                                                  
C37  22181321.580   115503957.7582       -429.422          49.500                                                                  
C08  38335166.820   199621289.766         189.273          44.000    38335170.760   154359830.523         145.070          45.750  
C13  37988935.740   197818360.754         607.047          48.000    37988945.960   152965742.137         471.035          43.500  
E15  25878844.080   135994251.973       -2318.047          45.750    25878852.460   104203387.664       -1774.066          43.750  
E13  23491908.580   123450828.988         365.422          45.250    23491914.580    94592188.957         279.652          47.750  
E21  23409246.700   123016410.574         -59.785          46.000    23409252.800    94259335.734         -45.348          47.750  
E27  25801942.780   135590123.6521      -2282.789          41.000    25801949.440   103893746.590       -1748.570          43.500  
E26  25500446.180   134005736.4221       2816.871          41.500    25500455.240   102679750.7931       2160.555          39.000  
> 2024 04 10 11 01 25.0000000  0 17       0.000000000000
G18  21172011.040   111259671.637        1999.535          48.500    21172014.780    86695873.434        1558.742          45.000  
G29  21099599.280   110879140.082       -1671.641          52.750    21099602.560    86399338.273       -1302.617          48.000  
G31  21632688.080   113680546.656       -1046.391          50.000    21632690.060    88582252.539        -815.355          42.000  
G05  23309317.440   122491312.668         685.219          50.750    23309323.600    95447791.422         535.715          45.250  
G28  22182989.740   116572396.5592      -2664.461          46.500    22182994.680    90835660.156       -2076.145          48.000  
R22  19528812.400   104246157.645       -1709.344          52.500    19528817.280    81080344.648       -1329.527          48.250  
R12  19556622.160   104468000.180       -1784.938          49.750    19556630.300    81252893.168       -1387.852          45.750  
R23  20057486.940   107294072.992        2231.855          48.750                                                                  
C28  21595267.280   112452225.668         684.145          51.500                                                                  
C37  22181406.120   115504399.1452       -429.125          51.000                                                                  
C08  38335133.280   199621114.004         189.285          45.250    38335137.040   154359694.508         145.551          47.000  
C13  37988821.100   197817764.906         608.516          46.250    37988831.800   152965281.266         471.934          47.250  
E15  25879286.020   135996581.426       -2316.719          44.500    25879295.700   104205172.621       -1776.480          48.250  
E13  23491840.240   123450478.168         363.344          43.500                                                                  
E21  23409260.940   123016483.660         -59.152          47.250    23409266.520    94259391.758         -46.625          51.000  
E27  25802377.700   135592419.215       -2285.695          36.250    25802386.620   103895505.484       -1750.566          40.500  
E26  25499912.200   134002931.813        2821.711          39.000    25499919.440   102677601.758        2158.617          42.000  
> 2024 04 10 11 01 26.0000000  0 18       0.000000000000
G18  21171632.300   111257682.820        2004.574          44.250    21171635.940    86694323.664        1560.016          46.750  
G29  21099919.720   110880825.215       -1671.941          53.750    21099923.100    86400651.563       -1304.676          46.750  
G31  21632889.260   113681606.059       -1046.637          48.000    21632892.440    88583078.020        -815.984          43.250  
G05  23309189.400   122490639.480         687.035          48.250    23309195.520    95447266.902         533.125          45.750  
G25  22928732.320   120491305.3133      -3276.828          37.250                                                                  
G28  22183500.120   116575075.074       -2664.168          48.750    22183504.960    90837746.918       -2076.617          49.250  
R22  19529135.320   104247881.398       -1710.684          53.250    19529141.320    81081685.422       -1331.391          49.250  
R12  19556957.960   104469797.559       -1784.621          47.750    19556966.900    81254291.340       -1387.895          49.250  
R23  20057071.480   107291855.047        2230.711          46.250                                                                  
C28  21595138.360   112451555.242         684.020          51.000                                                                  
C37  22181491.200   115504841.2422       -428.883          52.750                                                                  
C08  38335099.360   199620938.309         189.277          43.750    38335103.320   154359558.559         145.809          46.250  
C13  37988706.900   197817168.652         609.152          47.750    37988717.360   152964820.125         470.090          46.500  
E15  25879730.840   135998910.852       -2314.832          45.750    25879738.840   104206957.551       -1774.703          44.000  
E13  23491774.940   123450127.230         365.129          48.000                                                                  
E21  23409275.240   123016557.043         -60.289          47.750    23409280.360    94259447.922         -47.016          47.000  
E27  25802814.500   135594713.703       -2282.695          42.500                                                                  
E26  25499377.100   134000127.270        2817.848          45.500    25499385.380   102675452.723        2159.590          47.250  
> 2024 04 10 11 01 27.0000000  0 17       0.000000000000
G18  21171253.700   111255692.598        2008.719          44.500    21171256.740    86692772.988        1558.938          45.000  
G29  21100240.260   110882510.320       -1675.121          50.000    21100243.800    86401964.414       -1304.270          47.250  
G31  21633091.160   113682665.055       -1047.316          52.000    21633093.840    88583903.266        -816.480          45.500  
G05  23309061.400   122489966.047         685.125          48.500    23309067.240    95446742.180         531.070          43.000  
G28  22184009.560   116577751.738       -2664.559          51.250    22184014.280    90839832.508       -2077.531          50.500  
R22  19529458.200   104249605.500       -1712.289          55.250    19529464.500    81083026.094       -1330.008          52.000  
R12  19557294.800   104471593.828       -1784.191          49.000    19557302.080    81255688.320       -1387.113          45.500  
R23  20056656.420   107289636.266        2229.426          48.000                                                                  
C23  24221540.100   126127917.0083      -3033.848          41.250                                                                  
C28  21595009.640   112450884.141         682.195          53.000                                                                  
C37  22181575.940   115505282.8202       -430.711          52.750                                                                  
C08  38335065.400   199620762.281         187.645          43.500    38335069.160   154359422.453         147.715          47.000  
C13  37988592.380   197816571.828         607.273          45.000    37988602.320   152964358.660         469.914          44.250  
E15  25880173.380                       -2315.457          42.500    25880182.320   104208742.527       -1775.871          45.750  
E13  23491707.580   123449775.410         363.352          45.000    23491713.800    94591385.6801        279.391          43.750  
E21  23409289.420   123016629.734         -61.055          52.250    23409294.240    94259503.629         -46.660          51.500  
E26  25498843.320   133997320.387        2816.445          45.000    25498849.920   102673302.102        2158.656          46.000  
> 2024 04 10 11 01 28.0000000  0 17       0.000000000000
G18  21170876.240   111253705.941        2000.719          49.000    21170878.300    86691224.785        1559.934          47.250  
G29  21100561.460   110884197.195       -1672.219          52.750    21100564.760    86403278.961       -1302.637          44.500  
G31  21633293.200   113683728.367       -1050.023          51.250    21633296.100    88584731.730        -817.301          46.250  
G05  23308933.460   122489294.438         686.441          49.250    23308939.120    95446218.750         535.320          43.000  
G28  22184519.780   116580432.211       -2665.906          51.250    22184524.160    90841921.238       -2077.664          49.750  
R22  19529781.860   104251332.422       -1711.051          51.000    19529787.780    81084368.422       -1331.090          51.750  
R12  19557632.640   104473393.453       -1785.824          47.250    19557640.660    81257088.086       -1388.207          47.000  
R23  20056243.060   107287421.703        2228.332          50.250                                                                  
C23  24222125.780   126130966.031       -3034.371          42.000                                                                  
C28  21594881.360   112450216.398         680.859          52.250                                                                  
C37  22181661.380   115505728.492        -431.367          52.250                                                                  
C08  38335032.460   199620587.871         188.246          46.500    38335035.540   154359287.668         145.398          44.250  
C13  37988477.900   197815976.488         611.797          46.250    37988487.960   152963898.453         473.742          43.250  
E15  25880617.560   136003567.6131      -2315.531          44.500    25880626.200   104210528.684       -1773.766          43.750  
E13  23491642.420   123449426.434         363.074          42.000    23491647.860    94591118.270         277.703          45.250  
E21  23409303.680   123016705.242         -61.125          51.500    23409308.500    94259561.508         -46.957          50.750  
E26  25498308.740   133994517.238        2815.859          43.250    25498318.220   102671154.137        2157.938          43.250  
> 2024 04 10 11 01 29.0000000  0 16       0.000000000000
G18  21170497.300   111251719.449        2001.184          50.500    21170500.380    86689676.957        1558.457          50.250  
G29  21100882.540   110885884.523       -1672.477          46.750    21100885.940    86404593.809       -1303.113          46.000  
G31  21633495.940   113684791.836       -1047.746          53.750    21633498.280    88585560.480        -817.199          48.250  
G05  23308805.500   122488623.750         684.941          46.500    23308811.700    95445696.129         534.063          44.250  
G28  22185030.240   116583113.008       -2665.359          52.250    22185033.660    90844010.266       -2077.480          48.250  
R22  19530104.920   104253059.488       -1712.012          57.500    19530111.240    81085711.688       -1331.023          53.500  
R12  19557969.520   104475193.781       -1785.496          47.750    19557978.240    81258488.367       -1386.906          47.250  
R23  20055829.500   107285207.496        2229.340          51.500                                                                  
C23  24222711.440   126134015.238       -3034.320          45.500                                                                  
C28  21594753.000   112449548.707         681.879          51.750                                                                  
C37  22181746.980   115506173.902        -430.840          52.500                                                                  
C08  38334999.100   199620413.738         187.145          45.250    38335002.320   154359152.980         146.770          46.000  
C13  37988363.720   197815381.539         608.414          44.750    37988374.220   152963438.340         472.543          46.250  
E15  25881060.940   136005898.973       -2315.059          44.500    25881069.520   104212315.160       -1775.691          46.250  
E13  23491576.640   123449077.832         361.898          40.000    23491581.020    94590851.086         278.477          46.500  
E21  23409318.160   123016780.918         -60.738          52.000    23409322.860    94259619.555         -45.813          50.500  
> 2024 04 10 11 01 30.0000000  0 18       0.000000000000
G18  21170119.340   111249732.867        1999.234          51.250    21170122.660    86688128.941        1557.793          50.000  
G29  21101203.900   110887571.922       -1673.906          51.000    21101206.980    86405908.539       -1303.168          47.750  
G31  21633698.080   113685854.957       -1050.367          51.750    21633700.540    88586388.957        -818.996          48.250  
G05  23308678.120   122487953.648         685.605          47.000    23308684.540    95445174.004         533.480          44.750  
G25  22931232.040   120504454.3672      -3269.770          39.750                                                                  
G28  22185540.040   116585793.195       -2667.773          49.750    22185543.920    90846098.660       -2078.566          48.000  
R22  19530428.480   104254787.105       -1714.027          52.500    19530434.300    81087055.496       -1332.902          48.250  
R12  19558305.300   104476994.309       -1787.199          50.250    19558314.440    81259888.684       -1390.508          48.250  
R23  20055415.300   107282992.930        2227.734          51.000                                                                  
C23  24223295.380   126137063.914       -3040.527          37.000                                                                  
C28  21594624.900   112448880.852         680.375          49.500                                                                  
C37  22181832.420   115506619.156        -432.477          52.750                                                                  
C08  38334965.860   199620239.941         188.359          44.250    38334969.160   154359018.648         146.031          46.000  
C13  37988249.360   197814786.793         609.227          44.750    37988260.180   152962978.496         471.691          45.000  
E15  25881504.260   136008230.773       -2316.258          43.750    25881512.780   104214101.992       -1774.988          42.500  
E21  23409332.620   123016856.480         -62.211          52.250    23409337.460    94259677.465         -47.543          51.750  
E26  25497241.640   133988937.3831       2815.645          39.500                                                                  
E13                                                                  23491513.900    94590584.043         276.922          44.750  
> 2024 04 10 11 01 31.0000000  0 19       0.000000000000
G26  21125218.320   111013809.6293       2006.336          39.000                                                                  
G18  21169741.180   111247746.234        2001.383          52.000    21169744.940    86686580.895        1558.031          51.500  
G29  21101524.840   110889259.098       -1673.176          50.750    21101527.780    86407223.250       -1305.813          44.250  
G31  21633900.320   113686917.984       -1048.270          51.250    21633902.880    88587217.242        -815.309          47.750  
G05  23308550.720   122487283.785         682.422          48.000    23308556.880    95444652.043         534.004          41.750  
G25  22931856.020   120507742.0592      -3272.086          40.750                                                                  
G28  22186049.780   116588472.965       -2667.453          49.250    22186054.340    90848186.797       -2077.859          48.750  
R22  19530752.720   104256514.863       -1714.438          48.000    19530759.580    81088399.234       -1333.559          44.500  
R12  19558643.120   104478794.715       -1786.691          53.750    19558651.480    81261289.086       -1389.844          50.500  
R23  20055001.100   107280778.203        2228.289          51.000                                                                  
C28  21594496.700   112448212.816         682.699          52.250                                                                  
C37  22181917.560   115507064.164        -431.250          51.750                                                                  
C08  38334932.180   199620065.824         186.844          43.500    38334935.520   154358884.047         147.043          45.500  
C13  37988135.000   197814191.727         607.676          45.250    37988146.300   152962518.430         471.730          42.000  
E15  25881947.740   136010562.293       -2319.129          42.000    25881956.740   104215888.391       -1779.031          43.000  
E13  23491442.980   123448349.4341        361.715          47.750    23491448.160    94590316.820         278.457          47.000  
E21  23409347.100   123016931.738         -61.566          53.250    23409351.660    94259735.117         -46.621          52.000  
E27  25804997.920   135606180.3361      -2282.027          42.000                                                                  
E26                                                                  25496716.800   102664698.3241       2160.688          45.000  
> 2024 04 10 11 01 32.0000000  0 19       0.000000000000
G26  21124836.600                        2003.785          37.500    21124840.760    86502683.7381       1563.715          35.750  
G18  21169362.640   111245757.496        2000.332          52.000    21169366.340    86685031.250        1558.301          50.500  
G29  21101845.080   110890944.020       -1674.230          46.750    21101848.400    86408536.281       -1306.582          43.500  
G31  21634102.160   113687978.727       -1050.285          51.500    21634104.740    88588043.828        -817.910          47.000  
G05  23308423.020   122486612.109         681.941          46.500    23308429.360    95444128.801         531.012          37.500  
G28  22186559.540   116591150.465       -2664.781          49.500    22186564.060    90850273.301       -2077.621          48.750  
G25                                                                  22932491.040    93904727.4261      -2551.070          42.250  
R12  19558979.860   104480593.469       -1787.203          55.750    19558987.980    81262688.035       -1389.527          52.750  
R23  20054586.440   107278561.336        2229.473          50.500                                                                  
R22                                                                  19531081.140    81089741.539       -1334.621          40.500  
C23  24224466.540   126143147.8013      -3036.043          45.000                                                                  
C28  21594368.000   112447542.285         680.160          52.750                                                                  
C37  22182002.760   115507506.910        -432.457          52.750                                                                  
C08  38334898.520   199619889.355         186.449          42.000    38334902.000   154358747.699         144.801          43.000  
C13  37988020.400   197813588.4963        607.508          41.000    37988031.000   152962056.742         471.070          39.500  
E15  25882393.040   136012891.348       -2317.418          41.750    25882400.220   104217673.184       -1775.613          38.750  
E13  23491374.420   123447998.512         365.898          41.500    23491381.660    94590047.879         276.957          45.750  
E21  23409360.540   123017004.539         -62.121          50.250    23409365.500    94259790.961         -47.469          52.500  
E27  25805435.320   135608472.707       -2281.207          41.750    25805441.360   103907805.8791      -1745.332          38.750  
> 2024 04 10 11 01 33.0000000  0 19       0.000000000000
G26  21124456.960   111009764.6913       2004.023          43.500    21124462.360    86501130.758        1561.883          39.250  
G18  21168984.060   111243768.754        1999.168          52.250    21168987.520    86683481.625        1559.410          50.500  
G29  21102165.880   110892629.824       -1675.465          48.250    21102168.960    86409849.895       -1304.199          40.500  
G31  21634304.080   113689040.465       -1049.293          51.750    21634306.600    88588871.203        -815.840          46.000  
G05  23308295.580   122485941.605         681.281          44.250    23308302.200    95443606.277         530.953          42.750  
G25  22933105.780   120514288.5943      -3272.473          46.500    22933115.700    93907287.188       -2548.133          43.500  
G28  22187069.300   116593827.883       -2666.754          48.000    22187073.700    90852359.566       -2080.242          47.750  
R12  19559316.340   104482392.488       -1788.195          55.250    19559324.360    81264087.309       -1391.297          52.000  
R23  20054172.660   107276344.934        2227.281          51.000                                                                  
C23  24225051.320   126146193.0822      -3034.047          47.000                                                                  
C28  21594239.300   112446872.480         682.086          52.750                                                                  
C37  22182088.080   115507950.473        -430.973          53.000                                                                  
C08  38334864.700   199619714.207         187.766          40.250    38334867.840   154358612.059         145.078          44.500  
C13  37987905.600   197812991.8052        608.043          39.000    37987915.980   152961595.289         468.676          40.750  
E13  23491309.060   123447648.148         362.781          49.500    23491314.980    94589779.449         276.453          50.750  
E21  23409374.400   123017078.039         -61.891          51.000    23409379.480    94259847.273         -46.473          52.250  
E27  25805870.660   135610764.668       -2280.238          45.250    25805878.900   103909561.980       -1745.797          44.750  
E26  25495641.000   133980494.2031       2817.711          40.500    25495647.900   102660394.2501       2162.422          40.000  
E15                                                                  25882843.260   104219458.953       -1773.477          39.000  
> 2024 04 10 11 01 34.0000000  0 20       0.000000000000
G26  21124077.520   111007770.8522       2002.461          50.500    21124082.420    86499577.035        1561.137          45.250  
G18  21168605.400   111241778.945        1998.633          52.250    21168608.600    86681931.145        1559.996          50.750  
G29  21102486.260   110894315.109       -1674.637          48.250    21102489.800    86411163.063       -1306.434          43.500  
G31  21634506.040   113690101.195       -1051.652          52.500    21634508.420    88589697.730        -820.188          47.250  
G05  23308167.760   122485270.625         682.273          43.250    23308174.240    95443083.445         532.250          43.750  
G25  22933730.860   120517572.2972      -3270.664          43.750    22933739.680    93909845.934       -2554.906          37.750  
G28  22187578.900                       -2669.324          48.250    22187582.660    90854444.668       -2078.727          45.750  
R22  19531721.620   104261694.5943      -1716.023          44.000    19531730.060    81092439.4773      -1335.539          42.750  
R12  19559652.860   104484190.734       -1787.148          54.750    19559661.320    81265485.977       -1391.500          52.750  
R23  20053757.400   107274127.500        2227.152          51.000                                                                  
C23  24225635.840   126149236.949       -3033.676          47.500                                                                  
C28  21594110.200   112446201.672         679.805          52.250                                                                  
C37  22182173.040   115508392.961        -432.648          52.000                                                                  
C08  38334830.840   199619538.141         186.480          40.750    38334834.220   154358476.094         144.254          45.250  
C13  37987791.000   197812394.598         608.059          41.500    37987800.920   152961133.355         469.434          40.500  
E13  23491242.440   123447296.867         361.695          50.500    23491247.960    94589510.262         276.918          49.500  
E21  23409388.720   123017150.566         -62.480          51.250    23409393.300    94259902.859         -47.379          51.500  
E27  25806306.100   135613055.367       -2280.465          46.750    25806315.120   103911317.273       -1746.094          46.000  
E26  25495106.740   133977685.020        2816.641          45.500    25495114.160   102658241.543        2157.922          43.000  
E15                                                                  25883286.460   104221244.082       -1776.004          38.750  
> 2024 04 10 11 01 35.0000000  0 21       0.000000000000
G26  21123696.040   111005767.0742       2002.613          53.750    21123700.900    86498015.688        1561.484          49.750  
G18  21168224.840   111239779.086        2000.113          52.000    21168228.240    86680372.805        1558.770          51.000  
G29  21102805.240   110895989.871       -1674.980          50.750    21102808.420    86412468.086       -1306.617          45.750  
G31  21634706.180   113691152.141       -1050.309          53.000    21634708.420    88590516.582        -818.938          47.750  
G25  22934353.880   120520845.6452      -3273.188          43.750    22934362.800    93912396.590       -2551.594          41.500  
G28  22188086.180   116599183.8323      -2666.668          42.500    22188090.300    90856527.9491      -2077.297          42.000  
G05                                                                  23308044.500    95442552.906         527.809          41.000  
R22  19532043.260   104263410.5512      -1718.891          45.000    19532050.060    81093774.2662      -1335.473          45.250  
R13  19748390.140   105455337.1603       1944.977          40.000    19748395.160    82020809.1483       1513.273          41.500  
R12  19559987.720   104485978.879       -1788.445          55.750    19559996.100    81266876.762       -1389.898          52.750  
R23  20053341.780   107271899.875        2227.344          51.750                                                                  
C23  24226218.680   126152270.582       -3033.988          48.250                                                                  
C28  21593979.620   112445520.621         681.070          52.500                                                                  
C37  22182255.860   115508825.453        -433.168          51.750                                                                  
C08  38334794.740   199619351.961         183.793          39.750    38334798.880   154358332.102         142.910          44.000  
C13  37987674.400   197811786.988         607.344          40.500    37987684.400   152960663.617         469.293          41.750  
E15  25883718.700   136019866.5001      -2322.125          38.500    25883726.900   104223028.3911      -1776.781          39.750  
E13  23491173.680   123446935.344         361.113          51.000    23491179.340    94589233.375         275.832          51.250  
E21  23409400.440   123017212.711         -64.063          51.000    23409405.260    94259950.512         -48.395          52.000  
E27  25806739.860   135615335.715       -2279.684          44.500    25806749.040   103913064.527       -1749.113          44.750  
E26  25494569.560   133974865.430        2818.414          45.500    25494577.700   102656081.203        2161.723          44.000  
> 2024 04 10 11 01 36.0000000  0 21       0.000000000000
G26  21123315.780   111003769.4142       2004.602          53.250    21123320.600    86496459.023        1563.332          48.000  
G18  21167845.640   111237785.070        2001.523          52.500    21167848.680    86678819.055        1561.207          49.750  
G29  21103125.140   110897670.242       -1673.004          51.750    21103127.740    86413777.430       -1303.172          47.250  
G31  21634907.700   113692209.406       -1051.148          52.250    21634909.460    88591340.504        -815.668          46.500  
G25  22934978.020   120524124.0352      -3269.703          44.750    22934986.880    93914951.102       -2550.508          41.250  
G28  22188594.100   116601855.8282      -2663.906          42.750    22188598.980    90858610.2231      -2076.387          42.750  
G05                                                                  23307915.680    95442026.855         531.938          35.500  
R22  19532366.760   104265133.344       -1714.605          51.250    19532372.860    81095113.766       -1333.180          50.000  
R13  19748027.820   105453398.832        1946.414          44.000    19748033.640    82019301.102        1512.512          45.000  
R12  19560323.460   104487773.102       -1787.066          55.500    19560332.160    81268272.324       -1389.973          52.500  
R23  20052926.840   107269678.656        2228.348          51.500                                                                  
C23  24226802.260   126155309.523       -3030.523          46.750                                                                  
C28  21593850.140   112444845.547         681.613          53.000                                                                  
C37  22182340.120   115509264.074        -431.734          52.750                                                                  
C08  38334760.480   199619171.176         186.902          42.000    38334764.420   154358192.297         145.656          47.250  
C13  37987558.600   197811184.531         607.844          39.250    37987569.860   152960197.672         471.258          38.500  
E15  25884162.100   136022191.445       -2318.324          41.750    25884169.680   104224809.992       -1773.500          41.000  
E13  23491105.820   123446579.598         362.895          51.750    23491111.740    94588960.758         278.313          52.000  
E21  23409413.180   123017280.637         -60.223          51.250    23409418.140    94260002.559         -47.297          52.250  
E27  25807174.940   135617621.047       -2278.637          44.750    25807183.920   103914815.586       -1744.563          44.250  
E26  25494033.740   133972051.594        2820.434          43.500    25494041.800   102653925.207        2160.516          44.500  
> 2024 04 10 11 01 37.0000000  0 21       0.000000000000
G26  21122935.820   111001773.6332       2003.832          53.250    21122940.840    86494903.945        1562.109          48.750  
G18  21167466.440   111235792.375        2002.727          51.750    21167469.760    86677266.344        1557.297          51.250  
G29  21103445.380   110899351.672       -1674.484          51.750    21103447.520    86415087.676       -1304.238          48.500  
G31  21635109.040   113693268.926       -1052.047          51.000    21635110.520    88592166.000        -820.500          45.000  
G25  22935601.960   120527403.0432      -3269.176          41.500    22935610.880    93917506.172       -2548.637          39.500  
G28  22189103.200   116604529.3402      -2665.125          44.750    22189107.300    90860693.383       -2075.820          41.500  
G05                                                                  23307787.420    95441501.395         528.953          37.250  
R22  19532689.740   104266857.313       -1716.578          57.250    19532695.640    81096454.660       -1334.645          54.500  
R13  19747665.680   105451461.996        1943.910          43.250    19747672.360    82017794.754        1512.914          45.500  
R12  19560659.720   104489568.926       -1787.621          55.000    19560668.120    81269668.988       -1389.805          51.750  
R23  20052511.620   107267459.340        2226.770          51.500                                                                  
C23  24227386.240   126158349.195       -3031.891          47.750                                                                  
C28  21593720.880   112444172.059         681.207          53.250                                                                  
C37  22182424.900   115509704.445        -431.727          52.750                                                                  
C08  38334725.560   199618991.168         186.867          41.500    38334729.700   154358053.109         143.277          48.250  
C13  37987443.800   197810582.820         609.453          40.750    37987454.060   152959732.465         469.031          40.250  
E15  25884604.000   136024517.512       -2318.656          39.750    25884612.800   104226592.203       -1777.770          45.000  
E13  23491038.300   123446225.082         363.156          51.500    23491044.380    94588689.125         278.316          52.500  
E21  23409426.320   123017349.863         -61.344          51.250    23409431.340    94260055.594         -47.441          51.750  
E27  25807611.000   135619906.914       -2279.484          43.000    25807618.560   103916567.234       -1748.391          43.750  
E26  25493499.260   133969238.918        2820.785          41.500    25493506.680   102651770.023        2167.324          45.250  
> 2024 04 10 11 01 38.0000000  0 21       0.000000000000
G26  21122556.020   110999778.172        2004.473          52.750    21122561.080    86493348.648        1562.273          48.250  
G18  21167087.220   111233799.348        2001.359          52.250    21167090.400    86675713.316        1558.672          50.750  
G29  21103765.260   110901032.543       -1672.723          50.750    21103767.640    86416397.477       -1303.148          47.000  
G31  21635310.740   113694328.227       -1051.188          52.500    21635312.240    88592991.488        -820.301          46.500  
G25  22936225.180                       -3269.867          41.500                                                                  
G28  22189611.700   116607202.5272      -2668.117          43.500    22189616.020    90862776.4061      -2075.945          43.250  
G05                                                                  23307659.900    95440975.844         533.066          40.000  
R22  19533012.480   104268581.074       -1715.723          56.000    19533018.460    81097795.387       -1333.820          54.750  
R13  19747303.220   105449525.184        1945.133          44.000    19747309.620    82016288.316        1512.383          46.250  
R12  19560995.600   104491364.547       -1787.863          55.000    19561004.260    81271065.648       -1389.480          52.750  
R23  20052096.400   107265239.840        2228.129          51.250                                                                  
C23  24227969.600   126161396.2113      -3029.070          44.500                                                                  
C28  21593591.400   112443498.133         681.715          53.250                                                                  
C37  22182509.280   115510144.520        -431.176          52.750                                                                  
C08  38334691.560   199618810.617         191.133          41.750    38334694.720   154357913.551         146.367          45.500  
C13  37987327.400   197809980.359         609.121          37.750    37987338.020   152959266.629         478.773          37.750  
E15  25885047.340   136026843.027       -2317.195          44.750    25885055.620   104228374.156       -1774.008          47.250  
E13  23490971.180   123445870.121         363.578          51.750    23490976.640    94588417.176         278.855          51.500  
E21  23409439.420   123017418.617         -59.223          51.500    23409444.460    94260108.254         -46.520          52.000  
E26  25492963.780   133966425.5901       2820.219          42.250    25492970.860   102649614.352        2165.422          42.250  
E27                                                                  25808054.360   103918318.230       -1745.680          43.000  
> 2024 04 10 11 01 39.0000000  0 21       0.000000000000
G26  21122175.520   110997779.875        2003.324          52.750    21122181.120    86491791.574        1561.934          48.750  
G18  21166707.520   111231803.922        2000.508          52.000    21166710.280    86674158.402        1559.125          50.250  
G29  21104084.840   110902711.008       -1671.531          50.250    21104086.880    86417705.379       -1303.254          45.750  
G31  21635512.020   113695385.371       -1050.766          53.250    21635513.580    88593815.234        -818.371          47.000  
G05  23307524.960   122481869.7663        683.648          46.250    23307530.060    95440448.645         531.734          44.000  
G25  22936849.100   120533959.4143      -3269.516          46.750                                                                  
G28                                                                  22190123.860    90864857.313       -2078.992          44.000  
R22  19533334.780   104270302.645       -1716.449          56.750    19533341.120    81099134.367       -1334.254          55.000  
R13  19746940.680   105447586.258        1943.035          43.750    19746945.520    82014780.273        1513.473          45.000  
R12  19561331.560   104493157.926       -1787.828          55.500    19561339.980    81272460.445       -1390.297          52.250  
R23  20051681.400   107263018.023        2227.934          52.000                                                                  
C23  24228553.000   126164432.234       -3023.730          43.750                                                                  
C28  21593461.520   112442821.766         683.164          53.000                                                                  
C37  22182593.560   115510582.348        -432.020          53.500                                                                  
C08  38334655.600   199618627.613         187.672          38.250    38334659.460   154357771.926         144.492          47.250  
C13  37987210.820   197809375.496         611.484          39.500                                                                  
E15  25885489.380   136029166.145       -2316.387          46.250    25885498.020   104230154.145       -1775.852          50.500  
E13  23490902.860   123445512.781         363.309          51.500    23490908.660    94588143.324         280.063          52.250  
E21  23409452.440   123017484.844         -59.590          52.000    23409457.140    94260158.965         -46.539          52.250  
E27  25808479.080   135624493.4101      -2276.547          42.750    25808488.400   103920066.930       -1742.512          43.750  
E26  25492428.140   133963609.461        2823.617          42.750    25492435.420   102647456.527        2163.969          43.750  
> 2024 04 10 11 01 40.0000000  0 19       0.000000000000
G26  21121795.860   110995783.957        2005.613          52.250    21121800.940    86490236.395        1562.727          48.000  
G18  21166328.240   111229811.305        2002.316          52.250    21166331.220    86672605.715        1560.996          50.500  
G29  21104404.680   110904391.961       -1671.645          50.500    21104406.760    86419015.191       -1302.410          47.500  
G31  21635713.660   113696445.262       -1051.691          52.250    21635715.520    88594641.145        -819.309          47.500  
G05  23307396.680   122481196.0512        682.570          48.000    23307402.100    95439923.707         531.984          44.000  
G25  22937473.240   120537237.4692      -3268.434          47.000    22937483.380    93925171.0311      -2548.859          41.500  
R22  19533658.220   104272027.012       -1715.563          57.000    19533663.940    81100475.551       -1334.273          53.750  
R13  19746576.940   105445650.148        1945.805          43.500    19746583.580    82013274.371        1512.965          45.250  
R12  19561667.800   104494954.305       -1788.445          55.750    19561676.400    81273857.621       -1389.844          52.250  
R23  20051266.260   107260798.984        2227.113          52.000                                                                  
C28  21593332.140   112442147.953         682.090          53.000                                                                  
C37  22182677.860   115511022.750        -431.426          52.250                                                                  
C08  38334621.240   199618446.883         189.500          38.750    38334625.160   154357632.258         145.434          44.750  
C13  37987095.520   197808773.016         612.023          43.000    37987106.340   152958319.8873        472.453          41.250  
E15  25885930.960   136031491.715       -2315.914          44.000    25885940.400   104231936.027       -1776.051          46.750  
E13  23490835.260   123445158.098         364.391          51.750    23490841.160    94587871.590         278.422          51.250  
E21  23409465.120   123017553.500         -60.105          51.500    23409470.240    94260211.637         -46.797          52.250  
E27  25808914.460   135626778.371       -2275.641          47.000    25808922.800   103921817.656       -1744.164          46.250  
E26  25491892.520   133960795.828        2821.242          39.500    25491900.040   102645300.664        2162.813          45.000  
> 2024 04 10 11 01 41.0000000  0 21       0.000000000000
G26  21121416.660   110993790.395        2006.520          51.750    21121421.700    86488682.875        1564.059          47.500  
G18  21165949.420   111227820.332        2003.434          52.250    21165952.440    86671054.355        1562.855          50.500  
G29  21104724.460   110906074.324       -1668.641          52.000    21104726.880    86420326.121       -1299.684          48.000  
G31  21635915.700   113697507.473       -1047.949          52.000    21635917.580    88595468.832        -818.250          46.250  
G05  23307268.820                         679.656          38.500    23307274.140    95439399.953         533.957          41.750  
G25  22938096.900   120540516.3672      -3265.215          47.250    22938106.220    93927726.125       -2544.438          41.500  
G28  22191136.300   116615209.8283      -2656.844          41.750                                                                  
R22  19533981.680   104273753.309       -1713.535          56.250    19533987.480    81101818.215       -1332.117          54.500  
R13  19746214.320   105443716.391        1947.789          43.000    19746221.580    82011770.359        1511.316          45.500  
R12  19562004.760   104496752.586       -1784.914          55.250    19562013.120    81275256.316       -1388.836          53.000  
R23  20050852.140   107258582.203        2230.203          52.000                                                                  
C23  24229721.560   126170532.1523      -3025.000          44.250                                                                  
C28  21593202.880   112441476.027         684.910          52.750                                                                  
C37  22182762.660   115511465.219        -428.770          52.250                                                                  
C08  38334585.800   199618267.441         193.266          38.500    38334591.320   154357493.484         152.563          43.250  
C13  37986980.060   197808171.699         614.434          44.750    37986990.240   152957855.1522        475.109          40.750  
E15  25886372.540   136033818.496       -2315.031          40.250    25886383.020   104233719.004       -1770.547          46.000  
E13  23490767.920   123444805.047         367.184          52.000    23490774.180    94587601.055         281.012          51.750  
E21  23409478.680   123017623.891         -57.309          52.000    23409483.480    94260265.516         -44.348          51.750  
E27  25809349.220   135629064.188       -2272.211          47.500    25809357.480   103923569.086       -1740.973          46.000  
E26  25491358.480   133957983.727        2826.473          41.500    25491365.340   102643145.836        2168.766          40.000  
> 2024 04 10 11 01 42.0000000  0 21       0.000000000000
G26  21121037.400   110991796.750        2007.828          51.750    21121042.520    86487129.391        1565.207          46.750  
G18  21165570.360   111225829.250        2004.551          52.000    21165573.600    86669502.813        1561.918          50.500  
G29  21105044.640   110907756.168       -1667.922          51.750    21105046.840    86421636.676       -1300.406          48.500  
G31  21636117.920   113698570.098       -1050.563          49.750    21636119.420    88596296.824        -814.887          45.000  
G25  22938720.600   120543794.3672      -3264.527          48.000    22938729.060    93930280.391       -2538.781          41.250  
G28  22191645.920   116617884.6912      -2661.082          45.500    22191650.100    90871102.195       -2072.195          44.250  
G05                                                                  23307146.360    95438875.871         534.883          40.250  
R22  19534304.840   104275479.543       -1713.805          56.500    19534310.600    81103160.836       -1332.160          54.000  
R13  19745852.800   105441782.824        1947.539          44.250    19745859.660    82010266.484        1514.141          45.000  
R12  19562341.040   104498550.832       -1785.059          55.500    19562349.200    81276654.914       -1388.770          52.500  
R23  20050437.500   107256365.609        2230.148          49.250                                                                  
C23  24230303.780   126173571.3952      -3026.043          44.750                                                                  
C28  21593073.860   112440803.922         685.609          53.250                                                                  
C37  22182847.980   115511907.723        -429.402          53.250                                                                  
C08  38334552.440   199618087.375         193.070          37.500    38334555.800   154357354.242         150.523          42.250  
C13  37986864.940   197807569.680         614.961          44.000    37986875.020   152957389.5472        475.770          43.250  
E15  25886816.840   136036144.785       -2313.438          45.500    25886825.820   104235501.406       -1772.496          48.500  
E13  23490700.780   123444451.656         367.043          52.000    23490706.880    94587330.223         280.527          51.750  
E21  23409492.000   123017693.859         -55.957          52.250    23409496.680    94260319.160         -44.211          52.250  
E27  25809783.740   135631349.105       -2273.699          47.500    25809792.340   103925319.941       -1741.152          47.500  
E26  25490821.100   133955171.168        2829.086          39.000    25490830.140   102640990.902        2164.074          40.250  
> 2024 04 10 11 01 43.0000000  0 21       0.000000000000
G26  21120657.980   110989803.559        2007.164          52.250    21120663.420    86485576.266        1563.895          48.000  
G18  21165191.700   111223838.488        2006.715          52.500    21165194.600    86667951.586        1561.480          49.750  
G29  21105364.980   110909437.965       -1666.531          53.500    21105367.080    86422947.188       -1298.273          48.250  
G31  21636320.160   113699633.340       -1049.418          48.000    21636322.440    88597125.441        -818.910          43.000  
G05  23307008.840   122479144.3873        687.824          38.000    23307018.520    95438352.105         535.852          40.500  
G25  22939344.780   120547072.2772      -3263.348          47.500    22939352.800    93932834.578       -2545.117          42.000  
G28  22192155.480   116620560.1212      -2663.426          46.750    22192159.500    90873186.844       -2075.836          42.250  
R22  19534628.360   104277206.070       -1711.789          56.750    19534634.260    81104503.711       -1331.547          54.000  
R13  19745491.380   105439849.859        1948.148          44.250    19745498.360    82008763.102        1515.641          45.750  
R12  19562677.980   104500349.543       -1784.211          55.750    19562686.340    81278053.953       -1387.512          52.500  
R23  20050023.640   107254149.473        2229.301          50.500                                                                  
C23  24230887.920   126176610.6642      -3024.141          47.000                                                                  
C28  21592944.980   112440132.094         685.910          53.000                                                                  
C37  22182933.020   115512350.660        -428.594          52.500                                                                  
C08  38334518.140   199617907.277         187.773          36.250    38334521.440   154357214.957         149.688          41.500  
C13  37986748.800   197806967.418         617.707          43.750    37986759.620   152956923.8592        477.199          44.000  
E15  25887259.560   136038470.793       -2311.613          42.000    25887268.800   104237283.664       -1774.750          45.500  
E13  23490633.580   123444098.441         367.977          51.500    23490639.820    94587059.609         281.855          52.000  
E21  23409505.460   123017764.004         -55.551          52.000    23409510.200    94260372.859         -42.859          52.000  
E27  25810218.640   135633633.918       -2269.695          47.750    25810226.860   103927070.629       -1739.043          45.500  
E26                                                                  25490295.200   102638836.191        2168.965          38.500  
> 2024 04 10 11 01 44.0000000  0 20       0.000000000000
G26  21120278.840   110987811.410        2008.613          53.000    21120284.340    86484023.891        1565.223          49.000  
G18  21164813.200   111221848.660        2004.906          51.750    21164816.080    86666401.047        1562.938          50.750  
G29  21105684.940   110911120.438       -1664.848          52.750    21105687.340    86424258.156       -1297.723          48.250  
G31  21636522.940   113700697.859       -1051.480          43.750                                                                  
G25  22939968.460   120550350.484       -3262.500          47.250    22939977.200    93935388.969       -2541.422          44.250  
G28  22192664.600   116623236.840       -2657.855          45.750    22192669.180    90875272.336       -2075.434          41.750  
G05                                                                  23306891.120    95437828.797         534.621          37.750  
R22  19534952.180   104278933.586       -1710.727          56.500    19534957.760    81105847.285       -1329.680          54.250  
R13  19745129.580   105437918.160        1947.371          44.250    19745135.960    82007260.621        1514.113          45.250  
R12  19563014.620   104502149.340       -1782.574          55.000    19563023.060    81279453.773       -1386.641          52.500  
R23  20049609.000   107251934.629        2230.289          49.500                                                                  
C23  24231471.840   126179650.4532      -3020.164          43.500                                                                  
C28  21592816.080   112439461.133         687.711          53.000                                                                  
C37  22183018.320   115512794.633        -427.418          52.500                                                                  
C13  37986633.240   197806365.473         618.063          45.000    37986644.140   152956458.2972        480.309          42.000  
C08                                                                  38334487.240   154357075.797         150.539          41.750  
E15  25887702.720   136040797.453       -2309.781          40.750    25887711.040   104239066.348       -1768.594          43.750  
E13  23490566.760   123443745.996         369.637          52.000    23490572.640    94586789.563         283.633          52.000  
E21  23409518.700   123017834.785         -53.027          52.000    23409523.740    94260427.109         -40.719          52.000  
E27  25810653.900   135635918.926       -2267.621          48.000    25810662.060   103928821.473       -1738.641          46.500  
> 2024 04 10 11 01 45.0000000  0 19       0.000000000000
G26  21119898.840   110985814.559        2008.625          52.750    21119904.080    86482467.898        1564.219          48.500  
G18  21164433.380   111219853.891        2006.438          51.000    21164436.320    86664846.660        1563.594          49.750  
G29  21106004.180   110912797.453       -1664.789          53.250    21106006.200    86425564.895       -1296.320          47.750  
G31  21636725.280   113701758.027       -1048.641          39.000                                                                  
G25  22940591.180   120553622.961       -3259.539          44.500    22940599.920    93937938.992       -2539.879          40.500  
G28  22193172.980   116625908.648       -2659.813          46.250                                                                  
R22  19535274.800   104280656.039       -1710.824          56.500    19535280.100    81107187.020       -1329.629          54.250  
R13  19744766.840   105435981.828        1948.496          44.250    19744773.380    82005754.598        1514.914          45.250  
R12  19563350.760   104503944.211       -1781.773          55.750    19563358.700    81280849.738       -1387.023          51.750  
R23  20049194.080   107249715.137        2231.145          51.500                                                                  
C23  24232054.340   126182675.8833      -3023.801          42.000                                                                  
C28  21592686.200   112438785.324         687.965          53.250                                                                  
C37  22183102.300   115513233.961        -427.797          52.500                                                                  
C13                                                                  37986527.460   152955988.5942        478.434          41.750  
C08                                                                  38334451.520   154356932.617         152.406          43.750  
E15  25888144.460   136043118.621       -2307.449          37.750    25888152.880   104240845.000       -1766.551          42.750  
E13  23490498.220   123443388.367         369.340          52.000    23490504.700    94586515.527         283.258          52.250  
E21  23409531.280   123017900.473         -53.633          52.250    23409536.160    94260477.445         -40.488          52.250  
E27  25811086.480   135638198.242       -2268.617          47.750    25811096.440   103930568.000       -1737.520          44.000  
> 2024 04 10 11 01 46.0000000  0 20       0.000000000000
G26  21119516.400   110983804.953        2009.070          52.750    21119521.560    86480901.988        1565.262          49.250  
G18  21164051.420   111217846.016        2007.664          52.250    21164054.440    86663282.039        1564.566          51.250  
G29  21106320.440   110914460.727       -1663.266          52.250    21106322.980    86426860.918       -1297.004          49.250  
G31  21636924.560   113702805.770       -1046.598          43.500    21636924.420    88599594.2771       -817.438          38.500  
G25  22941211.200   120556881.590       -3258.969          45.750    22941218.880    93940478.008       -2540.047          39.500  
G28  22193679.140   116628567.543       -2659.789          46.500    22193683.600    90879432.0201      -2073.164          41.500  
R22  19535594.620   104282365.043       -1709.508          56.250    19535600.280    81108516.227       -1330.016          54.000  
R13  19744401.180   105434032.594        1948.789          43.250    19744407.620    82004238.473        1516.012          45.500  
R12  19563684.540   104505725.785       -1781.922          56.250    19563692.940    81282235.414       -1386.137          53.500  
R23  20048777.260   107247482.734        2231.582          52.000                                                                  
C23  24232634.280   126185696.910       -3020.836          42.750                                                                  
C28  21592553.940   112438096.508         687.742          53.000                                                                  
C37  22183184.320   115513660.520        -426.914          52.500                                                                  
C08  38334410.340   199617334.8953        200.875          39.250    38334412.760   154356778.574         153.926          43.750  
C13  37986395.920   197805128.4613        621.645          42.500    37986408.500   152955508.023         478.672          40.500  
E15  25888584.620   136045425.668       -2305.016          39.750    25888592.380   104242612.766       -1765.500          41.500  
E13  23490428.260   123443017.293         371.523          52.000    23490434.180    94586231.207         284.023          52.500  
E21  23409541.180   123017952.703         -52.246          52.250    23409546.300    94260517.496         -40.516          52.500  
E27  25811516.960   135640463.602       -2265.566          45.000    25811526.360   103932303.773       -1736.070          45.000  
E26                                                                  25488685.860   102632367.9651       2168.367          41.750  
> 2024 04 10 11 01 47.0000000  0 18       0.000000000000
G26  21119136.860   110981810.066        2010.938          52.750    21119142.060    86479347.484        1567.477          50.000  
G18  21163671.860   111215852.465        2008.719          50.750    21163675.220    86661728.727        1566.273          49.750  
G29  21106639.540   110916137.219       -1660.160          52.750    21106641.980    86428167.309       -1293.359          48.000  
G31  21637126.540   113703868.816       -1050.805          42.000    21637127.800    88600422.668        -817.762          37.000  
G25  22941833.280   120560153.250       -3254.766          45.750    22941841.880    93943027.375       -2537.113          40.250  
G28  22194188.500   116631241.801       -2659.059          43.000    22194193.220    90881515.730       -2073.191          39.750  
R22  19535917.640   104284088.152       -1706.730          56.750    19535922.700    81109856.379       -1327.738          53.500  
R13  19744039.140   105432098.293        1950.098          44.000    19744046.000    82002734.020        1516.898          45.750  
R12  19564020.780   104507521.957       -1779.719          56.250    19564029.340    81283632.523       -1384.645          52.750  
R23  20048362.580   107245265.777        2233.195          51.500                                                                  
C28  21592424.460   112437422.039         689.781          52.750                                                                  
C37  22183269.320   115514101.770        -426.074          53.000                                                                  
C13  37986279.380   197804519.6952        625.488          39.750                                                                  
C08                                                                  38334377.480   154356634.355         154.320          38.500  
E13  23490360.120   123442660.094         373.523          52.500    23490366.060    94585957.496         285.883          52.500  
E21  23409553.980   123018019.016         -49.395          52.750    23409558.780    94260568.258         -38.664          52.000  
E27  25811951.520   135642742.012       -2262.906          48.250    25811960.140   103934049.488       -1732.660          47.000  
E15                                                                  25889033.480   104244390.477       -1764.230          37.750  
> 2024 04 10 11 01 48.0000000  0 18       0.000000000000
G26  21118757.220   110979815.305        2010.434          53.250    21118762.680    86477793.191        1565.605          49.750  
G18  21163293.200   111213859.734        2008.875          44.750    21163295.840    86660175.824        1564.898          47.500  
G29  21106958.620   110917813.074       -1660.328          52.500    21106961.120    86429473.211       -1294.102          47.500  
G31  21637328.700   113704932.609       -1048.902          47.500    21637330.140    88601251.668        -818.219          43.750  
G25  22942455.600   120563424.574       -3255.922          44.000    22942465.320    93945576.602       -2539.063          42.750  
G28  22194697.640   116633916.805       -2658.035          39.000    22194702.320    90883600.289       -2073.762          40.250  
R22  19536240.140   104285810.969       -1706.898          56.250    19536245.800    81111196.391       -1328.258          54.000  
R13  19743677.080   105430164.234        1949.957          43.500    19743684.480    82001229.738        1516.332          45.500  
R12  19564356.700   104509318.801       -1781.988          54.500    19564365.540    81285029.992       -1385.590          51.750  
R23  20047948.400   107243049.746        2231.234          52.500                                                                  
C28  21592294.800   112436747.910         689.266          52.500                                                                  
C37  22183354.180   115514543.637        -426.762          53.000                                                                  
C13  37986162.320   197803909.9572        624.770          42.750    37986173.540   152954565.7033        483.566          44.750  
C08                                                                  38334340.540   154356489.211         156.305          40.250  
E13  23490292.280   123442302.863         373.043          53.000    23490297.980    94585683.754         285.867          51.750  
E21  23409566.660   123018085.172         -50.184          52.250    23409571.160    94260618.996         -38.141          51.750  
E27  25812385.240   135645020.137       -2262.363          47.500    25812393.540   103935795.070       -1733.355          45.000  
E15                                                                  25889475.420   104246167.234       -1763.953          39.250  
> 2024 04 10 11 01 49.0000000  0 20       0.000000000000
G26  21118376.900   110977817.602        2009.133          52.750    21118382.400    86476236.492        1566.645          50.000  
G18  21162913.180   111211863.977        2006.301          43.750    21162916.320    86658620.754        1563.500          47.250  
G29  21107276.720   110919485.180       -1659.953          52.500    21107279.420    86430776.113       -1294.063          47.000  
G31  21637530.460   113705994.129       -1049.633          48.750    21637532.140    88602078.750        -818.688          45.500  
G25  22943077.900   120566692.426       -3254.984          45.250    22943087.120                       -2538.082          41.000  
G28                                                                  22195210.600    90885682.504       -2074.809          39.750  
R22  19536562.640   104287530.543       -1706.844          56.750    19536567.980    81112533.809       -1328.520          53.250  
R13  19743313.960   105428227.195        1947.344          43.500    19743320.740    81999723.184        1515.973          45.500  
R12  19564692.560   104511112.816       -1782.742          53.500    19564701.320    81286425.270       -1385.598          52.000  
R23  20047533.520   107240831.285        2229.594          51.500                                                                  
C23  24234383.500   126194800.8633      -3020.785          43.500                                                                  
C28  21592164.920   112436070.730         688.457          53.000                                                                  
C37  22183438.640   115514982.695        -428.004          53.000                                                                  
C08  38334299.740   199616741.7422        204.816          40.000    38334304.000   154356341.105         157.719          42.000  
C13  37986044.520   197803296.1482        626.426          44.750    37986055.960   152954091.1172        483.813          46.250  
E13  23490223.160   123441942.418         372.074          52.000    23490229.760    94585407.566         285.523          52.500  
E21  23409578.420   123018148.086         -50.496          51.750    23409583.440    94260667.156         -39.387          52.250  
E27  25812818.160   135647294.613       -2261.496          46.000    25812826.920   103937537.871       -1733.473          47.000  
E15                                                                  25889914.900   104247940.977       -1767.531          38.750  
E26                                                                  25487077.360   102625879.613        2167.516          43.000  
> 2024 04 10 11 01 50.0000000  0 21       0.000000000000
G26  21117997.580   110975823.156        2010.805          52.750    21118002.500    86474682.422        1567.016          48.750  
G18  21162533.980   111209871.828        2008.570          43.500    21162537.180    86657068.480        1563.191          44.500  
G29  21107595.640   110921160.477       -1658.559          52.250    21107598.020    86432081.508       -1291.629          47.750  
G31  21637733.220   113707059.355       -1049.758          50.250    21637735.040    88602908.777        -817.000          47.000  
G05  23306109.140   122474422.0553        694.859          37.250                                                                  
G25  22943700.620   120569963.656       -3254.375          45.500    22943709.600    93950664.8591      -2535.652          42.500  
G28                                                                  22195719.840    90887768.020       -2073.270          42.000  
R22  19536885.540   104289253.504       -1705.820          56.500    19536891.180    81113873.926       -1326.238          54.250  
R13  19742952.360   105426293.891        1951.551          44.250    19742958.700    81998219.488        1518.082          45.500  
R12  19565029.160   104512910.613       -1780.984          53.250    19565037.840    81287823.617       -1385.180          50.500  
R23  20047119.760   107238616.563        2231.516          51.750                                                                  
C23  24234966.100   126197836.2972      -3020.859          39.500                                                                  
C28  21592035.440   112435397.016         690.285          53.000                                                                  
C37  22183523.460   115515425.410        -426.082          52.500                                                                  
C08  38334264.100   199616552.9302        205.816          36.250    38334267.680   154356195.188         158.246          44.750  
C13  37985927.420   197802685.3522        626.941          42.750    37985938.860   152953618.8322        484.441          45.500  
E13  23490155.400   123441585.465         373.281          52.000    23490161.580    94585134.066         286.191          51.500  
E21  23409591.360   123018214.250         -49.191          52.750    23409595.740    94260717.879         -37.328          52.000  
E27  25813251.480   135649572.438       -2260.547          47.000    25813260.000   103939283.137       -1731.465          43.750  
E26  25486534.080   133932635.8441       2822.824          38.750    25486541.720   102623723.523        2171.793          39.500  
E15                                                                  25890356.700   104249716.957       -1762.953          44.750  
> 2024 04 10 11 01 51.0000000  0 19       0.000000000000
G26  21117618.240   110973829.070        2010.578          52.750    21117623.340    86473128.582        1567.605          49.500  
G18  21162155.380   111207880.527        2005.723          43.250    21162158.440    86655516.762        1566.695          46.250  
G29  21107914.080   110922835.797       -1658.543          50.500    21107916.620    86433386.949       -1292.996          47.750  
G31  21637936.300   113708125.395       -1050.035          52.500    21637937.940    88603739.430        -818.289          49.500  
G25  22944323.200   120573235.105       -3255.035          45.250    22944331.620    93953214.070       -2533.738          39.500  
G28  22196225.420   116641952.8793      -2661.172          44.500                                                                  
R22  19537208.740   104290976.910       -1706.324          57.250    19537214.200    81115214.328       -1327.426          53.750  
R13  19742590.280   105424360.984        1950.980          44.500    19742596.860    81996716.168        1518.078          45.500  
R12  19565365.900   104514709.242       -1782.676          53.500    19565374.500    81289222.566       -1386.473          50.500  
R23  20046705.800   107236402.676        2230.852          51.500                                                                  
C23  24235548.000                       -3019.316          40.500                                                                  
C28  21591906.320   112434723.801         690.078          52.500                                                                  
C37  22183608.480   115515868.688        -426.836          52.750                                                                  
C08  38334228.100   199616364.2622        207.160          38.500    38334231.820   154356049.285         158.797          43.750  
C13  37985810.380   197802074.5662        629.047          44.250    37985821.500   152953146.4262        486.207          42.250  
E15  25890788.880   136057027.8481      -2301.445          42.000    25890797.480   104251492.734       -1761.441          41.750  
E13  23490087.320   123441228.938         374.855          51.000    23490093.420    94584860.855         287.000          50.500  
E21  23409603.460   123018280.719         -49.684          51.250    23409608.880    94260768.781         -37.406          52.250  
E27  25813684.960   135651850.422       -2260.902          48.500    25813694.020   103941028.613       -1730.691          45.250  
> 2024 04 10 11 01 52.0000000  0 18       0.000000000000
G26  21117238.220   110971835.320        2012.527          52.000    21117243.860    86471575.004        1569.664          49.750  
G18  21161776.380   111205889.656        2007.473          46.000    21161779.540    86653965.488        1565.090          47.500  
G29  21108232.980   110924511.242       -1657.566          51.750    21108235.800    86434692.488       -1293.500          48.250  
G31  21638139.320   113709192.047       -1049.000          52.250    21638141.100    88604570.621        -818.020          48.250  
G25  22944946.060   120576506.711       -3255.676          45.250                                                                  
G28                                                                  22196739.460    90891944.3711      -2070.867          41.000  
R22  19537531.200   104292700.754       -1706.152          57.000    19537537.460    81116555.078       -1326.031          54.000  
R13  19742228.020   105422428.719        1951.344          44.000    19742235.400    81995213.281        1520.051          45.250  
R12  19565702.540   104516508.656       -1780.289          53.250    19565711.500    81290622.023       -1384.332          52.750  
R23  20046291.600   107234189.480        2232.305          48.750                                                                  
C28  21591777.220   112434050.859         692.676          53.250                                                                  
C37  22183694.000   115516312.508        -424.719          52.250                                                                  
C08  38334191.460   199616175.941         206.383          39.500    38334196.380   154355903.219         157.984          46.500  
C13  37985692.300   197801463.688         634.059          42.250    37985704.580   152952674.219         487.711          43.250  
E15  25891229.840   136059345.516       -2298.809          41.250    25891238.420   104253268.758       -1761.410          44.250  
E13  23490020.100   123440872.738         375.039          52.000    23490025.840    94584587.941         287.324          51.500  
E21  23409616.200   123018347.387         -48.059          51.750    23409621.500    94260819.836         -36.902          52.000  
E27  25814118.980   135654128.551       -2260.199          48.250    25814127.960   103942774.215       -1733.031          47.000  
> 2024 04 10 11 01 53.0000000  0 20       0.000000000000
G26  21116860.260   110969847.043        2011.840          53.500    21116865.560    86470025.676        1568.293          49.500  
G18  21161399.120   111203904.684        2009.855          44.750    21161401.800    86652418.801        1566.465          46.250  
G29  21108553.100   110926192.305       -1656.234          51.500    21108555.240    86436002.453       -1292.590          47.000  
G31  21638342.940   113710264.461       -1049.285          51.250    21638344.920    88605406.277        -816.969          46.500  
G05  23305720.700   122472387.4063        697.625          43.750                                                                  
G25  22945569.480   120579783.871       -3252.680          45.750    22945577.540    93958311.0121      -2536.570          41.750  
G28  22197244.980   116647314.0982      -2658.063          38.750    22197250.760    90894034.730       -2069.125          41.500  
R22  19537855.140   104294430.527       -1706.125          56.750    19537860.760    81117900.457       -1326.488          52.250  
R13  19741867.100   105420502.363        1949.703          44.000    19741873.720    81993715.012        1518.063          44.750  
R12  19566040.880   104518313.953       -1781.758          54.500    19566049.180    81292026.246       -1384.961          51.250  
R23  20045878.820   107231982.199        2231.141          48.000                                                                  
C23  24236714.400                       -3018.656          40.500                                                                  
C28  21591648.920   112433383.469         691.051          52.750                                                                  
C37  22183780.160   115516762.016        -425.941          51.000                                                                  
C08  38334156.840   199615992.898         206.023          42.000    38334160.820   154355761.574         158.605          42.500  
C13  37985576.740   197800858.391         629.387          43.250    37985588.400   152952206.156         488.684          43.000  
E15  25891674.360   136061668.867       -2299.500          44.250    25891680.640   104255048.855       -1761.441          45.500  
E13  23489953.200   123440522.320         374.781          51.500    23489959.140    94584319.422         287.680          50.250  
E21  23409629.520   123018419.578         -48.059          51.750    23409635.120    94260875.195         -37.191          51.750  
E27  25814553.380   135656412.223       -2261.426          45.750    25814562.040   103944524.086       -1731.609          45.250  
> 2024 04 10 11 01 54.0000000  0 20       0.000000000000
G26  21116482.240   110967860.836        2008.527          52.000    21116487.440    86468478.016        1566.961          49.250  
G18  21161021.400   111201921.707        2005.512          46.250    21161024.240    86650873.613        1563.625          48.750  
G29  21108873.360   110927875.141       -1658.785          51.500    21108875.800    86437313.797       -1293.387          48.000  
G31  21638547.440   113711339.086       -1050.664          51.250    21638549.720    88606243.695        -820.410          47.750  
G05  23305593.460   122471717.5942        693.840          41.000                                                                  
G25  22946193.600   120583062.691       -3252.438          45.750    22946202.080    93960865.855       -2534.633          42.250  
G28                                                                  22197760.460    90896126.668       -2074.066          41.250  
R22  19538179.940   104296162.449       -1707.891          57.500    19538185.880    81119247.535       -1327.305          53.500  
R13  19741506.960   105418578.309        1948.254          44.250    19741514.060    81992218.559        1515.672          45.500  
R12  19566379.400   104520121.613       -1784.027          55.750    19566387.620    81293432.156       -1387.199          51.750  
R23  20045466.400   107229777.027        2229.395          48.750                                                                  
C23  24237299.540   126209980.8133      -3019.020          44.000                                                                  
C28  21591521.140   112432718.082         688.973          53.500                                                                  
C37  22183867.100   115517213.543        -427.051          50.500                                                                  
C08  38334121.240   199615811.293         205.285          41.750    38334125.980   154355621.063         160.727          40.750  
C13  37985460.880   197800254.738         626.516          44.250    37985471.700   152951739.223         486.258          41.250  
E15  25892114.200   136063993.863       -2300.348          44.000    25892123.260   104256830.336       -1761.676          48.000  
E13  23489886.860   123440173.813         372.090          51.250    23489892.620    94584052.422         286.660          50.250  
E21  23409644.160   123018493.652         -50.730          52.000    23409649.160    94260931.949         -38.172          51.500  
E27  25814988.200   135658697.438       -2262.289          45.000    25814997.000   103946275.102       -1731.074          45.000  
> 2024 04 10 11 01 55.0000000  0 17       0.000000000000
G26  21116103.620   110965870.434        2011.559          52.750    21116108.560    86466927.051        1567.289          49.250  
G18  21160642.820   111199934.691        2008.410          50.000    21160646.060    86649325.242        1563.199          50.500  
G29  21109192.820   110929553.664       -1658.027          52.500    21109195.280    86438621.680       -1291.527          47.750  
G31  21638751.400   113712409.918       -1050.637          49.750    21638753.640    88607077.992        -818.234          48.000  
G25  22946816.680   120586337.031       -3255.641          45.750    22946825.380    93963417.258       -2531.488          40.500  
R22  19538504.080   104297890.309       -1706.211          57.250    19538509.320    81120591.426       -1328.484          53.500  
R13  19741145.700   105416650.395        1949.309          44.500    19741152.420    81990719.027        1516.406          45.000  
R12  19566717.020   104521925.332       -1782.074          56.000    19566725.000    81294835.043       -1385.578          53.000  
R23  20045054.140   107227567.805        2228.672          43.000                                                                  
C23  24237883.880   126213019.8552      -3017.598          47.500                                                                  
C28  21591392.420   112432048.543         691.426          52.500                                                                  
C37  22183954.040   115517661.156        -424.746          49.500                                                                  
C13  37985344.160   197799646.578         631.770          45.250    37985355.100   152951268.961         486.305          43.000  
E15  25892556.020   136066314.453       -2300.820          41.000    25892564.440   104258608.539       -1761.355          45.000  
E13  23489820.080   123439821.223         373.449          52.000    23489825.600    94583782.234         286.871          51.500  
E21  23409657.260   123018563.426         -47.832          50.750    23409662.320    94260985.434         -37.160          52.000  
E27  25815421.660   135660978.223       -2260.113          45.500    25815430.760   103948022.727       -1730.922          43.750  
> 2024 04 10 11 01 56.0000000  0 18       0.000000000000
G26  21115725.660   110963882.980        2009.258          53.250    21115730.340    86465378.395        1565.801          49.250  
G18  21160265.260   111197950.418        2006.691          50.500    21160268.420    86647779.023        1562.223          50.500  
G29  21109512.760   110931235.074       -1659.461          52.500    21109514.920    86439931.824       -1292.199          47.750  
G31  21638955.620   113713483.777       -1051.430          49.000    21638957.720    88607914.773        -819.336          47.000  
G25  22947439.740   120589613.855       -3255.094          46.000    22947448.700    93965970.707       -2535.766          43.750  
G28                                                                  22198778.900    90900295.4921      -2075.145          40.750  
R22  19538828.100   104299621.402       -1709.535          57.500    19538834.000    81121937.793       -1328.629          54.250  
R13  19740785.320   105414725.676        1948.395          44.500    19740791.920    81989222.023        1514.027          44.750  
R12  19567055.040   104523732.195       -1784.496          56.250    19567063.420    81296240.340       -1387.988          52.250  
C23  24238467.480   126216061.1722      -3018.391          44.500                                                                  
C28  21591264.600   112431381.793         688.285          51.750                                                                  
C37  22184039.860   115518111.590        -427.977          50.250                                                                  
C13  37985227.760   197799041.238         627.074          45.500    37985238.600   152950800.957         484.895          43.750  
E13  23489753.400   123439471.410         371.703          52.000    23489758.840    94583514.227         284.555          51.250  
E21  23409671.120   123018636.059         -50.727          52.000    23409676.000    94261041.047         -39.023          51.750  
E27  25815856.660   135663261.563       -2261.465          43.500    25815865.360   103949772.285       -1732.461          44.750  
E15                                                                  25893006.540   104260388.867       -1761.336          43.500  
E26                                                                  25483333.560   102610811.0631       2166.344          38.000  
> 2024 04 10 11 01 57.0000000  0 20       0.000000000000
G26  21115343.060   110961872.824        2009.133          53.000    21115347.980    86463812.039        1566.098          49.000  
G18  21159883.580   111195943.570        2005.578          51.750    21159886.600    86646215.289        1562.258          50.750  
G29  21109828.420   110932893.254       -1659.582          52.750    21109830.380    86441223.910       -1291.695          46.500  
G31  21639155.820   113714535.082       -1052.605          49.500    21639157.780    88608734.113        -819.730          46.500  
G25  22948059.080   120592867.586       -3254.902          47.250    22948067.940    93968506.074       -2535.770          44.250  
G28  22199283.300   116658014.3673      -2662.992          40.250    22199287.460    90902369.383       -2073.477          39.250  
G05                                                                  23305212.280    95430953.2231        534.148          35.000  
R22  19539146.860   104301329.246       -1710.098          55.500    19539153.360    81123266.113       -1329.551          53.250  
R13  19740421.440   105412777.980        1945.301          44.000    19740427.340    81987707.164        1513.004          44.500  
R12  19567389.120   104525516.082       -1785.086          55.750    19567397.120    81297627.828       -1388.441          52.250  
R23  20044227.360   107223133.7773       2233.594          38.000                                                                  
C23  24239047.260   126219079.9452      -3021.430          44.250                                                                  
C28  21591132.140   112430692.402         687.949          53.250                                                                  
C37  22184122.140   115518539.539        -429.121          45.000                                                                  
C08  38334012.620   199615261.6993        205.836          31.000                                                                  
C13  37985106.940   197798412.785         626.535          44.000    37985118.480   152950315.059         484.773          40.750  
E13  23489682.180   123439098.766         371.434          51.750    23489688.100    94583228.656         284.609          51.750  
E21  23409680.560   123018685.566         -50.676          51.500    23409685.340    94261078.980         -39.621          51.750  
E27  25816286.860   135665521.637       -2261.469          46.250    25816295.160   103951503.984       -1732.594          46.500  
E15                                                                  25893445.200   104262151.320       -1761.023          40.750  
> 2024 04 10 11 01 58.0000000  0 18       0.000000000000
G26  21114965.400   110959890.180        2010.332          51.500    21114970.500    86462267.109        1566.262          49.000  
G18  21159506.880   111193964.664        2007.711          52.500    21159509.900    86644673.215        1564.066          52.000  
G29  21110149.100   110934578.949       -1657.828          51.750    21110150.620    86442537.441       -1290.480          46.000  
G31  21639361.140   113715614.277       -1050.324          48.750    21639363.540    88609575.020        -819.367          43.250  
G25  22948683.240   120596148.855       -3253.074          47.500    22948692.220    93971062.898       -2535.719          43.500  
R22  19539472.240   104303065.309       -1707.543          56.000    19539478.500    81124616.398       -1328.254          53.000  
R13  19740060.960   105410858.598        1949.027          43.250    19740067.620    81986214.320        1514.293          44.000  
R12  19567728.320   104527328.500       -1783.570          55.250    19567736.580    81299037.512       -1386.473          52.500  
R23  20043815.960   107220939.9883       2229.148          35.250                                                                  
C23  24239632.160   126222126.117       -3018.277          45.000                                                                  
C28  21591005.020   112430030.504         689.781          53.250                                                                  
C37  22184209.100   115518995.223        -428.137          50.500                                                                  
C08  38333976.280                         207.203          33.250                                                                  
C13  37984992.380   197797811.719         627.426          39.750    37985002.620   152949850.223         483.688          40.750  
E13  23489617.060   123438753.879         373.383          52.250    23489622.720    94582964.395         286.160          51.500  
E21  23409694.880   123018762.723         -49.566          51.000    23409700.040    94261138.121         -37.289          51.000  
E27  25816722.480   135667809.293       -2260.020          47.500    25816730.540   103953256.813       -1732.633          43.500  
E15                                                                  25893887.900   104263934.777       -1765.699          40.000  
> 2024 04 10 11 01 59.0000000  0 15       0.000000000000
G26  21114588.460   110957908.121        2008.594          53.000    21114593.220    86460722.637        1566.039          48.750  
G18  21159130.420   111191986.180        2006.375          52.000    21159133.380    86643131.594        1563.523          51.750  
G29  21110470.040   110936265.273       -1658.582          52.750    21110472.020    86443851.457       -1293.902          46.750  
G31  21639566.780   113716694.203       -1051.785          46.000    21639568.980    88610416.520        -820.699          44.000  
G25  22949307.740   120599430.500       -3254.398          46.750    22949316.640    93973620.051       -2536.258          42.750  
R22  19539798.260   104304802.332       -1710.977          56.250    19539804.260    81125967.395       -1330.750          53.500  
R13  19739701.960   105408940.082        1944.785          43.750    19739708.680    81984722.152        1513.723          45.500  
R12  19568067.460   104529141.746       -1786.199          55.250    19568076.020    81300447.844       -1390.035          52.000  
C23  24240217.380   126225172.395       -3019.844          45.750                                                                  
C28  21590877.820   112429369.008         687.633          52.750                                                                  
C37  22184296.560   115519451.281        -430.078          49.500                                                                  
E13  23489551.420   123438409.598         370.566          52.250    23489557.220    94582700.605         283.398          51.500  
E21  23409710.380   123018840.297         -50.063          51.750    23409714.840    94261197.582         -39.668          51.000  
E27  25817157.800   135670097.281       -2259.746          47.250    25817166.280   103955010.012       -1732.863          46.000  
E15                                                                  25894330.960   104265719.055       -1760.152          39.000  
> 2024 04 10 11 02 00.0000000  0 14       0.000000000000
G26  21114210.800   110955923.738        2009.004          52.750    21114215.740    86459176.359        1566.129          49.000  
G18  21158753.380   111190005.477        2005.012          52.000    21158756.640    86641588.184        1562.465          51.000  
G29  21110790.560   110937949.637       -1660.070          50.250    21110792.620    86445163.941       -1292.637          45.250  
G31  21639771.520   113717771.848       -1051.910          50.500    21639773.860    88611256.172        -817.609          45.750  
G25  22949931.660   120602709.891       -3254.762          44.750    22949940.820    93976175.344       -2534.348          41.500  
R22  19540122.880   104306537.414       -1710.289          55.750    19540128.840    81127316.945       -1329.082          53.250  
R13  19739342.340   105407019.598        1945.953          44.000    19739348.240    81983228.410        1513.652          45.000  
R12  19568406.700   104530952.883       -1786.570          54.750    19568414.940    81301856.449       -1390.023          52.250  
C23  24240801.940   126228216.188       -3020.418          46.500                                                                  
C28  21590750.340   112428705.203         688.133          53.000                                                                  
C37  22184383.520   115519905.047        -427.988          49.250                                                                  
E13  23489485.080   123438063.137         370.773          51.750    23489491.240    94582435.141         283.945          50.750  
E21  23409724.640   123018915.563         -50.520          52.500    23409729.300    94261255.227         -39.234          51.000  
E27  25817592.620   135672383.059       -2260.625          49.000    25817601.260   103956761.410       -1731.336          48.250  
> 2024 04 10 11 02 01.0000000  0 16       0.000000000000
G26  21113833.480   110953941.492        2009.520          53.000    21113838.700    86457631.840        1566.645          49.000  
G18  21158376.800   111188027.188        2005.098          51.500    21158380.180    86640046.637        1562.387          52.000  
G29  21111110.840   110939635.816       -1661.680          48.250    21111113.560    86446477.945       -1289.984          44.250  
G31  21639977.460   113718852.090       -1052.500          42.750    21639980.240    88612097.855        -821.426          38.750  
G25  22950556.060   120605991.195       -3255.359          46.250    22950564.940    93978732.223       -2536.121          43.500  
G28  22201329.100   116668773.7193      -2657.637          41.750    22201332.800    90910756.105       -2073.270          40.750  
R22  19540448.500   104308274.750       -1709.324          56.500    19540454.380    81128668.184       -1330.363          53.500  
R13  19738983.260   105405101.512        1943.859          43.500    19738989.140    81981736.602        1516.184          44.500  
R12  19568746.580   104532766.695       -1786.164          55.750    19568754.420    81303267.207       -1387.922          51.500  
C23  24241387.220   126231262.191       -3019.949          45.750                                                                  
C28  21590623.280   112428043.648         689.230          52.500                                                                  
C37  22184471.160   115520361.391        -428.805          50.750                                                                  
C08                                                                  38333877.640   154354627.2893        161.367          41.000  
E13  23489419.920   123437718.895         370.984          52.250    23489425.380    94582171.379         284.516          51.000  
E21  23409739.060   123018992.914         -49.875          52.250    23409744.120    94261314.504         -38.457          51.250  
E27  25818027.820   135674670.570       -2260.172          48.250    25818036.460   103958514.172       -1732.820          48.000  
> 2024 04 10 11 02 02.0000000  0 19       0.000000000000
G26  21113456.460   110951959.215        2007.246          53.500    21113461.160    86456087.160        1564.340          48.750  
G18  21158000.500   111186049.137        2002.555          52.750    21158003.800    86638505.320        1561.266          50.750  
G29  21111431.540   110941326.5513      -1661.348          43.500    21111435.280    86447791.770       -1295.383          39.000  
G31  21640182.820   113719932.293       -1054.387          42.000    21640185.940    88612939.621        -821.887          39.500  
G25  22951180.300   120609272.727       -3255.906          44.000    22951189.320    93981289.191       -2535.957          42.000  
G28  22201840.600   116671462.9063      -2660.500          44.000    22201844.560    90912851.438       -2070.141          39.000  
R22  19540773.980   104310012.457       -1712.441          54.500    19540779.840    81130019.766       -1331.703          51.750  
R13  19738623.340   105403183.703        1944.270          43.500    19738630.080    81980244.887        1514.059          44.750  
R12  19569085.760   104534580.879       -1788.492          54.750    19569093.900    81304678.180       -1390.488          52.250  
R23  20042165.780   107212080.0202       2225.973          47.250                                                                  
C23  24241971.660   126234308.086       -3019.777          43.750                                                                  
C28  21590496.420   112427382.059         686.672          52.500                                                                  
C37  22184559.000   115520817.738        -431.180          51.750                                                                  
C13  37984530.820   197795418.8523        624.664          37.250                                                                  
C08                                                                  38333843.640   154354489.0432        156.895          40.250  
E13  23489354.560   123437374.949         369.645          50.750    23489360.040    94581907.848         283.109          49.500  
E21  23409753.800   123019070.289         -51.926          51.750    23409758.760    94261373.758         -39.605          51.000  
E27  25818463.520   135676958.250       -2263.117          47.250    25818471.860   103960267.137       -1732.426          47.000  
E26                                                                  25480128.060   102597902.367        2168.355          41.750  
> 2024 04 10 11 02 03.0000000  0 20       0.000000000000
G26  21113078.520   110949972.977        2009.375          52.750    21113083.380    86454539.449        1566.016          48.000  
G18  21157623.300   111184067.063        2005.453          53.000    21157626.720    86636960.832        1562.863          51.500  
G29  21111752.000   110943008.7272      -1661.500          43.250                                                                  
G31  21640387.080   113721008.906       -1059.898          41.000    21640390.960    88613778.371        -819.668          39.250  
G05  23304454.480   122465760.4533        690.539          39.250                                                                  
G25  22951804.240   120612549.516       -3255.313          42.750    22951812.840    93983842.531       -2534.117          40.500  
G28                                                                  22202355.580    90914943.316       -2071.508          40.750  
R22  19541098.560   104311746.398       -1708.660          51.250    19541104.560    81131368.348       -1331.008          51.250  
R13  19738263.760   105401262.020        1944.563          44.000    19738270.200    81978750.324        1513.355          45.250  
R12  19569425.000   104536391.047       -1787.008          56.750    19569432.960    81306086.113       -1390.508          51.500  
R23  20041755.460   107209876.4142       2229.016          47.750                                                                  
R21                                                                  23197692.100    96549848.7383      -3098.719          35.250  
C23  24242556.220   126237349.629       -3018.969          46.250                                                                  
C28  21590368.560   112426716.547         687.594          52.500                                                                  
C37  22184645.860   115521270.180        -429.773          52.500                                                                  
C13  37984413.580   197794813.6292        626.859          40.500    37984424.280   152947522.8283        485.344          41.250  
E13  23489287.880   123437026.820         371.723          50.000    23489293.820    94581641.063         284.270          49.750  
E21  23409768.080   123019143.387         -49.621          53.250    23409772.580    94261429.754         -37.520          51.750  
E27  25818897.480   135679241.301       -2260.188          47.500    25818906.120   103962016.480       -1732.277          43.500  
E26  25479586.000   133896117.4651       2832.406          37.750    25479593.840   102595750.898        2169.391          44.500  
> 2024 04 10 11 02 04.0000000  0 18       0.000000000000
G26  21112700.380   110947987.031        2010.629          52.500    21112705.500    86452991.941        1564.633          48.000  
G18  21157246.560   111182085.477        2004.586          52.500    21157249.440    86635416.777        1562.160          50.250  
G29  21112072.020   110944690.3552      -1658.949          46.500                                                                  
G25  22952427.840   120615826.488       -3252.895          42.500    22952436.740    93986396.000       -2537.594          39.000  
G28  22202863.920   116676841.0273      -2660.785          41.000    22202866.200    90917035.672       -2072.148          39.250  
G31                                                                  21640596.040    88614617.020        -818.773          38.000  
R22  19541423.900   104313480.602       -1708.730          50.750    19541429.980    81132717.082       -1330.883          51.500  
R13  19737903.980   105399340.867        1942.859          44.000    19737911.180    81977256.086        1512.020          45.500  
R12  19569764.260   104538202.039       -1787.266          54.500    19569771.920    81307494.688       -1390.484          51.500  
R23  20041344.680   107207673.887        2225.922          49.000                                                                  
C23  24243139.960   126240391.414       -3010.266          39.500                                                                  
C28  21590240.980   112426051.242         688.031          53.250                                                                  
C37  22184733.000   115521723.176        -430.082          53.000                                                                  
C13  37984297.360   197794208.090         626.723          39.750                                                                  
E13  23489222.200   123436678.887         369.738          51.250    23489227.680    94581374.469         284.590          50.250  
E21  23409781.680   123019216.695         -51.531          50.500    23409786.520    94261485.973         -38.523          49.500  
E27  25819331.700   135681524.516       -2257.434          47.250    25819340.420   103963765.914       -1729.602          42.500  
E26                                                                  25479059.660   102593599.832        2169.992          41.000  
> 2024 04 10 11 02 05.0000000  0 18       0.000000000000
G26  21112323.000   110946003.973        2007.988          52.750    21112328.460    86451446.676        1564.844          48.500  
G18  21156870.140   111180107.133        2004.883          53.250    21156873.060    86633875.203        1561.082          50.750  
G29  21112392.320   110946375.0902      -1660.414          48.500    21112394.940    86451736.6721      -1293.770          39.750  
G25  22953052.380   120619106.238       -3252.793          44.750    22953061.300    93988951.797       -2534.129          39.000  
G28  22203375.440   116679529.3832      -2662.086          41.000    22203378.500    90919130.734       -2073.453          42.500  
R22  19541748.540   104315217.355       -1713.324          43.750    19541754.540    81134067.973       -1330.488          46.500  
R13  19737545.460   105397422.930        1944.242          44.500    19737552.780    81975764.301        1511.098          46.000  
R12  19570104.020   104540016.336       -1789.020          54.500    19570111.740    81308905.805       -1391.141          49.750  
R23  20040933.260   107205474.465        2225.313          50.250                                                                  
R21                                                                  23199195.540    96556126.8552      -3096.426          38.500  
C23  24243724.620   126243436.332       -3020.621          40.500                                                                  
C28  21590113.560   112425388.883         687.461          53.000                                                                  
C37  22184820.700   115522179.277        -431.938          53.500                                                                  
C13  37984182.180   197793605.125         628.848          38.750                                                                  
E13  23489155.920   123436333.980         371.098          48.750    23489162.080    94581110.207         283.676          48.250  
E21  23409796.460   123019292.832         -51.105          49.500    23409801.200    94261544.289         -38.719          49.750  
E27  25819766.660   135683810.543       -2260.055          43.750    25819776.080   103965517.473       -1731.285          43.500  
E26  25478517.680   133890518.648        2830.555          41.500    25478525.480   102591450.828        2169.738          44.000  
> 2024 04 10 11 02 06.0000000  0 19       0.000000000000
G26  21111943.380   110944009.625        2010.215          52.500    21111948.700    86449892.594        1567.797          48.250  
G18  21156491.540   111178117.531        2005.621          47.750    21156494.180    86632324.730        1563.508          49.000  
G29  21112711.280   110948048.2302      -1659.008          46.500                                                                  
G28  22203884.080   116682206.3402      -2659.801          46.000    22203887.860    90921216.512       -2073.438          44.500  
G25                                                                  22953682.780    93991498.152       -2536.613          35.750  
G31                                                                  21641004.320    88616301.9731       -818.367          38.500  
R22  19542071.860   104316943.074       -1709.574          50.000    19542077.420    81135410.070       -1330.590          50.000  
R13  19737183.540   105395493.758        1944.938          41.750    19737191.260    81974263.891        1512.191          43.000  
R12  19570441.440   104541819.250       -1786.762          56.000    19570449.400    81310308.008       -1389.559          51.250  
R23  20040519.640   107203263.547        2227.078          51.250                                                                  
C23  24244307.220   126246469.496       -3015.605          40.250                                                                  
C28  21589984.020   112424715.215         689.473          52.000                                                                  
C37  22184906.060   115522624.129        -429.969          53.000                                                                  
C13  37984065.840                         628.531          34.250                                                                  
C08                                                                  38333701.440   154353914.4263        160.098          38.750  
E13  23489088.180   123435977.637         372.074          52.750    23489094.400    94580837.168         286.004          50.500  
E21  23409808.480   123019357.293         -48.664          50.500    23409813.300    94261593.711         -36.527          49.750  
E27  25820199.320   135686084.574       -2263.570          41.750    25820209.440   103967260.039       -1731.422          42.000  
E26  25477981.660   133887702.488        2830.852          42.250    25477990.000   102589293.074        2170.113          45.000  
> 2024 04 10 11 02 07.0000000  0 17       0.000000000000
G26  21111562.360   110942005.738        2010.980          54.500    21111567.560    86448331.230        1567.641          48.250  
G18  21156110.880   111176118.715        2008.434          47.250    21156114.300    86630767.234        1562.535          45.250  
G29  21113027.540   110949711.8552      -1655.547          46.500    21113030.120    86454335.848       -1291.195          44.000  
G31  21641204.300   113725297.8953      -1052.695          48.000                                                                  
G28  22204390.800   116684874.0592      -2659.652          45.250    22204395.580    90923295.375       -2073.754          44.500  
R22  19542394.240   104318659.340       -1706.086          46.500    19542398.800    81136745.180       -1328.617          47.250  
R13  19736820.700   105393555.348        1945.086          42.000    19736828.300    81972756.227        1513.117          43.250  
R12  19570776.860   104543613.074       -1786.469          55.250    19570785.560    81311703.313       -1389.949          52.750  
R23  20040104.280   107201043.406        2227.051          51.500                                                                  
C23  24244887.980   126249493.168       -3014.648          43.000                                                                  
C28  21589853.160   112424032.445         690.539          53.000                                                                  
C37  22184989.760   115523059.965        -428.059          53.250                                                                  
C13  37983946.660   197792380.0663        634.727          35.000                                                                  
E13  23489018.980   123435612.156         373.340          51.750    23489024.780    94580557.137         286.383          51.250  
E21  23409819.080   123019412.539         -48.363          50.500    23409823.980    94261636.039         -36.094          49.750  
E27  25820630.500   135688349.430       -2257.730          44.250    25820639.780   103968995.391       -1731.598          40.500  
E26  25477444.340   133884877.008        2831.285          40.500                                                                  
> 2024 04 10 11 02 08.0000000  0 19       0.000000000000
G26  21111179.320   110939993.777        2011.965          52.250    21111184.540    86446763.461        1566.094          48.500  
G18  21155729.220   111174104.1883       2006.805          41.750    21155732.900    86629203.797        1562.688          42.500  
G29  21113342.540   110951367.645       -1655.691          46.250                                                                  
G31  21641403.700   113726350.2702      -1054.594          50.750    21641405.760    88617944.0201       -821.621          42.750  
G05  23303803.220   122462315.4693        691.309          44.250                                                                  
G25  22954916.240   120628905.1883      -3250.688          36.750                                                                  
G28  22204897.200   116687534.441       -2659.535          48.500    22204901.460    90925367.844       -2074.586          43.000  
R22  19542714.480   104320367.512       -1710.305          49.250    19542718.880    81138073.660       -1329.582          47.250  
R13  19736456.180   105391609.000        1946.512          40.000    19736463.740    81971242.375        1515.031          42.750  
R12  19571110.600   104545399.016       -1787.324          54.750    19571119.940    81313092.344       -1389.348          52.000  
R21  23201424.920   124155545.5123      -3970.102          30.500                                                                  
R23  20039688.160   107198815.273        2227.813          51.750                                                                  
C23  24245467.000   126252508.980       -3015.945          44.500                                                                  
C28  21589720.500   112423341.469         690.258          53.500                                                                  
C37  22185071.980   115523487.836        -428.871          53.500                                                                  
E13  23488947.700   123435238.574         373.934          51.250    23488953.700    94580270.852         284.980          50.750  
E21  23409827.880   123019459.434         -47.816          51.000    23409832.620    94261671.980         -36.680          50.750  
E27  25821059.480   135690606.023       -2256.785          42.750    25821068.620   103970724.367       -1727.445          40.000  
E26  25476905.040   133882043.414        2833.152          43.000    25476913.320   102584955.8131       2171.148          45.250  
> 2024 04 10 11 02 09.0000000  0 18       0.000000000000
G26  21110800.300   110938002.031        2013.953          52.000    21110805.520    86445211.434        1568.238          47.500  
G18  21155351.300   111172117.5942       2009.230          43.750    21155353.860    86627655.719        1566.887          40.000  
G29  21113661.460   110953042.941       -1652.621          46.000                                                                  
G05  23303675.380   122461643.5432        692.102          42.250                                                                  
G28  22205406.860   116690214.695       -2656.125          47.000    22205411.860    90927456.422       -2072.742          46.500  
G31                                                                  21641609.940    88618780.055        -819.375          43.750  
R22  19543037.940   104322096.512       -1707.398          48.500    19543044.000    81139418.336       -1327.543          48.000  
R13  19736094.780   105389683.105        1946.809          37.250    19736102.280    81969744.527        1517.273          42.750  
R12  19571449.220   104547206.008       -1784.391          55.250    19571458.040    81314497.789       -1388.992          53.500  
R21  23202175.020   124159552.5663      -3966.754          32.750                                                                  
R23  20039275.620   107196608.027        2229.906          52.000                                                                  
C23  24246050.080   126255544.563       -3016.004          46.500                                                                  
C28  21589591.680   112422670.652         692.500          53.750                                                                  
C37  22185157.880   115523935.938        -425.629          53.000                                                                  
E13  23488880.500   123434885.328         375.656          51.750    23488886.840    94580000.168         286.594          51.750  
E21  23409840.940   123019526.578         -43.988          52.000    23409845.420    94261723.387         -34.270          50.000  
E27  25821493.280   135692882.625       -2249.355          43.000    25821502.020   103972468.863       -1727.926          42.750  
E26  25476371.080   133879229.875        2833.035          41.500    25476376.780   102582800.121        2173.566          42.250  
> 2024 04 10 11 02 10.0000000  0 17       0.000000000000
G26  21110421.860   110936012.602        2015.141          50.500    21110427.120    86443661.199        1567.555          48.000  
G18  21154973.720   111170133.7232       2008.273          50.250    21154976.340    86626109.941        1563.488          48.000  
G29  21113980.700   110954720.848       -1652.535          44.500    21113984.280    86458248.719       -1287.613          38.250  
G28  22205917.020   116692897.176       -2658.676          45.750    22205922.060    90929546.617       -2069.961          46.750  
G31                                                                  21641814.840    88619617.988        -818.395          42.750  
G05                                                                  23303554.940    95424163.488         539.191          36.000  
R22  19543362.600   104323828.270       -1708.844          48.250                                                                  
R13  19735734.800   105387759.914        1947.805          41.250    19735741.060    81968248.660        1514.527          42.250  
R12  19571788.300   104549015.730       -1784.777          56.000    19571796.680    81315905.270       -1389.332          52.500  
R23  20038863.860   107194403.395        2229.160          52.500                                                                  
C23  24246633.620   126258582.668       -3012.746          47.500                                                                  
C28  21589463.180   112422002.207         693.480          53.250                                                                  
C37  22185244.320   115524386.598        -427.340          53.000                                                                  
E13  23488813.860   123434534.586         375.957          52.250    23488819.900    94579731.441         288.453          51.250  
E21  23409854.340   123019596.039         -44.277          51.000    23409858.780    94261776.621         -33.777          50.000  
E15                                                                  25899184.540   104285288.5591      -1756.242          37.750  
E26                                                                  25475843.040   102580646.090        2173.121          39.000  
> 2024 04 10 11 02 11.0000000  0 17       0.000000000000
G26  21110042.580   110934020.168        2016.211          49.750    21110048.040    86442108.680        1569.223          45.750  
G18  21154595.560   111168147.1992       2009.367          52.000    21154598.380    86624561.957        1565.039          49.750  
G29  21114299.880   110956399.0823      -1653.301          46.250                                                                  
G31  21642016.800   113729565.3752      -1049.711          47.750    21642018.500    88620453.973        -817.508          43.500  
G05  23303419.220   122460287.0473        694.734          42.750    23303426.860    95423639.840         543.043          37.500  
G28  22206427.540   116695576.961       -2660.156          45.750    22206432.020    90931634.789       -2070.793          46.000  
R22  19543685.760   104325558.2193      -1704.266          47.500                                                                  
R13  19735375.360   105385834.180        1949.203          41.750    19735381.940    81966750.953        1516.414          43.000  
R12  19572125.900   104550822.816       -1784.129          51.500    19572134.760    81317310.793       -1388.770          49.250  
R23  20038451.160   107192196.094        2229.922          52.250                                                                  
C23  24247216.060   126261617.629       -3010.336          45.750                                                                  
C28  21589334.280   112421330.867         693.090          53.000                                                                  
C37  22185330.000   115524834.418        -424.688          52.750                                                                  
E15  25899617.940   136103439.6021      -2291.078          36.500    25899625.080   104287044.0161      -1758.113          38.000  
E13  23488746.300   123434180.957         378.086          51.750    23488752.700    94579460.457         288.641          52.000  
E21  23409866.340   123019662.441         -43.457          49.500    23409871.180    94261827.445         -33.703          49.500  
E26                                                                  25475306.880   102578489.574        2174.027          37.250  
> 2024 04 10 11 02 12.0000000  0 16       0.000000000000
G26  21109665.660   110932039.688        2013.660          47.250    21109671.100    86440565.531        1572.520          45.250  
G18  21154219.900   111166172.3482       2011.098          54.000    21154222.800    86623023.082        1566.813          50.500  
G29  21114621.020   110958085.1722      -1651.504          47.250    21114623.400    86460866.3711      -1284.996          41.500  
G31  21642223.360   113730650.1722      -1050.191          51.750    21642224.960    88621299.340        -816.695          46.000  
G05  23303293.740   122459626.5662        693.656          42.250                                                                  
G28  22206939.700   116698268.410       -2654.852          45.500    22206944.440    90933731.934       -2066.512          45.250  
R22  19544012.360   104327299.602       -1704.285          49.000    19544017.860    81143453.7383      -1325.305          47.750  
R13  19735017.180   105383920.680        1952.250          42.000    19735023.760    81965262.617        1516.391          44.250  
R12  19572466.640   104552642.043       -1782.363          51.500    19572475.840    81318725.840       -1386.875          49.500  
R23  20038040.300   107190000.941        2230.902          51.750                                                                  
C23  24247800.860   126264663.809       -3013.160          44.500                                                                  
C28  21589207.520   112420671.219         696.531          52.750                                                                  
C37  22185418.340   115525294.055        -423.984          53.000                                                                  
E13  23488681.460   123433838.988         377.117          51.500    23488687.460    94579198.430         290.285          51.250  
E21  23409881.300   123019740.508         -42.207          50.750    23409886.320    94261887.316         -32.547          50.500  
E15                                                                  25900068.140   104288827.367       -1759.188          42.500  
> 2024 04 10 11 02 13.0000000  0 17       0.000000000000
G26  21109290.220   110930066.910        2015.965          50.500    21109295.840    86439028.160        1570.520          47.250  
G18  21153845.500   111164205.3482       2008.703          52.250    21153848.660    86621490.367        1565.219          51.500  
G29  21114943.040   110959779.1842      -1651.453          52.250    21114945.820    86462186.395       -1287.055          44.500  
G31  21642431.120   113731742.6562      -1049.781          49.750    21642433.000    88622150.590        -818.516          46.500  
G05  23303169.060   122458974.5352        693.988          43.250                                                                  
G28  22207453.740   116700967.465       -2657.117          45.750    22207457.680    90935835.074       -2069.934          45.500  
R22  19544340.060   104329048.430       -1706.598          53.750    19544346.280    81144813.9922      -1326.977          52.750  
R13  19734659.900   105382015.301        1950.641          41.000    19734667.540    81963780.688        1514.070          41.750  
R12  19572808.660   104554469.406       -1784.930          53.000    19572817.880    81320147.090       -1387.699          51.500  
R23  20037631.640   107187813.629        2230.941          51.500                                                                  
C23  24248387.000   126267717.574       -3011.078          42.250                                                                  
C28  21589082.340   112420019.078         694.164          53.250                                                                  
C37  22185508.140   115525761.363        -425.234          52.750                                                                  
E15  25900504.860   136108088.2851      -2292.473          38.750    25900512.660   104290616.625       -1756.879          42.000  
E13  23488617.820   123433504.816         377.258          52.000    23488623.700    94578942.406         288.352          52.250  
E21  23409897.600   123019826.148         -43.523          51.250    23409902.460    94261952.953         -33.098          50.500  
E27                                                                  25823240.040                       -1724.688          38.000  
> 2024 04 10 11 02 14.0000000  0 18       0.000000000000
G26  21108918.440   110928113.941        2014.801          49.750    21108924.120    86437506.469        1569.293          46.250  
G18  21153474.940   111162258.6022       2008.102          52.500    21153478.380    86619973.445        1565.309          50.500  
G29  21115268.980   110961493.922       -1651.238          53.250    21115271.840    86463522.094       -1287.723          47.250  
G31  21642643.280   113732855.270       -1049.438          51.000    21642644.980    88623017.578        -821.008          46.250  
G05  23303049.380   122458343.195         693.156          42.250    23303055.420                         538.672          37.250  
G28  22207971.620   116703682.1173      -2655.742          42.250    22207974.900    90937953.684       -2070.750          43.000  
R22  19544671.120   104330818.031       -1706.277          56.250    19544677.780    81146190.293       -1327.156          53.750  
R13  19734307.020   105380130.578        1946.770          41.500    19734313.880    81962314.758        1513.535          43.250  
R12  19573155.040   104556317.445       -1787.863          46.750    19573163.380    81321584.449       -1390.328          45.250  
R23  20037226.940   107185646.840        2229.871          52.250                                                                  
C23  24248977.840   126270790.969       -3006.906          41.750                                                                  
C28  21588960.760   112419386.750         693.805          52.750                                                                  
C37  22185601.880   115526248.551        -425.121          54.500                                                                  
C13                                                                  37983140.940   152942356.4692        490.305          41.250  
E15  25900952.120   136110443.883       -2293.633          43.500    25900960.760   104292421.523       -1757.430          45.000  
E13  23488557.740   123433190.883         375.383          50.750    23488563.800    94578701.855         287.613          51.000  
E21  23409917.800   123019931.809         -43.895          51.000    23409922.500    94262033.922         -32.559          51.750  
E26                                                                  25473713.400   102572071.1521       2175.270          42.750  
> 2024 04 10 11 02 15.0000000  0 20       0.000000000000
G26  21108538.980   110926120.629        2016.492          51.500    21108544.580    86435953.250        1574.535          45.250  
G18  21153096.340   111160271.9802       2011.578          45.750    21153100.220    86618425.457        1565.512          47.750  
G29  21115587.540   110963167.734       -1649.766          53.500    21115590.320    86464826.418       -1285.563          47.750  
G31  21642847.140   113733927.813       -1048.945          51.500    21642848.900    88623853.402        -817.137          45.500  
G05  23302921.460   122457676.3753        695.645          41.250                                                                  
G28                                                                  22208485.820    90940041.242       -2067.480          40.250  
R22  19544994.840   104332546.938       -1704.172          55.250    19545001.540    81147535.027       -1326.914          53.500  
R13  19733946.040   105378204.965        1951.758          40.500    19733952.820    81960817.023        1517.500          43.500  
R12  19573493.680   104558125.184       -1781.609          49.000    19573502.560    81322990.375       -1388.102          46.500  
R21  23206668.360   124183640.0163      -3968.859          37.750                                                                  
R23  20036813.420   107183439.484        2231.648          50.000                                                                  
C23  24249561.280   126273833.6913      -3009.000          41.750                                                                  
C28  21588831.800   112418714.637         695.422          53.750                                                                  
C37  22185687.780   115526696.090        -423.152          53.250                                                                  
C08  38333373.640   199611924.2622        213.523          37.000    38333380.120   154352636.6052        165.836          40.000  
C13                                                                  37983022.760   152941881.2192        493.621          41.750  
E15  25901393.020   136112758.754       -2291.672          44.500    25901401.160   104294195.293       -1757.820          43.750  
E13  23488490.420   123432837.008         378.828          49.500    23488496.380    94578430.727         288.504          49.250  
E21  23409930.200   123019997.230         -40.641          51.250    23409934.720    94262084.023         -31.230          51.000  
E26  25473171.340   133862424.5001       2839.797          42.500    25473176.700   102569913.621        2177.070          40.000  
> 2024 04 10 11 02 16.0000000  0 21       0.000000000000
G26  21108160.060   110924128.262        2017.645          51.000    21108165.480    86434400.742        1572.137          47.250  
G29  21115906.260   110964842.895       -1649.691          52.750    21115909.020    86466131.664       -1286.094          48.750  
G31  21643051.240   113735001.695       -1049.477          52.000    21643053.640    88624690.078        -816.906          46.750  
G05  23302793.700   122457006.9222        701.129          40.000                                                                  
G28                                                                  22208995.560    90942129.438       -2068.473          40.500  
G18                                                                  21152722.880    86616878.785        1563.609          40.500  
R22  19545319.460   104334277.371       -1704.352          56.250    19545325.500    81148880.945       -1326.328          54.000  
R13  19733586.000   105376280.543        1951.188          38.000    19733592.580    81959320.297        1514.078          40.750  
R12  19573832.560   104559934.473       -1784.055          49.750    19573841.120    81324397.727       -1385.441          49.500  
R21  23207401.380                       -3966.297          38.500    23207408.460    96590295.9022      -3087.254          39.250  
R23  20036402.140   107181233.516        2230.824          45.750                                                                  
C23  24250142.800   126276868.6252      -3007.891          45.500                                                                  
C28  21588702.860   112418043.688         696.805          53.250                                                                  
C37  22185774.100   115527144.805        -423.559          52.500                                                                  
C13                                                                  37982905.320   152941407.191         495.219          40.500  
C08                                                                  38333342.900   154352489.590         168.043          42.000  
E15  25901834.880   136115075.020       -2290.527          44.500    25901842.000   104295970.074       -1757.465          44.750  
E13  23488423.740   123432484.582         377.715          49.000    23488429.540    94578160.633         290.758          50.000  
E21  23409942.860   123020063.781         -40.320          51.000    23409947.360    94262135.035         -30.645          49.750  
E26                                                                  25472642.460   102567756.879        2174.762          40.000  
E27                                                                  25824547.760   103984737.2421      -1722.313          37.750  
> 2024 04 10 11 02 17.0000000  0 19       0.000000000000
G26  21107782.080   110922141.746        2017.836          48.750    21107787.980    86432852.789        1573.551          44.750  
G29  21116226.180   110966523.477       -1649.383          52.000    21116228.760    86467441.219       -1283.902          47.250  
G31  21643256.660   113736081.270       -1046.707          52.500    21643258.980    88625531.406        -817.059          48.000  
G05  23302668.360   122456342.8522        694.742          40.000    23302674.700    95420563.1601        542.895          38.000  
G28                                                                  22209506.500    90944221.625       -2066.363          43.500  
G18                                                                  21152346.200    86615335.855        1569.645          44.000  
R22  19545644.140   104336013.762       -1704.016          55.750    19545650.800    81150231.480       -1325.434          53.750  
R13  19733227.100   105374362.426        1950.836          43.750    19733234.360    81957828.430        1518.199          45.500  
R12  19574172.400   104561749.395       -1783.613          53.500    19574180.000    81325809.223       -1384.820          47.500  
R21                                                                  23208155.720    96593405.2812      -3083.664          36.750  
C23  24250727.160   126279908.1562      -3006.785          46.750                                                                  
C28  21588575.040   112417378.074         697.055          53.250                                                                  
C37  22185861.380   115527599.000        -423.633          48.250                                                                  
C13  37982777.100   197786286.5942        640.199          44.250    37982787.380   152940937.078         494.352          43.500  
E13  23488357.600   123432137.348         380.168          45.500    23488363.580    94577894.727         295.637          45.000  
E21  23409956.320   123020135.660         -39.152          51.750    23409961.320    94262190.094         -29.555          50.750  
E26  25472102.240   133856794.402        2841.297          36.500                                                                  
E15                                                                  25902283.640   104297749.152       -1753.539          41.000  
E27                                                                  25824981.380   103986484.637       -1723.555          41.250  
> 2024 04 10 11 02 18.0000000  0 17       0.000000000000
G26  21107398.540   110920127.160        2018.129          52.250    21107404.620    86431282.941        1573.727          46.500  
G18  21151959.620   111154289.1843       2012.383          46.750    21151963.360    86613770.906        1567.824          44.750  
G29  21116540.600   110968176.227       -1642.918          46.750    21116543.280    86468729.230       -1283.852          44.750  
G31  21643456.620   113737132.832       -1051.055          51.000    21643459.120    88626350.809        -814.688          46.750  
G28  22210006.540   116714378.7033      -2653.766          37.750    22210013.180    90946292.074       -2066.766          42.250  
R22  19545964.680   104337722.000       -1704.063          56.500    19545970.800    81151560.004       -1325.273          54.750  
R13  19732861.500   105372416.152        1950.523          43.500    19732869.260    81956314.637        1515.922          45.500  
R12  19574506.800   104563535.992       -1783.648          53.500    19574514.580    81327198.902       -1386.512          50.500  
R21  23208885.820   124195479.7033      -3962.934          42.500    23208897.580    96596492.973       -3083.992          42.250  
C23  24251305.760   126282919.6642      -3006.199          48.000                                                                  
C28  21588441.800   112416684.664         697.637          52.500                                                                  
C37  22185942.740   115528025.570        -422.832          48.250                                                                  
C13  37982655.100   197785650.8752        639.969          45.750    37982665.760   152940445.477         495.160          44.750  
E15  25902712.900   136119687.8711      -2289.398          41.250    25902719.500   104299506.832       -1755.465          39.250  
E13  23488285.360   123431762.246         379.953          46.750    23488291.740    94577607.145         292.953          49.750  
E21  23409964.540   123020179.531         -40.359          49.750    23409969.780    94262223.742         -30.000          50.500  
E27  25825400.960   135713412.5081      -2246.477          39.750    25825409.380   103988210.605       -1723.402          39.000  
> 2024 04 10 11 02 19.0000000  0 18       0.000000000000
G26  21107014.140   110918107.281        2019.645          52.750    21107019.660    86429709.113        1574.324          49.750  
G18  21151577.000   111152276.0082       2013.074          48.000    21151580.320    86612202.340        1567.031          48.000  
G29  21116854.140   110969824.250       -1648.000          48.250    21116856.540    86470013.277       -1285.516          46.000  
G31  21643655.500   113738179.184       -1046.074          50.750    21643658.520    88627166.035        -814.688          46.500  
G25  22961768.120                       -3239.941          35.500                                                                  
G28                                                                  22210517.640    90948357.992       -2062.824          39.250  
R22  19546283.520   104339425.621       -1704.301          53.000    19546289.840    81152885.082       -1325.750          49.250  
R13  19732495.780   105370464.867        1951.770          43.500    19732504.140    81954797.000        1517.051          45.500  
R12  19574840.280   104565318.031       -1782.254          54.250    19574848.200    81328584.910       -1384.824          51.000  
R21  23209625.740   124199444.3712      -3962.797          38.000    23209637.480    96599576.520       -3084.785          39.500  
R23  20035156.260   107174612.1293       2234.859          42.500                                                                  
C23  24251882.660   126285926.1372      -3005.824          46.500                                                                  
C28  21588307.640   112415986.172         699.152          53.250                                                                  
C37  22186023.960   115528446.922        -421.434          49.500                                                                  
C13  37982532.020   197785010.5662        639.715          44.750    37982542.940   152939950.395         494.875          47.000  
E13  23488214.580   123431382.137         383.707          45.500    23488219.720    94577316.047         291.840          46.250  
E21  23409971.980   123020218.324         -39.418          48.500    23409977.280    94262253.488         -29.004          49.500  
E27  25825831.020   135715660.266       -2248.980          38.500                                                                  
> 2024 04 10 11 02 20.0000000  0 17       0.000000000000
G26  21106631.120   110916093.625        2018.902          51.000    21106636.380    86428139.953        1575.305          47.000  
G18  21151195.300   111150269.922        2013.469          52.500    21151198.600    86610638.633        1568.422          50.750  
G29  21117168.760   110971477.699       -1647.492          46.250                                                                  
G31  21643855.940   113739231.969       -1048.008          50.250    21643858.820    88627986.496        -818.539          46.500  
G28                                                                  22211022.660    90950428.902       -2067.578          37.500  
R22  19546603.840   104341135.438       -1703.832          52.750    19546610.060    81154214.949       -1325.008          53.250  
R13  19732130.960   105368520.105        1951.316          43.250    19732139.840    81953284.402        1517.574          44.000  
R12  19575175.180   104567106.590       -1781.410          54.750    19575183.340    81329975.961       -1386.066          52.750  
R21  23210367.180   124203414.680       -3961.813          41.500    23210380.500    96602664.051       -3082.805          44.750  
R23  20034740.240   107172385.059        2235.086          45.250                                                                  
C23  24252460.980   126288934.3323      -3006.207          44.250                                                                  
C28  21588174.380   112415293.738         699.172          52.250                                                                  
C37  22186105.400   115528874.598        -421.965          47.250                                                                  
C13  37982410.000   197784375.9062        639.629          47.000    37982421.180   152939459.551         493.645          46.000  
E13  23488143.000   123431008.332         381.207          45.750    23488149.000    94577029.566         290.953          49.750  
E21  23409979.500   123020262.969         -38.566          45.500    23409985.940    94262287.664         -29.449          47.500  
E27  25826255.900   135717897.3751      -2244.703          38.750                                                                  
> 2024 04 10 11 02 21.0000000  0 20       0.000000000000
G26  21106249.120   110914086.617        2020.734          51.250    21106254.400    86426576.129        1573.266          48.000  
G18  21150814.580   111148269.680        2013.801          50.500    21150818.000    86609080.047        1571.168          49.500  
G29  21117484.140   110973138.367       -1649.996          45.250                                                                  
G31  21644057.840   113740291.527       -1046.039          43.250    21644060.540    88628812.055        -814.102          44.000  
G28                                                                  22211529.940    90952504.957       -2069.605          40.750  
R22  19546925.380   104342852.547       -1702.664          49.000    19546930.620    81155550.586       -1325.883          49.000  
R13  19731769.360   105366582.500        1953.117          44.000    19731776.100    81951777.398        1517.930          45.750  
R12  19575511.000   104568902.043       -1782.102          54.000    19575519.700    81331372.484       -1385.980          53.250  
R21  23211109.880   124207392.039       -3964.137          45.250    23211123.000    96605757.488       -3082.441          45.500  
R23  20034324.700   107170163.961        2235.500          46.250                                                                  
C23  24253040.720   126291952.691       -3001.680          47.250                                                                  
C28  21588042.860   112414607.727         699.223          55.250                                                                  
C37  22186189.360   115529308.664        -420.344          51.750                                                                  
C13  37982291.020   197783748.1372        634.031          37.500    37982300.880   152938974.469         492.984          41.750  
C08                                                                  38333143.540   154351681.5513        168.047          38.000  
E13  23488073.060   123430641.207         381.137          50.500    23488078.860    94576748.297         292.609          48.750  
E21  23409990.300   123020314.281         -37.379          47.750    23409995.780    94262327.047         -29.496          50.000  
E27  25826688.000   135720157.133       -2248.316          40.000                                                                  
E26  25469939.920   133845462.684        2847.824          42.250    25469946.920   102556917.6481       2181.109          44.250  
E15                                                                  25904030.520   104304771.8011      -1752.832          43.250  
> 2024 04 10 11 02 22.0000000  0 18       0.000000000000
G26  21105873.440   110912111.953        2020.070          53.250    21105878.820    86425037.418        1572.816          48.500  
G18  21150440.060   111146301.594        2014.574          51.000    21150443.620    86607546.422        1567.695          50.500  
G31                                                                  21644268.640    88629662.703        -817.234          38.250  
R22  19547252.840   104344603.301       -1706.547          49.000    19547259.800    81156912.070       -1322.832          47.750  
R13  19731412.960   105364678.289        1951.297          44.000    19731420.100    81950296.371        1516.496          45.250  
R12  19575853.540   104570730.512       -1781.992          53.250    19575861.480    81332794.566       -1385.844          51.000  
R21  23211860.000   124211403.027       -3964.125          47.000    23211871.660    96608877.258       -3084.023          48.250  
R23  20033915.000   107167975.332        2234.645          46.750                                                                  
C23  24253626.160   126295002.461       -3007.719          42.250                                                                  
C28  21587916.920   112413953.668         696.730          48.250                                                                  
C37  22186279.360   115529774.727        -420.598          47.250                                                                  
C08  38333107.080   199610543.0782        216.266          36.250                                                                  
C13  37982176.820   197783153.309         637.703          40.500                                                                  
E13  23488009.580   123430306.801         379.090          46.250    23488014.960    94576492.004         290.191          50.000  
E21  23410006.780   123020398.039         -37.973          51.000    23410011.600    94262391.129         -29.438          50.500  
E26  25469406.520   133842661.781        2844.199          43.500    25469413.820   102554771.730        2182.195          44.750  
E15                                                                  25904474.520   104306561.000       -1756.258          41.750  
E27                                                                  25827134.120   103995153.1801      -1726.992          39.250  
> 2024 04 10 11 02 23.0000000  0 17       0.000000000000
G26  21105498.460   110910140.227        2019.074          53.500    21105503.940    86423500.938        1572.164          49.250  
G18  21150065.940   111144336.742        2011.535          52.250    21150069.220    86606015.391        1567.246          47.750  
G29  21118128.980   110976525.7853      -1649.867          47.000                                                                  
G25  22964251.100   120677962.3673      -3244.090          41.000                                                                  
G28  22212549.420   116727732.1133      -2651.176          39.500                                                                  
G31                                                                  21644476.540    88630515.203        -818.441          40.500  
R22  19547582.640   104346359.4183      -1705.355          45.750    19547589.480    81158286.5123      -1330.531          43.750  
R13  19731056.840   105362777.273        1948.859          44.250    19731064.400    81948817.766        1515.922          46.000  
R12  19576196.320   104572562.547       -1784.316          50.750    19576204.800    81334219.371       -1389.410          46.250  
R21  23212609.180   124215403.6803      -3961.090          42.750    23212622.320    96611999.469       -3085.895          42.250  
C28  21587792.300   112413302.738         695.184          44.750                                                                  
C08  38333074.100   199610373.9652        216.090          40.500    38333078.740   154351406.4303        167.793          47.500  
C13  37982063.040   197782560.934         640.406          38.250    37982071.660   152938043.6373        495.023          40.000  
E15  25904912.280   136131229.285       -2291.000          41.750    25904919.180   104308352.906       -1753.688          41.000  
E13  23487945.280   123429975.422         377.902          44.500    23487952.040    94576238.168         289.887          47.500  
E21  23410023.180   123020484.621         -39.609          51.000    23410028.140    94262457.582         -31.602          50.500  
E26  25468874.440   133839864.023        2843.668          44.000    25468880.880   102552627.859        2177.648          42.500  
> 2024 04 10 11 02 24.0000000  0 16       0.000000000000
G26  21105119.820   110908151.531        2019.961          52.250    21105125.220    86421951.281        1572.891          48.000  
G18  21149688.920   111142355.113        2011.703          51.500    21149692.320    86604471.258        1566.949          48.250  
G29  21118449.760   110978205.6912      -1648.938          45.500    21118452.480    86476540.5511      -1284.254          42.250  
G31  21644679.580   113743556.2463      -1044.496          37.250                                                                  
G28  22213060.160   116730413.1642      -2652.367          37.750    22213064.900    90958785.7891      -2066.020          38.000  
R22  19547907.820   104348098.8553      -1704.273          45.750    19547914.520    81159639.8981      -1326.090          43.500  
R13  19730697.940   105360859.434        1950.422          44.000    19730705.440    81947326.086        1517.688          44.500  
R23  20033095.340   107163596.5863       2233.609          48.000                                                                  
R12                                                                  19576544.520    81335631.316       -1387.066          46.750  
C28  21587664.580   112412635.227         698.867          44.250                                                                  
C08  38333038.340   199610188.2542        216.148          44.750    38333042.920   154351262.8832        168.328          47.500  
C13  37981945.380   197781961.7853        640.949          40.250    37981955.080   152937572.9142        494.055          39.250  
E15  25905352.320   136133551.031       -2288.832          39.500    25905361.760   104310131.906       -1754.246          48.750  
E13  23487879.480   123429627.438         380.484          47.250    23487886.340    94575971.359         289.504          47.000  
E21  23410036.220   123020554.523         -39.082          51.000    23410041.060    94262511.051         -29.117          51.250  
E26  25468338.100   133837048.770        2845.227          43.000    25468345.300   102550470.863        2182.055          42.500  
> 2024 04 10 11 02 25.0000000  0 20       0.000000000000
G26  21104746.680   110906190.984        2019.727          49.500    21104752.220    86420423.664        1571.684          48.750  
G18  21149317.420   111140401.969        2012.973          48.500    21149320.800    86602949.406        1565.977          49.500  
G29  21118774.900   110979914.0512      -1652.027          40.000    21118777.820    86477871.594       -1285.434          41.250  
G25  22965500.420   120684524.4063      -3243.227          40.500    22965510.140    94039935.4611      -2526.641          39.000  
G28                                                                  22213582.460    90960897.992       -2066.434          35.750  
R22  19548238.960   104349864.7893      -1708.473          52.250    19548244.680    81161013.320       -1330.832          49.750  
R13  19730343.920   105358970.438        1946.914          44.750    19730351.320    81945856.859        1514.680          45.250  
R12  19576882.380   104576234.7813      -1786.148          51.000    19576889.280    81337065.543       -1390.199          48.750  
R21  23214107.560   124223440.5162      -3967.445          42.000    23214121.860    96618241.6093      -3084.938          45.750  
R23  20032688.540   107161423.2702       2233.516          50.750                                                                  
C23  24255384.080   126304165.4803      -3006.695          45.000                                                                  
C28  21587541.500   112411995.078         697.430          44.750                                                                  
C37  22186548.200   115531163.6843       -422.820          47.250                                                                  
C08  38333009.040   199610030.2152        216.285          42.750    38333012.600   154351140.6452        165.309          45.500  
C13  37981835.000   197781380.9222        638.910          39.750                                                                  
E15  25905800.980   136135900.891       -2290.484          46.250    25905808.340   104311932.355       -1756.699          46.500  
E13  23487819.180   123429307.664         375.867          43.000                                                                  
E21  23410054.800   123020652.391         -41.535          50.250    23410059.180    94262586.160         -30.371          46.750  
E26  25467808.480   133834262.055        2843.539          43.250    25467814.880   102548335.430        2179.203          43.250  
E27                                                                  25828440.940   104000416.512       -1721.676          42.000  
> 2024 04 10 11 02 26.0000000  0 20       0.000000000000
G26  21104367.360   110904199.395        2017.484          48.250    21104373.140    86418871.727        1571.535          49.250  
G18  21148939.820   111138417.809        2008.445          48.250    21148943.240    86601403.324        1564.738          50.250  
G29  21119093.760   110981590.535       -1648.844          41.500    21119097.920    86479178.063       -1288.199          40.000  
G31  21645091.760   113745728.9383      -1049.129          40.000    21645097.640    88633068.9261       -817.445          43.250  
G25  22966122.860   120687793.3012      -3243.145          40.750                                                                  
G28                                                                  22214091.940    90962985.477       -2068.094          39.250  
R22  19548563.260   104351599.297       -1709.414          48.500    19548569.440    81162362.398       -1329.414          46.750  
R13  19729984.000   105357050.031        1945.926          42.750    19729991.780    81944363.203        1514.320          46.500  
R12  19577220.820   104578047.699       -1787.652          50.750    19577228.580    81338475.602       -1389.082          50.750  
R21  23214853.180   124227433.828       -3967.098          42.750    23214867.100    96621347.0552      -3086.840          46.750  
R23  20032276.180   107159218.516        2230.793          48.750                                                                  
C23  24255966.480   126307198.2192      -3007.996          45.000                                                                  
C28  21587412.800   112411325.289         694.027          42.500                                                                  
C37  22186634.360   115531613.5632       -425.141          51.750                                                                  
C08                                                                  38332975.460   154350994.4962        166.781          41.500  
E15  25906241.960   136138219.188       -2292.629          46.250    25906250.060   104313708.738       -1757.496          48.250  
E13  23487752.360   123428956.859         374.172          44.000    23487758.060    94575455.6951        288.664          45.750  
E21  23410068.040   123020719.145         -41.535          49.250    23410071.620    94262637.113         -32.941          39.750  
E27  25828864.820   135731612.7701      -2248.871          44.000    25828874.460   104002159.629       -1724.582          45.000  
E26  25467270.260   133831443.887        2840.965          42.250                                                                  
> 2024 04 10 11 02 27.0000000  0 17       0.000000000000
G26  21103993.200   110902232.102        2016.309          48.000    21103998.280    86417338.758        1571.645          48.000  
G18  21148566.920   111136458.176        2009.590          47.250    21148570.340    86599876.199        1566.066          49.000  
G31  21645302.160   113746828.8162      -1050.055          45.750    21645306.180    88633925.914        -817.746          44.750  
G25                                                                  22966759.680    94045050.3131      -2528.145          38.750  
R22  19548892.480   104353358.891       -1710.313          45.750    19548899.660    81163731.090       -1329.855          46.500  
R13  19729630.540   105355154.668        1944.973          43.000    19729636.960    81942889.070        1514.129          44.500  
R12  19577564.980   104579885.688       -1787.469          52.500    19577572.900    81339905.051       -1392.395          47.250  
R21  23215604.480   124231451.566       -3968.523          44.250    23215617.140    96624471.9102      -3085.574          43.500  
R23  20031868.580   107157038.547        2229.840          49.000                                                                  
C28  21587287.960   112410678.813         696.184          47.250                                                                  
C37  22186725.540   115532087.5902       -425.738          52.750                                                                  
C08                                                                  38332944.120   154350867.0272        165.242          38.750  
E13  23487689.360   123428630.508         374.227          45.000    23487696.200    94575205.563         286.984          45.500  
E21  23410084.800   123020810.098         -39.703          46.250    23410089.180    94262706.906         -33.281          39.750  
E26  25466740.280   133828649.531        2843.012          47.500    25466746.980   102544021.8911       2180.074          44.750  
E15                                                                  25906696.020   104315503.965       -1757.629          44.250  
E27                                                                  25829312.120   104003921.234       -1723.832          44.250  
> 2024 04 10 11 02 28.0000000  0 17       0.000000000000
G26  21103618.300   110900263.156        2015.531          46.750    21103623.860    86415804.621        1571.172          44.750  
G18  21148193.480   111134497.082        2007.438          45.750    21148197.400    86598348.215        1562.832          49.000  
G31  21645511.500   113747927.1172      -1051.957          47.750    21645514.840    88634781.672        -819.391          45.750  
R22  19549222.840   104355117.574       -1713.020          45.000    19549229.180    81165098.816       -1329.301          48.000  
R13  19729273.880   105353257.949        1942.254          41.250    19729281.600    81941413.906        1509.719          44.000  
R12  19577908.420   104581722.590       -1788.805          50.750    19577916.960    81341333.941       -1392.008          49.000  
R21  23216354.920   124235467.887       -3969.180          40.250    23216367.880    96627595.816       -3085.957          42.750  
R23  20031460.180   107154857.109        2228.426          47.750                                                                  
C23  24257141.880   126313320.3093      -3007.707          41.750                                                                  
C28  21587163.580   112410030.613         694.285          50.000                                                                  
C37  22186816.480   115532560.293        -426.242          54.250                                                                  
C13                                                                  37981502.220   152935761.0903        489.676          40.250  
E13  23487627.360   123428302.895         373.313          49.000    23487633.420    94574954.629         285.754          47.250  
E21  23410101.020   123020899.613         -44.852          45.500    23410106.420    94262775.531         -33.172          44.000  
E26  25466207.360   133825853.742        2840.715          46.250    25466215.480   102541879.715        2178.809          46.000  
E15                                                                  25907142.280   104317298.434       -1757.727          40.250  
E27                                                                  25829749.600   104005682.117       -1725.234          42.500  
> 2024 04 10 11 02 29.0000000  0 17       0.000000000000
G26  21103241.640   110898283.234        2015.414          45.750    21103247.320    86414261.957        1568.758          40.750  
G18  21147818.500   111132525.523        2004.625          48.750    21147822.200    86596811.914        1563.512          48.250  
G29  21120060.420                       -1661.379          41.750                                                                  
G31  21645718.200   113749014.6132      -1052.336          43.250    21645721.280    88635629.035        -820.379          41.000  
G25  22968014.960   120697739.2423      -3254.801          33.250                                                                  
G28                                                                  22215631.520    90969303.2811      -2070.129          43.000  
R22  19549550.740   104356865.641       -1713.223          47.500    19549556.440    81166458.508       -1333.543          45.750  
R13  19728916.940   105351350.586        1943.684          41.250    19728924.000    81939930.309        1510.809          43.250  
R12  19578250.240   104583548.969       -1792.160          50.250    19578259.520    81342754.477       -1393.750          47.250  
R21  23217105.220   124239473.195       -3969.758          37.250                                                                  
R23  20031050.720   107152664.793        2227.965          47.000                                                                  
C28  21587037.500   112409371.898         692.684          52.750                                                                  
C37  22186905.200   115533022.227        -429.203          51.500                                                                  
C13  37981372.920   197778979.0043        633.934          45.250    37981386.400   152935297.3632        489.551          44.000  
E13  23487563.080   123427964.895         370.773          48.000    23487569.380    94574695.621         282.613          46.750  
E21  23410116.160   123020978.371         -44.188          46.000    23410121.040    94262835.898         -33.133          45.750  
E26  25465673.080   133823046.609        2842.188          46.250    25465680.440   102539728.801        2182.469          44.000  
> 2024 04 10 11 02 30.0000000  0 18       0.000000000000
G26  21102867.640   110896317.434        2011.844          39.500                                                                  
G18  21147446.320   111130568.527        2003.406          49.000    21147449.780    86595287.004        1561.254          49.250  
G31  21645928.180   113750116.2812      -1056.215          41.500    21645931.380    88636487.652        -820.984          42.250  
G28  22216141.120   116746613.2343      -2658.770          39.750                                                                  
G29                                                                  21120390.160    86484476.5901      -1289.969          42.500  
G05                                                                  23301044.980    95413887.4531        529.211          39.500  
R22  19549880.500   104358628.723       -1713.875          51.000    19549886.880    81167829.691       -1334.715          50.250  
R13  19728562.860   105349457.949        1939.980          38.750    19728569.500    81938458.422        1510.977          39.750  
R12  19578595.780   104585390.449       -1793.973          51.250    19578603.200    81344186.684       -1395.609          47.000  
R23  20030644.860   107150487.160        2224.836          45.250                                                                  
C23  24258313.680   126319415.5312      -3014.789          46.500                                                                  
C28  21586913.780   112408727.324         689.859          52.750                                                                  
C37  22186996.740   115533498.422        -429.465          51.000                                                                  
C13  37981261.660   197778394.3482        633.012          40.500    37981272.680   152934845.2732        488.316          44.250  
C08                                                                  38332848.940   154350483.3593        162.008          40.250  
E13  23487500.760   123427641.488         371.664          46.750    23487508.120    94574447.707         283.402          48.000  
E21  23410134.220   123021071.430         -47.289          49.750    23410139.220    94262907.137         -35.895          49.750  
E26  25465141.900   133820253.695        2840.953          48.750    25465149.340   102537588.793        2175.414          44.500  
> 2024 04 10 11 02 31.0000000  0 19       0.000000000000
G26  21102492.580   110894344.578        2011.609          43.000                                                                  
G18  21147072.460   111128604.332        2001.945          50.750    21147075.780    86593756.543        1559.969          49.250  
G29  21120708.780   110990093.9963      -1656.852          44.500    21120713.280    86485798.879       -1292.531          41.000  
G31  21646136.600   113751210.5592      -1056.141          40.750    21646140.180    88637340.176        -823.375          40.500  
G25  22969254.100   120704249.6413      -3250.539          39.750    22969263.560    94055304.0511      -2533.500          40.250  
G28  22216654.500   116749309.7383      -2655.395          46.750    22216659.420    90973514.7151      -2073.289          44.250  
R22  19550208.880   104360380.3523      -1716.348          46.250                                                                  
R13  19728205.960   105347558.637        1939.992          37.000    19728212.720    81936981.004        1505.992          37.250  
R12  19578938.580   104587224.918       -1796.293          50.750    19578946.420    81345613.469       -1396.996          48.500  
R23  20030236.080   107148301.965        2223.754          48.000                                                                  
C23  24258898.780   126322454.8162      -3013.254          49.000                                                                  
C28  21586788.640   112408075.547         690.391          51.500                                                                  
C37  22187086.560   115533967.313        -430.082          50.000                                                                  
C08                                                                  38332815.920   154350352.7152        160.613          44.000  
E13  23487438.480   123427310.996         371.016          43.750    23487445.380    94574194.457         283.328          44.750  
E21  23410150.920   123021157.250         -46.563          49.750    23410155.460    94262972.961         -36.414          47.250  
E27  25831052.220                       -2256.301          39.500                                                                  
E26  25464609.400   133817452.992        2837.969          48.750    25464616.100   102535442.840        2175.297          45.500  
E15                                                                  25908478.640   104322702.5081      -1762.605          39.000  
> 2024 04 10 11 02 32.0000000  0 20       0.000000000000
G26  21102121.120   110892390.3953       2009.234          40.000                                                                  
G18  21146703.360   111126665.129        2000.859          50.000    21146706.340    86592245.348        1556.891          48.250  
G29  21121036.800   110991802.5233      -1661.941          39.250    21121040.520    86487140.598       -1293.438          42.500  
G31  21646349.720   113752330.289       -1059.484          42.250    21646353.060    88638212.414        -826.109          39.000  
G25  22969884.420   120707563.6373      -3252.547          44.750    22969894.320    94057886.461       -2530.422          41.250  
G28  22217172.420   116752031.219       -2661.727          46.750    22217176.640    90975635.367       -2073.656          42.500  
R22  19550544.000   104362160.9382      -1721.398          44.000                                                                  
R12  19579287.040   104589085.008       -1797.770          54.500    19579294.980    81347060.152       -1399.637          51.250  
R23  20029831.660   107146142.230        2219.984          49.250                                                                  
R13                                                                  19727862.620    81935523.148        1503.836          39.250  
C23  24259489.280   126325530.7302      -3017.633          47.000                                                                  
C28  21586668.100   112407448.301         686.852          51.500                                                                  
C37  22187181.540   115534460.973        -434.172          52.500                                                                  
C08  38332783.900   199608865.9693        207.297          40.500    38332787.520   154350241.1762        157.148          45.000  
C13  37981045.180   197777274.9063        624.344          37.500                                                                  
E13  23487381.020   123427005.473         366.391          47.250    23487387.420    94573960.516         279.734          46.250  
E21  23410172.440   123021267.910         -50.262          49.500    23410176.960    94263057.723         -37.824          50.750  
E27  25831493.960   135745409.832       -2259.340          43.250    25831501.320   104012742.3871      -1731.754          41.000  
E26  25464080.480   133814677.047        2834.668          46.250    25464087.720   102533315.707        2174.551          46.000  
E15                                                                  25908928.020   104324513.691       -1764.652          42.000  
> 2024 04 10 11 02 33.0000000  0 19       0.000000000000
G26  21101748.280   110890429.6883       2003.473          34.500                                                                  
G18  21146330.780   111124705.332        1998.609          52.000    21146333.660    86590718.320        1558.234          50.500  
G29  21121361.000   110993503.0122      -1660.094          43.500    21121362.800    86488465.906       -1294.980          38.000  
G31  21646559.020   113753429.203       -1059.461          44.750    21646561.540    88639068.813        -826.898          43.500  
G25  22970511.440   120710856.3712      -3253.516          43.500    22970521.420    94060452.355       -2535.766          42.750  
G28  22217686.220                       -2656.199          44.250    22217690.660    90977739.922       -2075.066          45.500  
R22  19550873.680   104363921.6802      -1722.516          49.000                                                                  
R12  19579631.480   104590924.215       -1799.477          54.250    19579639.540    81348490.695       -1399.473          51.250  
R23  20029424.280   107143961.703        2220.105          51.250                                                                  
R13                                                                  19727510.100    81934049.027        1506.051          37.500  
C23  24260075.700   126328585.8712      -3015.063          46.750                                                                  
C28  21586543.740   112406800.488         685.832          52.250                                                                  
C37  22187272.680   115534934.277        -435.176          52.000                                                                  
C08  38332751.980   199608700.6992        203.582          38.750    38332755.200   154350113.4652        156.336          40.750  
E13  23487318.860   123426679.238         365.203          49.000    23487324.800    94573710.523         279.488          49.000  
E21  23410189.000   123021357.602         -50.832          50.750    23410193.960    94263126.410         -37.367          51.500  
E27  25831930.540   135747708.285       -2258.352          46.250    25831938.640   104014503.629       -1730.336          46.500  
E26  25463548.560   133811880.168        2834.605          47.000    25463555.940   102531172.773        2174.676          47.000  
E15                                                                  25909373.640   104326308.609       -1764.730          42.500  
> 2024 04 10 11 02 34.0000000  0 18       0.000000000000
G18  21145958.580   111122752.242        1996.473          50.000    21145961.880    86589196.402        1556.336          50.000  
G29  21121684.720   110995209.8162      -1662.270          40.000                                                                  
G31  21646770.480   113754535.477       -1062.539          45.000    21646771.820    88639930.867        -825.488          40.750  
G25  22971138.880   120714154.9962      -3253.816          44.000    22971148.220    94063022.563       -2537.344          40.250  
G28  22218201.200   116757436.9653      -2662.137          47.750    22218205.640    90979849.938       -2076.707          45.750  
R22  19551204.520   104365689.223       -1721.941          52.250    19551209.060    81173322.2233      -1340.105          47.500  
R12  19579976.900   104592770.453       -1801.211          54.750    19579984.400    81349926.570       -1402.574          49.000  
R23  20029018.220   107141788.582        2218.281          50.750                                                                  
R13                                                                  19727156.000    81932580.715        1502.793          40.750  
C23  24260663.720   126331647.898       -3017.254          46.750                                                                  
C28  21586420.340   112406159.449         685.176          52.500                                                                  
C37  22187364.880   115535414.496        -437.051          53.000                                                                  
C08                                                                  38332724.320   154349990.621         155.625          42.500  
E13  23487258.020   123426359.363         361.512          47.000    23487263.720    94573465.441         277.535          46.500  
E21  23410207.720   123021453.844         -52.871          50.250    23410212.200    94263200.102         -40.484          50.500  
E27  25832367.540   135750012.613       -2261.980          46.250    25832376.420   104016269.176       -1732.793          45.250  
E26  25463017.980   133809090.117        2835.094          47.500    25463025.120   102529034.848        2173.680          46.500  
E15                                                                  25909819.440   104328108.301       -1762.645          35.500  
> 2024 04 10 11 02 35.0000000  0 18       0.000000000000
G18  21145589.180   111120810.902        1993.172          51.250    21145592.680    86587683.676        1553.844          50.750  
G29  21122011.960   110996927.7582      -1664.637          45.000                                                                  
G31  21646984.260   113755653.891       -1067.922          42.500    21646984.640    88640802.223        -828.668          39.250  
G25  22971768.600   120717464.8012      -3254.102          45.500    22971778.020    94065601.609       -2535.594          42.000  
G28  22218718.940   116760156.8982      -2667.023          49.750    22218723.060    90981969.246       -2077.367          45.750  
G26                                                                  21101007.460    86405101.4141       1560.410          38.250  
R22  19551537.840   104367468.301       -1726.281          52.000    19551542.680    81174705.8282      -1342.867          48.750  
R13  19726797.360   105340034.6023       1931.270          39.500    19726803.520    81931121.676        1499.074          41.750  
R12  19580325.060   104594628.621       -1805.344          55.000    19580333.080    81351371.918       -1404.348          51.750  
R23  20028613.860   107139627.664        2214.129          50.750                                                                  
C23  24261253.920   126334720.543       -3021.066          46.750                                                                  
C28  21586299.380   112405529.906         680.918          52.000                                                                  
C37  22187459.340   115535906.465        -439.336          52.500                                                                  
C08                                                                  38332696.580   154349875.832         155.273          39.250  
E13  23487199.400   123426050.961         359.242          46.750    23487205.200    94573229.074         276.059          48.000  
E21  23410227.660   123021561.422         -56.316          51.250    23410232.940    94263282.613         -42.516          51.250  
E27  25832808.600   135752327.906       -2262.180          45.500    25832817.080   104018043.301       -1732.609          46.000  
E26  25462488.460   133806311.543        2830.766          46.000    25462495.500   102526905.918        2168.734          44.250  
> 2024 04 10 11 02 36.0000000  0 17       0.000000000000
G18  21145222.360   111118883.984        1993.789          50.500    21145225.920    86586182.207        1553.344          50.750  
G29  21122342.200   110998661.7773      -1664.789          41.000    21122345.140    86492493.0701      -1298.359          42.250  
G05  23300323.980   122444019.8163        670.543          41.000                                                                  
G25  22972400.860   120720788.0002      -3258.793          44.750    22972410.540    94068191.156       -2539.480          41.750  
G28  22219239.020   116762891.2342      -2670.164          49.000    22219242.920    90984099.910       -2079.020          46.000  
R22  19551873.340   104369261.727       -1725.609          50.250    19551879.180    81176100.727       -1342.391          49.000  
R13  19726447.200   105338174.371        1929.273          40.500    19726455.780    81929674.375        1498.777          43.750  
R12  19580675.540   104596501.453       -1805.293          55.750    19580683.600    81352828.570       -1404.500          52.250  
R23  20028213.060   107137481.766        2210.945          51.000                                                                  
C23  24261846.580   126337806.977       -3023.586          47.250                                                                  
C28  21586181.460   112404914.656         680.043          52.500                                                                  
C37  22187556.440   115536412.902        -441.031          52.750                                                                  
E15  25910713.320   136161706.4101      -2305.313          33.750                                                                  
E13  23487143.520   123425756.699         360.715          50.750    23487149.320    94573003.586         275.305          51.500  
E21  23410251.260   123021683.250         -55.922          50.250    23410255.840    94263375.938         -42.270          51.250  
E27  25833251.180   135754656.688       -2260.914          46.500    25833260.180   104019827.629       -1735.762          45.750  
E26  25461963.100   133803547.363        2828.922          47.000    25461970.200   102524787.828        2166.465          47.000  
> 2024 04 10 11 02 37.0000000  0 19       0.000000000000
G18  21144857.100   111116963.785        1988.289          50.000    21144860.400    86584685.945        1549.523          50.500  
G29  21122673.040   111000399.4802      -1668.074          43.500    21122675.620    86493847.238       -1297.680          37.000  
G31  21647415.480   113757944.3753      -1072.090          43.750                                                                  
G05  23300209.740   122443420.8242        668.168          41.750                                                                  
G26  21100267.540   110882653.0512       1998.215          48.000    21100272.240    86402085.023        1555.605          44.750  
G25  22973034.040   120724117.3012      -3258.219          44.000    22973043.660    94070785.332       -2537.664          40.500  
G28  22219760.740   116765632.7852      -2673.445          48.500    22219764.180    90986236.195       -2083.113          46.500  
R22  19552211.420   104371061.930       -1728.801          49.500    19552216.340    81177500.859       -1345.754          48.250  
R13  19726100.420   105336320.680        1920.305          43.250    19726107.860    81928232.656        1494.398          43.750  
R12  19581027.020   104598381.375       -1810.504          55.750    19581035.440    81354290.633       -1407.867          51.750  
R23  20027813.020   107135343.297        2208.027          52.250                                                                  
C23  24262440.260   126340899.668       -3023.777          47.500                                                                  
C28  21586064.580   112404306.090         676.703          53.000                                                                  
C37  22187654.840   115536926.320        -445.133          53.000                                                                  
C13  37980494.780   197774416.2462        623.734          37.000                                                                  
E13  23487088.280   123425468.883         355.723          50.750    23487094.160    94572783.059         275.125          50.000  
E21  23410274.960   123021811.484         -61.094          50.250    23410280.120    94263474.180         -45.523          51.250  
E27  25833695.800   135756991.508       -2266.426          47.000    25833704.620   104021616.688       -1734.500          46.500  
E26  25461438.400   133800789.871        2826.605          47.000    25461444.860   102522674.953        2166.848          46.500  
> 2024 04 10 11 02 38.0000000  0 19       0.000000000000
G18  21144493.340   111115051.703        1987.258          49.000    21144496.400    86583195.996        1548.410          50.750  
G29  21123005.560   111002145.055       -1668.637          41.500    21123007.840    86495207.012       -1301.859          43.500  
G31  21647634.340   113759094.141       -1074.473          44.250    21647635.960    88643457.5631       -836.195          44.000  
G05  23300097.240   122442829.102         667.004          42.250                                                                  
G26  21099902.120   110880732.098        1996.219          49.750    21099906.600    86400588.270        1555.070          45.750  
G25  22973669.600   120727454.293       -3261.691          43.500    22973678.340    94073385.219       -2542.742          41.500  
G28  22220283.960   116768382.656       -2675.730          47.250    22220287.940    90988378.930       -2085.258          48.000  
R22  19552548.960   104372869.664       -1732.977          49.500    19552554.720    81178907.012       -1347.695          49.000  
R13  19725755.800   105334475.180        1921.512          42.500    19725762.420    81926797.375        1494.863          42.750  
R12  19581380.400   104600269.426       -1812.453          55.750    19581388.900    81355759.160       -1410.023          52.750  
R23  20027414.960   107133213.246        2204.422          50.750                                                                  
C23  24263035.560   126344000.055       -3026.258          47.750                                                                  
C28  21585949.500   112403705.332         674.250          53.750                                                                  
C37  22187755.100   115537447.742        -448.129          52.750                                                                  
C13  37980387.800   197773870.6682        622.793          40.250                                                                  
E13  23487035.100   123425188.668         354.234          51.250    23487041.000    94572568.359         270.605          51.750  
E21  23410300.900   123021947.273         -61.285          51.000    23410305.920    94263578.234         -47.277          51.250  
E27  25834141.620   135759333.531       -2269.168          47.000    25834150.320   104023411.234       -1735.070          46.500  
E26  25460914.800   133798040.379        2824.918          46.750    25460921.940   102520568.234        2162.789          47.750  
> 2024 04 10 11 02 39.0000000  0 19       0.000000000000
G18  21144130.220   111113142.914        1984.484          49.500    21144133.140    86581708.586        1546.594          50.750  
G29  21123338.060   111003892.863       -1673.781          44.000    21123339.700    86496568.988       -1304.188          42.500  
G31  21647853.220   113760246.836       -1077.371          41.500    21647855.520    88644355.824        -839.934          43.000  
G05  23299985.340   122442240.027         664.324          41.250    23299989.740    95409557.359         517.590          41.250  
G26  21099537.180   110878814.371        1991.875          49.250    21099541.940    86399093.887        1552.891          48.000  
G25  22974304.960   120730793.527       -3265.301          43.500    22974313.680    94075987.207       -2543.609          41.750  
G28  22220807.860   116771135.891       -2677.438          46.750    22220812.100    90990524.340       -2087.238          47.750  
R22  19552889.200   104374680.641       -1736.039          49.500    19552894.060    81180315.480       -1349.227          50.250  
R13  19725410.300   105332633.094        1917.570          45.000    19725417.800    81925364.457        1491.566          45.000  
R12  19581734.620   104602160.984       -1814.629          56.000    19581743.440    81357230.395       -1412.137          53.750  
R23  20027017.220   107131086.852        2203.023          51.500                                                                  
C23  24263631.860   126347103.461       -3027.020          47.750                                                                  
C28  21585834.360   112403107.695         672.762          52.500                                                                  
C37  22187855.780   115537972.516        -450.969          52.250                                                                  
C13  37980282.860   197773327.3982        617.527          45.000                                                                  
E13  23486982.140   123424911.563         351.598          51.500    23486988.480    94572356.020         270.652          52.250  
E21  23410327.680   123022086.020         -63.340          51.750    23410332.600    94263684.551         -48.234          52.250  
E27  25834587.320   135761678.195       -2271.082          46.750    25834596.080   104025207.719       -1737.602          45.750  
E26  25460392.740   133795294.176        2822.703          47.500    25460399.340   102518464.020        2162.754          47.000  
> 2024 04 10 11 02 40.0000000  0 19       0.000000000000
G18  21143767.440   111111236.277        1980.609          49.500    21143770.620    86580222.863        1544.191          51.000  
G29  21123670.640   111005642.754       -1675.703          46.500    21123672.940    86497932.402       -1304.547          45.500  
G31  21648073.020   113761401.738       -1080.875          45.500    21648075.300    88645255.785        -841.781          45.250  
G05  23299873.920   122441653.984         660.031          42.500    23299878.880    95409100.504         516.496          42.000  
G26  21099172.320   110876898.828        1989.277          50.000    21099177.340    86397601.227        1551.512          49.750  
G25  22974940.780   120734134.641       -3266.746          43.750    22974949.300    94078590.680       -2545.430          42.000  
G28  22221332.480   116773891.070       -2680.465          46.750    22221336.600    90992671.281       -2090.223          48.250  
R22  19553228.480   104376494.137       -1739.484          51.500    19553234.100    81181725.953       -1352.320          51.250  
R13  19725066.520   105330793.484        1913.922          43.750    19725073.040    81923933.734        1490.008          45.500  
R12  19582089.160   104604054.867       -1817.789          55.500    19582097.880    81358703.418       -1414.629          53.000  
R23  20026620.820   107128962.688        2200.152          51.750                                                                  
C23  24264228.060   126350208.602       -3029.492          47.000                                                                  
C28  21585720.120   112402512.152         669.297          52.500                                                                  
C37  22187956.820   115538499.422        -454.395          52.000                                                                  
C13  37980178.700   197772786.770         613.918          45.750    37980189.520   152930469.9961        475.043          45.250  
E13  23486930.000   123424636.555         349.926          51.250    23486935.980    94572145.328         268.449          52.000  
E21  23410354.500   123022226.836         -66.348          51.500    23410359.500    94263792.422         -50.113          52.500  
E27  25835034.140   135764024.816       -2271.668          46.750    25835042.840   104027005.770       -1740.688          46.250  
E26  25459870.300   133792549.680        2819.070          47.250    25459877.140   102516361.008        2161.145          47.750  
> 2024 04 10 11 02 41.0000000  0 20       0.000000000000
G18  21143403.380   111109324.129        1979.840          49.250    21143406.640    86578732.934        1541.602          51.000  
G29  21124002.400   111007386.598       -1676.754          49.500    21124004.880    86499291.207       -1303.617          47.500  
G31  21648291.920   113762551.082       -1083.414          47.250    21648294.300    88646151.387        -842.934          46.250  
G05  23299761.440   122441061.992         660.789          43.000    23299766.520    95408639.242         514.301          43.250  
G26  21098806.540   110874977.281        1989.172          51.250    21098811.700    86396103.910        1550.375          49.500  
G25  22975575.880   120737470.023       -3269.602          44.000    22975584.340    94081189.660       -2544.363          42.000  
G28  22221855.560   116776640.723       -2683.773          46.000    22221860.040    90994813.813       -2089.109          48.250  
R22  19553567.080   104378301.598       -1739.223          55.750    19553572.160    81183131.746       -1352.141          52.500  
R13  19724719.700   105328948.004        1914.078          43.000    19724726.980    81922498.375        1489.969          45.000  
R12  19582442.880   104605943.414       -1821.172          55.500    19582451.200    81360172.238       -1415.836          52.750  
R23  20026222.160   107126832.934        2197.043          51.250                                                                  
C23  24264823.320   126353308.230       -3033.797          47.250                                                                  
C28  21585604.600   112401910.801         667.082          51.750                                                                  
C37  22188057.080   115539020.754        -454.137          52.500                                                                  
C13  37980073.380   197772239.484         614.188          45.750    37980084.260   152930046.699         475.086          45.000  
E15  25912981.580   136173649.4411      -2317.008          37.250    25912989.040   104340856.4101      -1774.746          41.500  
E13  23486876.660   123424355.887         347.285          51.250    23486882.600    94571930.258         267.391          52.000  
E21  23410380.120   123022361.664         -67.801          51.750    23410385.220    94263895.754         -51.559          52.500  
E27  25835479.600   135766365.613       -2272.859          46.750    25835488.140   104028799.375       -1742.301          46.250  
E26  25459346.840   133789799.449        2817.223          47.000    25459354.180   102514253.727        2157.984          48.250  
> 2024 04 10 11 02 42.0000000  0 21       0.000000000000
G18  21143037.780   111107403.215        1976.711          49.000    21143041.180    86577236.117        1539.840          51.000  
G29  21124332.760   111009121.559       -1678.320          49.750    21124335.020    86500643.129       -1308.313          47.750  
G31  21648509.040   113763691.383       -1084.898          47.500    21648510.980    88647039.879        -844.703          46.500  
G05  23299646.720   122440461.648         656.156          42.000    23299652.900    95408171.418         510.293          43.250  
G26  21098438.980   110873046.449        1986.734          51.250    21098444.500    86394599.418        1547.430          49.500  
G25  22976208.360   120740796.551       -3270.047          43.500    22976217.440    94083781.766       -2550.145          41.750  
G28  22222377.120   116779381.246       -2684.246          48.000    22222381.760    90996949.215       -2091.801          48.750  
R22  19553903.940   104380100.273       -1742.406          54.750    19553909.740    81184530.719       -1354.176          53.500  
R13  19724372.960   105327093.602        1910.402          43.250    19724380.120    81921056.051        1486.094          46.750  
R12  19582794.820   104607823.219       -1823.602          55.750    19582803.120    81361634.301       -1418.152          52.750  
R23  20025822.320   107124694.082        2195.539          51.250                                                                  
C23  24265416.860   126356398.848       -3034.801          48.000                                                                  
C28  21585487.360   112401300.523         665.742          52.250                                                                  
C37  22188155.380   115539533.168        -457.852          52.000                                                                  
C08  38332523.100   199607507.4383        188.086          38.500    38332525.760   154349181.0943        147.270          42.500  
C13  37979966.540   197771683.477         612.590          45.500    37979977.620   152929616.828         472.688          45.750  
E15  25913433.700   136176024.730       -2318.938          41.000    25913441.800   104342676.535       -1777.664          45.250  
E13  23486821.400   123424066.469         345.441          51.000    23486827.400    94571708.449         265.434          51.000  
E21  23410404.060   123022487.555         -70.230          51.500    23410409.260    94263992.203         -53.344          52.000  
E27  25835923.400   135768697.539       -2276.453          46.500    25835932.140   104030586.160       -1744.051          45.500  
E26  25458821.500   133787039.992        2814.621          46.750    25458828.860   102512139.336        2158.027          48.250  
