     3.04           OBSERVATION DATA    M: Mixed            RINEX VERSION / TYPE
sbp2rinex v2.3 (RTKL                    20240410 141446 UTC PGM / RUN BY / DATE 
format: Swift Navigation SBP-JSON, option:                  COMMENT             
log: .\swift-gnss-20240410-130631.sbp.json                  COMMENT             
                                                            MARKER NAME         
                                                            MARKER NUMBER       
                                                            MARKER TYPE         
                                                            OBSERVER / AGENCY   
                                                            REC # / TYPE / VERS 
                                                            ANT # / TYPE        
  4389046.7386   924430.7501  4519472.8860                  APPROX POSITION XYZ 
        0.0000        0.0000        0.0000                  ANTENNA: DELTA H/E/N
G    8 C1C L1C D1C S1C C2S L2S D2S S2S                      SYS / # / OBS TYPES 
R    8 C1C L1C D1C S1C C2C L2C D2C S2C                      SYS / # / OBS TYPES 
E    8 C1B L1B D1B S1B C7I L7I D7I S7I                      SYS / # / OBS TYPES 
C    8 C2I L2I D2I S2I C7I L7I D7I S7I                      SYS / # / OBS TYPES 
  2024    04    10    11    06   49.0000000     GPS         TIME OF FIRST OBS   
  2024    04    10    11    18   08.0000000     GPS         TIME OF LAST OBS    
G L1C                                                       SYS / PHASE SHIFT   
G L2S  0.00000                                              SYS / PHASE SHIFT   
R L1C                                                       SYS / PHASE SHIFT   
R L2C                                                       SYS / PHASE SHIFT   
E L1B                                                       SYS / PHASE SHIFT   
E L7I                                                       SYS / PHASE SHIFT   
C L2I                                                       SYS / PHASE SHIFT   
C L7I                                                       SYS / PHASE SHIFT   
  6 R12 -1 R13 -2 R21  4 R22 -3 R23  3 R25 -5               GLONASS SLOT / FRQ #
 C1C    0.000 C1P    0.000 C2C    0.000 C2P    0.000        GLONASS COD/PHS/BIS 
                                                            END OF HEADER       
> 2024 04 10 11 06 49.0000000  0 25       0.000000000000
G05  23273815.220   122304738.6521        445.336          44.750    23273823.820    95302421.6331        347.359          42.750  
G18  21054581.140   110642571.3241       1791.402          51.250    21054584.400    86215006.7891       1396.777          52.500  
G20  24425178.840   128355178.000       -1698.633          40.500                                                                  
G25  23132497.060   121562092.6991      -3373.906          45.500    23132506.060    94723751.3091      -2628.340          44.000  
G28  22352252.620   117461901.2341      -2833.867          46.500    22352258.160    91528772.2031      -2209.180          49.000  
G29  21206188.160   111439293.2661      -1799.785          50.750    21206191.820    86835812.0821      -1403.625          48.000  
G26  21008620.320   110401052.2111       1840.211          50.500    21008626.380    86026819.0861       1432.156          47.000  
G31  21704352.380   114057154.6911      -1283.844          50.250    21704355.120    88875719.8671      -1002.160          46.750  
G16  23537143.120   123688519.0981       3310.934          42.250                                                                  
R22  19639079.640   104834773.0781      -1933.941          57.750    19639084.800    81538165.8441      -1504.316          54.000  
R23  19929302.420   106608361.1211       1991.344          51.500                                                                  
R12  19672527.380   105087145.3481      -2052.039          55.750                                                                  
R21  23412512.740   125285116.277       -4046.754          44.500    23412525.820    97443985.973       -3147.918          41.500  
R13  19641104.200   104882458.9691       1693.895          43.750    19641112.540    81575232.3011       1317.484          44.750  
C28  21557499.960   112255553.7811        519.984          53.000                                                                  
C27  24066469.960   125320409.3951       2634.246          47.750                                                                  
C37  22214179.600   115675065.8911       -634.914          52.000                                                                  
C23  24412075.740   127120094.8591      -3143.316          48.750                                                                  
C08  38326081.320   199573956.3831         85.371          45.000    38326085.380   154323246.9061         66.660          46.500  
C13  37953392.260   197633270.7851        512.406          47.250    37953401.860   152822611.9451        396.684          46.250  
E15  26025074.280   136762693.3361      -2425.211          45.250    26025083.760   104792210.7301      -1859.906          47.000  
E13  23474517.340   123359421.3791        182.727          51.500    23474522.960    94522169.5351        140.742          52.250  
E21  23416771.080   123055973.1561       -196.816          51.000    23416776.560    94289640.4341       -149.605          52.250  
E26  25329157.480   133105632.4491       2707.191          48.500    25329164.140   101990039.1721       2076.199          50.750  
E27  25945336.900   136343676.4531      -2374.688          46.000    25945346.220   104471146.0591      -1817.832          47.500  
> 2024 04 10 11 06 50.0000000  0 25       0.000000000000
G05  23273724.900   122304262.277         446.391          45.250    23273733.000    95302050.441         348.516          42.250  
G18  21054234.340   110640749.070        1792.273          51.500    21054237.560    86213586.859        1396.152          52.250  
G20  24425496.160   128356844.996       -1696.543          41.000                                                                  
G25  23133133.260   121565437.051       -3373.727          46.000    23133142.460    94726357.281       -2628.547          43.500  
G28  22352786.340   117464705.523       -2833.605          46.750    22352791.680    91530957.359       -2208.609          48.750  
G29  21206524.820   111441062.328       -1798.844          51.000    21206528.700    86837190.586       -1402.383          47.750  
G26  21008264.440   110399181.949        1840.027          51.000    21008270.500    86025361.766        1434.563          46.750  
G31  21704591.220   114058409.539       -1284.816          50.250    21704594.000    88876697.672       -1002.941          46.750  
G16  23536507.080   123685176.633        3313.945          42.500                                                                  
R22  19639436.120   104836676.191       -1933.887          57.500    19639441.440    81539646.043       -1503.719          54.000  
R23  19928924.260   106606339.574        1991.043          51.250                                                                  
R12  19672906.080   105089167.262       -2052.145          55.750                                                                  
R21  23413262.920   125289131.770       -4045.422          44.750    23413276.340    97447109.102       -3147.477          41.250  
R13  19640781.520   104880734.887        1692.824          43.750    19640790.120    81573891.309        1317.375          44.500  
C28  21557394.400   112255003.820         520.426          52.750                                                                  
C27  24065958.580   125317746.391        2633.637          47.750                                                                  
C37  22214295.600   115675670.535        -634.223          51.750                                                                  
C23  24412673.440   127123207.445       -3142.219          48.750                                                                  
C08  38326058.840   199573839.293          88.668          44.250    38326063.020   154323156.375          68.129          46.750  
C13  37953288.100   197632727.813         514.250          47.250    37953297.540   152822192.078         397.113          46.500  
E15  26025530.240   136765089.465       -2425.367          45.000    26025539.580   104794046.730       -1859.879          47.000  
E13  23474476.740   123359207.926         183.652          51.250    23474482.380    94522005.973         140.543          52.250  
E21  23416802.660   123056139.121        -196.008          50.750    23416808.120    94289767.598        -149.992          52.000  
E26  25328636.500   133102894.695        2707.730          48.250    25328643.140   101987941.406        2075.402          50.500  
E27  25945783.260   136346021.289       -2373.766          45.750    25945792.500   104472942.738       -1819.082          47.500  
> 2024 04 10 11 06 51.0000000  0 25       0.000000000000
G05  23273634.960   122303787.836         446.820          45.750    23273643.060    95301680.750         347.461          42.250  
G18  21053887.920   110638928.668        1793.316          51.750    21053891.160    86212168.363        1396.195          52.250  
G20  24425813.360   128358513.785       -1697.102          40.750                                                                  
G25  23133769.800   121568782.926       -3374.852          45.500    23133779.260    94728964.430       -2629.113          44.000  
G28  22353320.380   117467511.488       -2834.273          47.000    22353325.800    91533143.805       -2208.746          48.750  
G29  21206861.700   111442832.980       -1799.277          51.250    21206865.740    86838570.297       -1401.824          47.750  
G26  21007908.620   110397313.410        1841.617          50.750    21007914.920    86023905.758        1434.773          46.500  
G31  21704830.320   114059666.301       -1284.855          50.500    21704833.340    88877676.961       -1000.918          46.500  
G16  23535871.380   123681835.633        3312.375          41.750                                                                  
R22  19639792.880   104838581.191       -1933.371          57.500    19639798.340    81541127.707       -1503.691          54.000  
R23  19928546.600   106604320.004        1991.160          51.250                                                                  
R12  19673285.020   105091191.215       -2052.246          56.000                                                                  
R21  23414012.740   125293148.582       -4045.730          44.500    23414027.460    97450233.313       -3146.000          41.000  
R13  19640458.360   104879012.816        1695.184          43.750    19640466.580    81572551.938        1317.090          44.750  
C28  21557288.940   112254455.547         520.543          52.750                                                                  
C27  24065447.840   125315084.902        2633.855          47.750                                                                  
C37  22214412.020   115676276.996        -635.301          51.750                                                                  
C23  24413271.320   127126321.527       -3141.887          48.750                                                                  
C08  38326036.420   199573723.723          85.156          44.250    38326040.700   154323066.992          67.395          46.750  
C13  37953184.080   197632186.313         512.188          47.000    37953193.580   152821773.352         397.047          46.250  
E15  26025986.620   136767487.113       -2424.496          45.000    26025995.740   104795883.891       -1858.535          46.750  
E13  23474436.440   123358996.211         183.727          51.250    23474442.080    94521843.746         141.031          52.250  
E21  23416834.720   123056306.707        -195.520          51.000    23416840.080    94289896.008        -149.070          52.000  
E26  25328115.760   133100158.480        2708.547          48.500    25328122.500   101985844.832        2075.531          50.750  
E27  25946229.760   136348367.609       -2371.891          46.000    25946239.020   104474740.570       -1818.559          47.250  
> 2024 04 10 11 06 52.0000000  0 25       0.000000000000
G05  23273544.900   122303313.684         445.762          46.250    23273552.780    95301311.281         347.566          42.500  
G18  21053541.500   110637108.434        1791.496          52.000    21053544.780    86210749.996        1396.609          52.250  
G20  24426131.020   128360182.766       -1695.414          41.000                                                                  
G25  23134406.580   121572128.590       -3373.352          46.000    23134416.000    94731571.434       -2628.770          44.000  
G28  22353854.460   117470317.449       -2834.906          47.250    22353860.000    91535330.285       -2209.172          48.500  
G29  21207198.560   111444603.539       -1797.172          51.500    21207202.640    86839949.945       -1401.480          47.750  
G26  21007552.880   110395444.891        1841.512          50.750    21007559.260    86022449.770        1434.531          46.750  
G31  21705069.560   114060923.293       -1283.957          50.500    21705072.340    88878656.426        -999.645          46.750  
G16  23535235.560   123678494.352        3313.586          42.250                                                                  
R22  19640149.980   104840486.371       -1933.387          57.500    19640155.020    81542609.500       -1503.691          54.000  
R23  19928169.460   106602300.680        1991.270          51.500                                                                  
R12  19673664.220   105093215.453       -2052.391          56.000                                                                  
R21  23414763.740   125297165.012       -4044.508          44.750    23414778.740    97453357.188       -3144.750          41.250  
R13  19640135.640   104877291.074        1693.367          43.750    19640143.820    81571212.797        1317.336          44.750  
C28  21557183.700   112253907.277         520.949          52.750                                                                  
C27  24064936.840   125312423.238        2634.875          48.250                                                                  
C37  22214528.360   115676883.586        -634.051          51.750                                                                  
C23  24413869.460   127129435.457       -3141.668          48.750                                                                  
C08  38326014.440   199573607.949          88.770          44.500    38326018.680   154322977.473          67.285          46.500  
C13  37953079.840   197631644.617         513.977          47.000    37953089.580   152821354.484         397.645          46.250  
E15  26026442.940   136769884.602       -2425.793          45.500    26026451.820   104797720.930       -1858.008          46.500  
E13  23474396.280   123358784.574         184.559          51.750    23474401.880    94521681.594         141.754          52.250  
E21  23416866.620   123056474.223        -195.648          51.000    23416872.000    94290024.367        -149.598          52.000  
E26  25327595.160   133097422.105        2708.926          48.750    25327601.880   101983748.141        2076.137          50.750  
E27  25946676.480   136350713.730       -2372.652          46.250    25946685.460   104476538.242       -1819.457          47.000  
> 2024 04 10 11 06 53.0000000  0 25       0.000000000000
G05  23273460.260   122302867.906         446.145          46.750    23273467.820    95300963.930         348.992          43.250  
G18  21053200.600   110635316.461        1792.902          52.000    21053203.820    86209353.652        1397.098          52.000  
G20  24426453.440   128361879.934       -1696.324          40.500                                                                  
G25  23135048.500   121575502.152       -3371.961          46.500    23135057.880    94734200.227       -2625.824          43.250  
G28  22354394.000   117473151.539       -2831.664          47.750    22354399.240    91537538.641       -2207.680          48.500  
G29  21207540.700   111446402.059       -1797.152          51.250    21207544.900    86841351.410       -1401.449          47.500  
G26  21007202.700   110393604.504        1841.559          51.000    21007208.960    86021015.707        1433.820          46.500  
G31  21705313.820   114062208.594       -1284.855          50.250    21705316.820    88879657.977        -999.754          46.250  
G16  23534604.880   123675180.918        3314.172          42.750                                                                  
R22  19640512.180   104842420.254       -1933.160          57.750    19640517.040    81544113.637       -1503.703          54.000  
R23  19927797.360   106600310.188        1991.461          52.000                                                                  
R12  19674048.360   105095268.563       -2051.887          56.000                                                                  
R21  23415519.760   125301209.676       -4042.340          45.250    23415534.280    97456503.008       -3145.117          41.000  
R13  19639818.620   104875598.184        1693.391          44.000    19639826.180    81569896.098        1317.254          44.750  
C28  21557083.660   112253386.863         521.160          52.500                                                                  
C27  24064431.180   125309789.273        2634.922          48.500                                                                  
C37  22214650.200   115677518.160        -633.797          51.750                                                                  
C23  24414472.640   127132577.039       -3140.367          48.250                                                                  
C08  38325997.440   199573519.844          88.965          43.750    38326001.820   154322909.367          69.918          46.750  
C13  37952981.140   197631130.574         516.258          47.000    37952990.940   152820957.000         398.723          46.000  
E15  26026904.400   136772310.047       -2423.445          45.250    26026913.520   104799579.406       -1856.195          47.000  
E13  23474361.140   123358601.102         184.531          51.250    23474366.940    94521541.004         141.492          52.250  
E21  23416903.640   123056669.766        -194.457          50.750    23416909.200    94290174.195        -147.707          51.750  
E26  25327079.840   133094713.676        2709.637          48.250    25327086.460   101981672.855        2075.883          50.500  
E27  25947128.320   136353087.727       -2372.676          46.250    25947137.340   104478357.285       -1818.285          46.500  
> 2024 04 10 11 06 54.0000000  0 25       0.000000000000
G05  23273370.320   122302394.066         445.375          45.750    23273377.700    95300594.719         348.656          42.750  
G18  21052854.100   110633496.324        1792.473          52.000    21052857.400    86207935.375        1396.184          52.250  
G20  24426771.020   128363548.965       -1697.242          40.500                                                                  
G25  23135684.920   121578847.262       -3372.871          46.500    23135694.340    94736806.758       -2630.230          43.500  
G28  22354928.280   117475957.320       -2833.648          48.250    22354933.280    91539724.957       -2207.496          48.750  
G29  21207877.480   111448172.195       -1798.152          50.750    21207881.840    86842730.734       -1400.520          48.000  
G26  21006847.280   110391735.848        1839.969          51.000    21006853.040    86019559.613        1433.082          46.500  
G31  21705552.940   114063465.828       -1284.625          50.000    21705555.920    88880637.625       -1001.668          46.250  
G16  23533969.240   123671838.910        3314.023          43.000                                                                  
R22  19640869.300   104844325.559       -1933.375          58.000    19640874.140    81545595.539       -1503.789          54.000  
R23  19927420.240   106598291.105        1990.449          52.000                                                                  
R12  19674427.280   105097293.223       -2053.203          56.250                                                                  
R21  23416270.040   125305225.141       -4044.055          45.000    23416285.420    97459626.145       -3145.523          42.000  
R13  19639496.920   104873876.820        1692.984          44.250    19639504.220    81568557.266        1315.621          44.250  
C28  21556978.040   112252838.410         521.195          52.500                                                                  
C27  24063919.900   125307127.078        2635.289          48.750                                                                  
C37  22214766.760   115678124.816        -634.441          52.000                                                                  
C23  24415070.360   127135690.422       -3139.797          48.250                                                                  
C08  38325974.900   199573403.574          88.992          44.250    38325979.460   154322819.434          67.754          46.250  
C13  37952877.000   197630588.297         514.559          47.250    37952886.740   152820537.660         398.223          46.500  
E15  26027361.040   136774707.016       -2423.832          45.250    26027369.620   104801416.031       -1856.977          46.500  
E13  23474321.060   123358389.383         184.047          51.250    23474326.720    94521378.781         141.309          52.500  
E21  23416935.620   123056836.930        -195.480          50.750    23416941.040    94290302.281        -148.141          51.750  
E26  25326558.840   133091976.797        2708.543          47.750    25326565.680   101979575.770        2076.098          50.500  
E27  25947574.720   136355433.242       -2371.805          46.250    25947583.740   104480154.480       -1819.129          46.750  
> 2024 04 10 11 06 55.0000000  0 25       0.000000000000
G05  23273280.980   122301921.102         447.422          46.500    23273287.680    95300226.172         348.367          43.000  
G18  21052507.980   110631676.961        1792.691          52.250    21052511.160    86206517.691        1397.410          52.250  
G20  24427088.900   128365218.742       -1697.098          40.750                                                                  
G25  23136321.660   121582192.785       -3371.813          46.000    23136331.000    94739413.641       -2628.422          44.500  
G28  22355462.620   117478763.691       -2832.992          48.250    22355467.280    91541911.746       -2207.910          48.750  
G29  21208214.220   111449942.820       -1797.449          51.000    21208218.820    86844110.441       -1399.430          48.250  
G26  21006491.820   110389867.805        1841.996          51.250    21006497.560    86018103.992        1434.199          46.500  
G31  21705792.420   114064723.879       -1285.746          50.000    21705795.420    88881617.926       -1001.438          46.250  
G16  23533333.160   123668497.242        3314.535          42.750                                                                  
R22  19641226.300   104846231.637       -1933.641          58.000    19641231.300    81547078.035       -1502.992          54.000  
R23  19927042.800   106596272.863        1990.648          52.250                                                                  
R12  19674806.480   105099318.836       -2052.371          56.000                                                                  
R21  23417022.220   125309240.824       -4043.566          45.750    23417035.520    97462749.441       -3143.320          42.000  
R13  19639175.140   104872156.379        1694.059          44.500    19639181.740    81567219.133        1317.258          44.250  
C28  21556872.740   112252290.566         522.051          52.500                                                                  
C27  24063408.700   125304465.324        2636.484          49.000                                                                  
C37  22214883.320   115678732.215        -633.797          52.000                                                                  
C23  24415668.540   127138804.230       -3138.523          48.250                                                                  
C08  38325952.840   199573287.680          90.512          44.250    38325956.980   154322729.848          69.066          46.500  
C13  37952772.660   197630046.406         515.902          47.000    37952782.540   152820118.652         399.684          46.500  
E15  26027817.160   136777104.445       -2424.301          45.500    26027825.680   104803253.031       -1857.398          46.250  
E13  23474280.800   123358178.324         184.438          51.250    23474286.580    94521217.074         142.168          52.500  
E21  23416967.460   123057004.617        -194.781          50.750    23416972.900    94290430.781        -149.363          51.750  
E26  25326037.980   133089240.355        2709.770          48.000    25326044.900   101977479.035        2076.504          50.500  
E27  25948021.240   136357779.164       -2372.805          45.750    25948030.160   104481952.008       -1818.633          47.250  
> 2024 04 10 11 06 56.0000000  0 25       0.000000000000
G05  23273190.940   122301448.289         446.137          47.750    23273197.840    95299857.711         347.094          43.500  
G18  21052161.900   110629857.648        1794.199          52.750    21052165.120    86205100.043        1397.137          52.750  
G20  24427406.380   128366888.539       -1696.301          40.250                                                                  
G25  23136958.280   121585537.992       -3370.777          46.500    23136967.620    94742020.313       -2626.566          44.000  
G28  22355996.620   117481569.980       -2831.438          48.250    22356001.020    91544098.461       -2206.219          49.250  
G29  21208551.320   111451713.227       -1795.816          52.000    21208555.680    86845489.984       -1399.328          48.000  
G26  21006136.120   110387999.707        1841.473          51.500    21006141.980    86016648.344        1436.391          47.000  
G31  21706031.860   114065982.043       -1284.902          50.750    21706034.800    88882598.313        -999.285          46.750  
G16  23532697.560   123665155.203        3315.012          43.250                                                                  
R22  19641583.680   104848137.770       -1932.516          58.250    19641588.520    81548560.594       -1503.035          54.000  
R23  19926665.200   106594254.750        1991.469          52.500                                                                  
R12  19675185.900   105101344.676       -2052.063          56.250                                                                  
R21  23417773.380   125313256.027       -4040.816          45.500    23417786.740    97465872.367       -3142.344          42.500  
R13  19638852.580   104870436.117        1693.305          44.500    19638859.760    81565881.145        1317.711          44.750  
C28  21556767.440   112251742.613         522.859          52.750                                                                  
C27  24062897.580   125301803.270        2635.750          48.500                                                                  
C37  22214999.940   115679339.656        -633.887          51.750                                                                  
C23  24416266.460   127141917.762       -3139.023          48.250                                                                  
C08  38325930.240   199573171.543          93.105          44.500    38325934.620   154322640.039          70.492          46.500  
C13  37952668.600   197629504.227         514.676          47.250    37952678.520   152819699.414         400.105          46.750  
E15  26028273.380   136779501.590       -2423.242          45.500    26028281.760   104805089.809       -1858.754          46.250  
E13  23474240.700   123357967.227         185.152          51.250    23474246.320    94521055.324         141.699          52.250  
E21  23416999.500   123057172.133        -192.961          50.750    23417004.720    94290559.137        -148.266          52.000  
E26  25325517.440   133086503.664        2710.340          48.500    25325524.080   101975382.086        2077.297          50.500  
E27  25948467.620   136360124.746       -2371.352          46.000    25948476.400   104483749.289       -1817.102          47.000  
> 2024 04 10 11 06 57.0000000  0 25       0.000000000000
G05  23273101.180   122300976.152         447.180          47.500    23273108.400    95299489.828         348.801          43.750  
G18  21051815.780   110628038.938        1794.316          52.500    21051818.960    86203682.871        1397.891          52.500  
G20  24427724.120   128368558.938       -1693.965          40.000                                                                  
G25  23137595.020   121588883.469       -3368.508          46.000    23137604.320    94744627.164       -2626.848          43.750  
G28  22356530.940   117484376.695       -2831.453          48.000    22356535.320    91546285.520       -2205.598          49.250  
G29  21208888.300   111453483.988       -1796.469          51.750    21208892.540    86846869.785       -1400.113          48.000  
G26  21005780.920   110386132.055        1842.176          51.500    21005786.600    86015193.020        1435.309          46.750  
G31  21706271.440   114067240.879       -1283.359          50.250    21706274.380    88883579.211        -999.840          46.500  
G16  23532061.820   123661813.379        3316.688          43.000                                                                  
R22  19641940.960   104850044.543       -1931.898          58.000    19641945.600    81550043.629       -1502.848          54.000  
R23  19926288.300   106592237.324        1992.605          51.750                                                                  
R12  19675565.180   105103371.266       -2051.207          56.000                                                                  
R21  23418523.240   125317271.340       -4040.828          45.250    23418537.340    97468995.402       -3139.813          42.750  
R13  19638531.220   104868716.605        1694.027          44.250    19638537.040    81564543.754        1317.797          44.500  
C28  21556662.360   112251195.105         523.438          53.000                                                                  
C27  24062386.680   125299141.512        2637.227          48.750                                                                  
C37  22215116.620   115679947.660        -632.465          52.500                                                                  
C23  24416864.540   127145031.551       -3139.406          48.750                                                                  
C08  38325908.200   199573055.656          90.383          44.750    38325912.220   154322550.430          69.855          46.500  
C13  37952564.560   197628962.320         517.680          48.000    37952574.220   152819280.375         399.727          46.500  
E15  26028729.720   136781899.016       -2422.355          45.500    26028737.840   104806926.801       -1856.137          46.500  
E13  23474200.900   123357756.637         186.027          51.500    23474206.160    94520893.957         142.457          52.250  
E21  23417031.560   123057340.016        -192.605          51.000    23417036.640    94290687.773        -146.395          52.000  
E26  25324996.600   133083767.258        2711.160          48.500    25325003.380   101973285.371        2077.270          50.500  
E27  25948914.060   136362470.590       -2368.145          45.500    25948922.860   104485546.746       -1817.320          47.750  
> 2024 04 10 11 06 58.0000000  0 25       0.000000000000
G05  23273011.580   122300504.973         448.047          47.250    23273018.840    95299122.680         348.555          43.750  
G18  21051469.840   110626221.059        1792.809          52.250    21051473.040    86202266.348        1398.559          52.000  
G20  24428041.960   128370230.133       -1696.742          39.500                                                                  
G25  23138231.800   121592229.422       -3369.688          46.250    23138241.300    94747234.387       -2625.863          43.500  
G28  22357065.040   117487184.086       -2830.742          48.000    22357069.420    91548473.094       -2205.723          49.000  
G29  21209225.460   111455255.309       -1795.805          51.500    21209229.520    86848250.035       -1399.266          48.000  
G26  21005425.720   110384265.117        1843.328          51.250    21005431.200    86013738.254        1436.957          46.250  
G31  21706511.040   114068500.605       -1282.828          50.000    21706514.080    88884560.820       -1000.289          46.500  
G16  23531426.220   123658471.953        3317.473          43.500                                                                  
R22  19642298.080   104851952.156       -1932.328          58.000    19642302.900    81551527.328       -1502.156          54.250  
R23  19925911.180   106590220.820        1991.629          52.000                                                                  
R12  19675944.660   105105398.844       -2052.277          56.000                                                                  
R21  23419272.220   125321286.953       -4040.230          45.250    23419288.580    97472118.645       -3141.488          42.750  
R13  19638208.980   104866998.105        1695.039          44.000    19638215.960    81563207.148        1315.910          44.750  
C28  21556557.500   112250648.277         523.105          53.250                                                                  
C27  24061875.500   125296480.246        2638.023          49.000                                                                  
C37  22215233.640   115680556.480        -632.910          52.500                                                                  
C23  24417462.540   127148145.836       -3138.090          48.750                                                                  
C08  38325885.920   199572940.309          93.949          44.750    38325890.140   154322461.238          71.777          46.250  
C13  37952460.640   197628420.891         517.895          48.000    37952470.160   152818861.723         399.633          46.000  
E15  26029185.940   136784296.969       -2421.488          45.500    26029194.020   104808764.180       -1856.445          46.250  
E13  23474160.820   123357546.777         186.371          51.500    23474166.180    94520733.152         142.965          52.250  
E21  23417063.520   123057508.504        -191.023          51.000    23417068.720    94290816.867        -147.953          52.000  
E26  25324476.200   133081031.379        2712.008          48.500    25324482.780   101971189.043        2078.332          50.750  
E27  25949360.920   136364816.902       -2371.219          45.750    25949369.440   104487344.566       -1817.859          47.750  
> 2024 04 10 11 06 59.0000000  0 25       0.000000000000
G05  23272922.480   122300035.559         447.277          47.500    23272929.900    95298756.895         349.371          44.000  
G18  21051124.260   110624404.832        1794.570          52.500    21051127.380    86200851.105        1398.320          52.500  
G20  24428360.320   128371902.992       -1695.277          39.750                                                                  
G25  23138868.620   121595576.684       -3367.918          45.500    23138877.920    94749842.641       -2623.910          43.750  
G28  22357599.880   117489993.000       -2830.422          48.250    22357603.960    91550661.836       -2205.148          49.500  
G29  21209562.920   111457028.023       -1795.031          51.750    21209566.880    86849631.379       -1397.242          48.000  
G26  21005070.900   110382399.703        1843.715          51.500    21005075.960    86012284.688        1435.691          46.500  
G31  21706751.260   114069762.055       -1283.543          50.000    21706754.040    88885543.777       -1001.355          46.500  
G16  23530790.300   123655131.750        3319.289          42.750                                                                  
R22  19642655.520   104853861.445       -1932.102          58.000    19642660.480    81553012.336       -1502.910          54.250  
R23  19925534.520   106588206.074        1992.277          52.000                                                                  
R12  19676324.820   105107428.270       -2052.324          56.250                                                                  
R21  23420023.360   125325303.668       -4040.914          45.250    23420039.460    97475242.766       -3141.426          42.500  
R13  19637887.500   104865281.441        1693.488          44.250    19637894.260    81561871.977        1317.457          44.750  
C28  21556452.740   112250102.934         523.668          53.000                                                                  
C27  24061364.840   125293820.313        2638.105          49.000                                                                  
C37  22215350.720   115681166.910        -632.559          52.250                                                                  
C23  24418060.920   127151261.461       -3138.063          49.250                                                                  
C08  38325864.300   199572826.250          91.781          45.250    38325868.080   154322373.043          71.453          46.500  
C13  37952356.800   197627880.766         519.289          47.500    37952366.680   152818444.063         401.074          46.500  
E15  26029642.720   136786696.258       -2421.121          45.750    26029650.720   104810602.590       -1857.254          46.250  
E13  23474121.200   123357338.461         186.836          51.500    23474126.600    94520573.539         142.969          52.250  
E21  23417095.800   123057678.406        -191.418          50.750    23417101.040    94290947.059        -146.297          52.000  
E26  25323955.860   133078296.840        2712.699          48.750    25323962.420   101969093.750        2079.270          50.500  
E27  25949807.700   136367164.500       -2368.941          46.000    25949816.080   104489143.379       -1815.320          47.500  
> 2024 04 10 11 07 00.0000000  0 25       0.000000000000
G05  23272833.140   122299566.621         447.328          47.500    23272840.680    95298391.500         348.629          44.250  
G18  21050778.860   110622588.992        1794.094          52.500    21050781.840    86199436.164        1397.422          52.500  
G20  24428678.400   128373576.176       -1693.957          39.750                                                                  
G25  23139505.780   121598923.996       -3369.941          46.250    23139514.720    94752450.898       -2625.270          43.000  
G28  22358134.500   117492802.113       -2829.688          48.250    22358138.620    91552850.758       -2205.625          49.500  
G29  21209900.480   111458800.852       -1794.605          52.000    21209904.160    86851012.797       -1397.559          48.000  
G26  21004715.880   110380534.535        1843.500          51.750    21004721.300    86010831.324        1436.863          46.500  
G31  21706991.260   114071023.945       -1283.465          50.250    21706994.140    88886527.055       -1000.086          46.750  
G16  23530154.400   123651791.520        3319.445          43.000                                                                  
R22  19643013.420   104855771.133       -1932.230          58.000    19643018.460    81554497.645       -1501.777          54.500  
R23  19925158.320   106586191.816        1991.813          52.250                                                                  
R12  19676705.060   105109458.246       -2052.125          56.250                                                                  
R21  23420773.180   125329320.230       -4038.184          45.250    23420789.040    97478366.730       -3140.957          42.000  
R13  19637566.560   104863565.344        1693.438          44.250    19637572.940    81560537.227        1318.168          45.000  
C28  21556348.080   112249557.816         523.438          52.750                                                                  
C27  24060853.980   125291160.406        2639.016          48.500                                                                  
C37  22215468.000   115681777.688        -632.695          51.750                                                                  
C23  24418659.160   127154377.121       -3138.309          48.500                                                                  
C08  38325842.520   199572712.230          92.965          44.500    38325846.060   154322284.867          71.496          46.250  
C13  37952253.040   197627340.680         517.555          47.250    37952262.880   152818026.430         401.043          46.000  
E15  26030099.600   136789095.602       -2419.797          46.000    26030107.380   104812441.043       -1854.672          46.500  
E13  23474081.560   123357130.445         185.125          51.500    23474087.080    94520414.156         142.637          52.250  
E21  23417128.220   123057848.469        -191.609          51.000    23417133.440    94291077.363        -146.273          51.750  
E26  25323435.560   133075562.371        2712.313          49.000    25323442.040   101966998.516        2078.809          50.500  
E27  25950254.380   136369512.137       -2369.527          46.250    25950262.780   104490942.203       -1816.465          47.250  
> 2024 04 10 11 07 01.0000000  0 25       0.000000000000
G05  23272744.360   122299099.402         446.039          47.500    23272752.040    95298027.441         349.426          44.500  
G18  21050433.680   110620774.762        1793.391          52.500    21050436.680    86198022.480        1397.449          52.250  
G20  24428996.720   128375250.973       -1694.766          39.500                                                                  
G25  23140142.880   121602272.539       -3369.531          45.500    23140152.060    94755060.184       -2626.941          43.500  
G28  22358669.280   117495612.684       -2831.379          48.000    22358673.480    91555040.816       -2206.309          49.500  
G29  21210238.140   111460575.023       -1795.203          51.750    21210241.640    86852395.266       -1398.328          48.000  
G26  21004361.500   110378670.852        1842.383          51.500    21004366.620    86009379.102        1435.934          46.750  
G31  21707231.820   114072287.508       -1283.605          50.000    21707234.560    88887511.652        -999.840          46.750  
G16  23529519.180   123648452.473        3318.930          43.000                                                                  
R22  19643371.480   104857682.477       -1931.930          58.250    19643376.380    81555984.250       -1503.676          54.750  
R23  19924782.000   106584179.277        1991.684          52.500                                                                  
R12  19677085.120   105111490.008       -2053.566          56.500                                                                  
R21  23421525.240   125333337.891       -4039.277          45.750    23421539.680    97481491.570       -3142.227          42.250  
R13  19637244.560   104861851.023        1691.852          44.500    19637252.260    81559203.883        1316.559          45.000  
C28  21556243.800   112249014.152         523.660          52.500                                                                  
C27  24060343.640   125288501.773        2638.719          48.500                                                                  
C37  22215585.680   115682390.055        -632.984          51.500                                                                  
C23  24419257.780   127157494.047       -3137.160          48.250                                                                  
C08  38325820.720   199572599.461          92.027          44.250    38325824.560   154322197.668          71.277          46.000  
C13  37952149.620   197626801.824         519.172          46.750    37952159.360   152817609.746         399.703          45.750  
E15  26030556.500   136791496.234       -2421.109          46.000    26030564.200   104814280.496       -1855.414          46.250  
E13  23474042.140   123356923.945         185.539          51.500    23474047.780    94520255.922         142.301          52.250  
E21  23417160.720   123058019.898        -193.086          50.750    23417166.040    94291208.723        -147.223          51.750  
E26  25322915.420   133072829.207        2712.965          48.750    25322921.900   101964904.273        2078.082          50.500  
E27  25950701.340   136371861.012       -2369.383          46.500    25950709.800   104492741.996       -1815.453          47.250  
> 2024 04 10 11 07 02.0000000  0 25       0.000000000000
G05  23272655.580   122298633.820         444.762          46.500    23272663.700    95297664.664         347.637          44.500  
G18  21050088.780   110618962.066        1793.773          52.250    21050091.700    86196609.988        1396.758          52.500  
G20  24429315.580   128376927.273       -1695.996          39.500                                                                  
G25  23140780.420   121605622.293       -3369.250          45.250    23140789.280    94757670.355       -2625.219          43.500  
G28  22359204.400   117498424.625       -2830.742          48.000    22359208.480    91557231.934       -2206.828          49.500  
G29  21210576.140   111462350.465       -1795.004          51.750    21210579.260    86853778.727       -1398.750          48.000  
G26  21004007.100   110376808.559        1842.855          51.250    21004012.400    86007927.965        1435.359          46.750  
G31  21707472.540   114073552.672       -1284.844          49.750    21707475.300    88888497.488       -1001.320          46.500  
G16  23528883.940   123645114.555        3317.891          43.000                                                                  
R22  19643730.020   104859595.375       -1932.262          58.250    19643734.840    81557472.051       -1503.309          54.500  
R23  19924406.300   106582168.367        1990.531          52.250                                                                  
R12  19677465.860   105113523.508       -2052.801          56.500                                                                  
R21  23422276.720   125337356.609       -4040.305          46.000    23422290.680    97484617.254       -3139.773          42.250  
R13  19636923.800   104860138.406        1694.145          44.250    19636931.440    81557871.844        1315.660          45.000  
C28  21556139.760   112248471.844         523.348          52.500                                                                  
C27  24059833.340   125285844.355        2639.223          48.750                                                                  
C37  22215703.560   115683003.918        -633.273          51.500                                                                  
C23  24419856.620   127160612.180       -3138.871          47.750                                                                  
C08  38325798.880   199572487.891          91.254          44.250    38325802.860   154322111.398          71.723          46.000  
C13  37952046.320   197626264.156         519.297          47.250    37952056.300   152817193.980         401.207          45.750  
E15  26031013.720   136793898.078       -2420.609          46.250    26031021.160   104816120.867       -1854.488          46.000  
E13  23474003.260   123356718.875         185.168          51.500    23474008.720    94520098.793         142.238          52.250  
E21  23417193.720   123058192.641        -191.797          51.000    23417198.940    94291341.078        -146.707          52.000  
E26  25322395.580   133070097.258        2713.098          48.750    25322402.020   101962810.965        2079.316          50.750  
E27  25951148.640   136374211.055       -2369.320          46.500    25951156.940   104494542.664       -1814.949          47.250  
> 2024 04 10 11 07 03.0000000  0 25       0.000000000000
G05  23272567.000   122298170.027         445.707          46.500    23272575.780    95297303.270         346.145          44.750  
G18  21049744.340   110617151.027        1792.480          52.250    21049747.060    86195198.801        1395.641          52.500  
G20  24429634.980   128378605.230       -1697.164          39.000                                                                  
G25  23141418.120   121608973.348       -3371.281          45.000    23141427.020    94760281.574       -2624.969          43.500  
G28  22359739.760   117501238.090       -2831.707          48.000    22359743.800    91559424.238       -2207.227          49.500  
G29  21210914.420   111464127.309       -1794.918          52.000    21210917.260    86855163.277       -1398.012          48.250  
G26  21003653.240   110374947.809        1842.602          51.500    21003658.160    86006478.020        1436.480          46.500  
G31  21707713.620   114074819.566       -1285.391          50.000    21707716.360    88889484.676       -1001.176          46.500  
G16  23528248.600   123641777.879        3318.680          42.750                                                                  
R22  19644088.660   104861509.973       -1933.426          58.250    19644094.100    81558961.184       -1503.750          54.500  
R23  19924030.980   106580159.223        1990.758          52.250                                                                  
R12  19677846.780   105115558.840       -2054.441          56.250                                                                  
R21  23423028.480   125341376.516       -4039.398          46.000    23423040.640    97487743.836       -3140.652          42.000  
R13  19636603.980   104858427.629        1692.344          44.250    19636610.660    81556541.246        1314.340          45.000  
C28  21556036.040   112247931.035         522.090          52.750                                                                  
C27  24059323.180   125283188.246        2637.922          49.000                                                                  
C37  22215821.880   115683619.410        -633.289          51.500                                                                  
C23  24420455.580   127163731.609       -3136.496          47.750                                                                  
C08  38325777.780   199572377.648          93.449          44.250    38325781.720   154322026.156          70.484          46.000  
C13  37951943.380   197625727.805         518.414          47.500    37951953.480   152816779.246         403.242          46.000  
E15  26031471.160   136796301.273       -2422.484          46.000    26031478.480   104817962.277       -1854.707          46.250  
E13  23473964.540   123356515.367         185.230          51.500    23473969.960    94519942.859         141.957          52.500  
E21  23417226.840   123058366.816        -191.930          51.000    23417232.100    94291474.531        -147.629          52.000  
E26  25321875.920   133067366.664        2712.430          48.500    25321882.440   101960718.695        2077.082          50.750  
E27  25951596.080   136376562.391       -2368.316          46.250    25951604.420   104496344.332       -1815.426          47.250  
> 2024 04 10 11 07 04.0000000  0 25       0.000000000000
G05  23272482.540   122297725.570         443.746          47.000    23272491.140    95296956.926         346.121          44.750  
G18  21049403.500   110615359.250        1791.621          52.250    21049406.160    86193802.602        1396.070          52.500  
G20  24429957.660   128380302.398       -1696.457          38.500                                                                  
G25  23142059.200   121612343.324       -3367.137          45.250    23142068.100    94762907.535       -2626.910          43.500  
G28  22360278.580   117504070.641       -2832.988          48.000    22360282.780    91561631.414       -2206.191          49.250  
G29  21211256.100   111465923.148       -1796.719          52.250    21211259.060    86856562.633       -1398.746          48.000  
G26  21003303.000   110373106.188        1841.012          51.750    21003307.900    86005042.992        1435.355          46.500  
G31  21707958.280   114076105.777       -1286.324          49.750    21707961.120    88890486.922       -1003.516          46.500  
G16  23527617.660   123638460.047        3319.605          43.500                                                                  
R22  19644450.880   104863444.133       -1934.113          58.000    19644456.400    81560465.527       -1504.754          54.750  
R23  19923658.720   106578169.750        1989.184          52.000                                                                  
R12  19678231.660   105117613.906       -2055.055          56.000                                                                  
R21  23423783.300   125345415.453       -4038.094          46.000    23423796.420    97490885.207       -3140.879          42.000  
R13  19636287.140   104856736.563        1691.512          43.750    19636293.860    81555225.969        1314.578          45.000  
C28  21555935.920   112247409.168         522.035          52.750                                                                  
C27  24058816.720   125280550.895        2637.180          49.250                                                                  
C37  22215943.660   115684253.973        -633.609          51.750                                                                  
C23  24421058.100   127166869.801       -3137.469          47.750                                                                  
C08  38325760.380   199572286.137          90.133          44.500    38325764.180   154321955.387          71.324          46.000  
C13  37951843.980   197625210.207         518.891          47.500    37951853.960   152816378.988         399.914          46.000  
E15  26031932.300   136798723.398       -2421.465          46.000    26031939.340   104819818.180       -1855.559          46.000  
E13  23473929.380   123356331.031         184.344          51.500    23473934.980    94519801.602         141.109          52.500  
E21  23417263.560   123058560.004        -193.098          51.000    23417268.920    94291622.555        -148.129          52.000  
E26  25321359.820   133064655.004        2711.516          48.500    25321366.520   101958640.930        2077.770          51.000  
E27  25952047.300   136378932.645       -2368.406          46.500    25952055.520   104498160.477       -1816.172          47.500  
> 2024 04 10 11 07 05.0000000  0 25       0.000000000000
G05  23272394.140   122297263.457         442.715          46.500    23272402.800    95296596.824         344.262          44.250  
G18  21049059.120   110613549.676        1790.238          52.500    21049061.840    86192392.551        1394.805          52.250  
G20  24430277.140   128381981.766       -1699.176          38.750                                                                  
G25  23142696.880   121615695.160       -3370.949          45.250    23142706.060    94765519.324       -2627.039          43.500  
G28  22360814.080   117506885.250       -2832.094          48.000    22360818.340    91563824.625       -2207.484          49.250  
G29  21211594.560   111467700.934       -1796.473          52.250    21211597.480    86857947.930       -1399.805          48.000  
G26  21002949.120   110371246.645        1840.039          51.750    21002954.360    86003594.008        1434.281          46.750  
G31  21708199.600   114077374.262       -1287.688          49.750    21708202.620    88891475.352       -1001.984          46.750  
G16  23526982.740   123635123.977        3317.922          43.000                                                                  
R22  19644809.840   104865360.238       -1935.629          58.000    19644815.260    81561955.832       -1506.133          54.750  
R23  19923283.440   106576162.234        1988.809          51.750                                                                  
R12  19678613.180   105119651.035       -2057.160          56.250                                                                  
R21  23424534.880   125349435.723       -4040.441          45.750    23424549.240    97494012.082       -3142.133          42.000  
R13  19635967.260   104855027.570        1689.027          43.750    19635973.840    81553896.746        1314.234          45.000  
C28  21555832.380   112246869.520         521.277          52.500                                                                  
C27  24058306.700   125277895.605        2636.082          49.250                                                                  
C37  22216062.100   115684870.883        -635.781          51.500                                                                  
C23  24421657.300   127169990.035       -3139.684          47.500                                                                  
C08  38325739.240   199572176.707          93.262          44.250    38325743.020   154321870.770          71.297          46.250  
C13  37951741.060   197624674.625         516.543          47.250    37951751.220   152815964.867         398.992          46.250  
E15  26032389.900   136801127.445       -2421.781          46.000    26032396.780   104821660.227       -1856.168          46.250  
E13  23473890.800   123356128.801         182.957          51.250    23473896.540    94519646.664         140.227          52.500  
E21  23417297.060   123058735.184        -193.879          50.750    23417302.220    94291756.793        -148.820          52.250  
E26  25320840.460   133061925.254        2709.859          48.750    25320847.060   101956549.316        2078.070          51.000  
E27  25952494.740   136381284.750       -2371.191          46.250    25952503.140   104499962.750       -1816.953          47.750  
> 2024 04 10 11 07 06.0000000  0 25       0.000000000000
G05  23272306.160   122296801.914         443.008          47.000    23272314.840    95296237.191         343.309          44.250  
G18  21048715.040   110611740.598        1790.098          52.250    21048717.500    86190982.875        1393.602          52.250  
G20  24430597.140   128383661.582       -1697.949          39.000                                                                  
G25  23143334.880   121619047.125       -3370.211          45.250    23143344.240    94768131.227       -2627.570          43.500  
G28  22361349.560   117509700.191       -2834.391          47.750    22361354.260    91566018.074       -2209.129          49.500  
G29  21211933.020   111469478.945       -1797.949          52.000    21211936.020    86859333.391       -1400.059          48.000  
G26  21002595.380   110369387.449        1839.969          51.500    21002600.600    86002145.270        1433.246          46.750  
G31  21708441.080   114078643.309       -1287.992          50.000    21708444.340    88892464.211       -1002.043          46.750  
G16  23526347.860   123631788.008        3317.336          43.250                                                                  
R22  19645168.620   104867276.844       -1936.426          58.000    19645174.400    81563446.520       -1505.430          54.750  
R23  19922907.900   106574155.285        1987.777          52.000                                                                  
R12  19678994.340   105121688.824       -2057.285          56.250                                                                  
R21  23425286.320   125353455.914       -4039.723          46.500    23425301.100    97497138.902       -3141.414          41.500  
R13  19635646.940   104853319.207        1688.609          44.000    19635654.540    81552568.012        1313.445          45.000  
C28  21555728.840   112246330.203         520.527          52.500                                                                  
C27  24057796.660   125275240.477        2636.988          49.000                                                                  
C37  22216180.720   115685488.246        -636.211          51.750                                                                  
C23  24422256.560   127173110.430       -3139.469          48.000                                                                  
C08  38325718.040   199572067.402          89.520          44.000    38325721.960   154321786.242          69.148          46.250  
C13  37951638.280   197624139.184         515.582          47.250    37951648.280   152815550.809         399.195          46.250  
E15  26032847.520   136803531.641       -2422.852          46.500    26032854.260   104823502.406       -1856.105          46.750  
E13  23473852.320   123355926.965         182.145          51.250    23473858.140    94519491.988         139.316          52.750  
E21  23417330.400   123058910.625        -194.449          50.750    23417335.620    94291891.203        -148.602          52.250  
E26  25320321.360   133059195.688        2710.176          48.750    25320327.620   101954457.813        2076.715          51.000  
E27  25952942.260   136383636.961       -2371.133          46.000    25952950.840   104501765.078       -1816.434          48.000  
> 2024 04 10 11 07 07.0000000  0 25       0.000000000000
G05  23272218.500   122296341.613         441.148          46.500    23272227.120    95295878.539         342.750          44.000  
G18  21048371.000   110609932.641        1789.246          52.000    21048373.440    86189574.086        1394.145          52.250  
G20  24430916.500   128385342.523       -1701.680          38.250                                                                  
G25  23143972.720   121622399.875       -3372.629          44.750    23143982.200    94770743.773       -2626.375          43.500  
G28  22361885.040   117512516.098       -2834.512          47.750    22361890.140    91568212.273       -2208.707          49.500  
G29  21212271.640   111471257.813       -1797.500          52.000    21212274.760    86860719.520       -1399.293          48.000  
G26  21002241.880   110367529.238        1839.887          51.500    21002246.980    86000697.332        1434.406          46.750  
G31  21708683.120   114079913.520       -1290.004          50.000    21708686.020    88893453.988       -1003.699          46.750  
G16  23525713.160   123628452.711        3315.883          43.250                                                                  
R22  19645527.720   104869194.590       -1936.551          58.000    19645533.940    81564938.109       -1506.867          54.750  
R23  19922532.980   106572149.539        1987.180          52.000                                                                  
R12  19679376.000   105123727.922       -2057.988          56.250                                                                  
R21  23426037.740   125357476.719       -4041.270          46.750    23426051.220    97500266.207       -3140.805          41.250  
R13  19635326.820   104851612.109        1687.590          44.000    19635334.920    81551240.285        1312.430          45.000  
C28  21555625.480   112245791.840         520.180          52.500                                                                  
C27  24057286.880   125272586.117        2636.855          49.250                                                                  
C37  22216299.520   115686106.699        -636.789          51.500                                                                  
C23  24422856.100   127176231.598       -3138.258          48.000                                                                  
C08  38325697.560   199571958.887          88.543          44.250    38325701.220   154321702.336          68.695          46.250  
C13  37951535.640   197623604.473         515.465          47.250    37951545.740   152815137.344         399.715          46.500  
E15  26033305.200   136805936.617       -2423.816          46.250    26033311.900   104825345.191       -1856.438          46.500  
E13  23473813.980   123355726.141         181.410          51.250    23473820.000    94519338.125         140.453          52.750  
E21  23417364.060   123059086.934        -195.277          50.750    23417369.220    94292026.293        -150.172          52.250  
E26  25319801.880   133056466.910        2709.949          48.750    25319808.300   101952366.945        2077.387          50.750  
E27  25953390.420   136385989.941       -2372.578          46.000    25953398.720   104503568.012       -1817.906          48.250  
> 2024 04 10 11 07 08.0000000  0 25       0.000000000000
G05  23272130.920   122295881.938         441.508          46.250    23272139.440    95295520.367         343.496          44.500  
G18  21048027.080   110608125.238        1788.801          52.250    21048029.540    86188165.719        1393.863          52.250  
G20  24431236.620   128387024.027       -1700.301          37.500                                                                  
G25  23144610.780   121625752.824       -3371.883          45.500    23144620.400    94773356.465       -2627.145          43.250  
G28  22362420.580   117515332.410       -2834.574          47.000    22362426.040    91570406.793       -2208.629          49.250  
G29  21212610.320   111473036.961       -1796.602          52.000    21212613.220    86862105.859       -1400.820          47.750  
G26  21001888.420   110365671.469        1839.477          51.500    21001893.440    85999249.707        1435.434          46.750  
G31  21708925.280   114081184.348       -1289.746          50.250    21708928.120    88894444.238       -1004.293          46.750  
G16  23525078.840   123625117.586        3318.500          43.000                                                                  
R22  19645886.960   104871112.910       -1936.555          58.000    19645893.240    81566430.133       -1506.711          54.750  
R23  19922158.080   106570144.426        1985.473          52.250                                                                  
R12  19679757.900   105125767.742       -2058.402          56.500                                                                  
R21  23426787.520   125361497.574       -4039.707          45.750    23426802.580    97503393.531       -3138.539          41.000  
R13  19635007.040   104849905.750        1686.699          43.750    19635015.480    81549913.113        1311.688          44.750  
C28  21555522.160   112245253.879         520.215          52.500                                                                  
C27  24056777.280   125269932.000        2635.871          48.250                                                                  
C37  22216418.460   115686725.680        -637.406          51.500                                                                  
C23  24423455.400   127179353.012       -3138.016          48.000                                                                  
C08  38325676.700   199571850.598          90.695          43.750    38325680.460   154321618.609          69.133          46.000  
C13  37951432.980   197623070.027         515.434          47.000    37951443.160   152814724.074         397.785          46.250  
E15  26033762.760   136808341.832       -2423.320          46.250    26033769.680   104827188.156       -1856.711          46.750  
E13  23473775.860   123355525.793         182.914          51.250    23473781.860    94519184.605         139.457          52.750  
E21  23417397.760   123059263.570        -195.148          50.750    23417402.800    94292161.641        -149.773          52.250  
E26  25319282.660   133053738.391        2710.297          48.750    25319289.020   101950276.258        2077.008          50.750  
E27  25953837.800   136388343.094       -2370.906          46.250    25953846.420   104505371.063       -1816.660          48.000  
> 2024 04 10 11 07 09.0000000  0 25       0.000000000000
G05  23272043.540   122295422.926         440.824          46.000    23272052.200    95295162.707         342.883          44.250  
G18  21047683.220   110606318.379        1790.578          52.000    21047685.780    86186757.777        1393.793          52.500  
G20  24431556.080   128388705.980       -1700.250          38.000                                                                  
G25  23145249.220   121629105.988       -3370.680          45.500    23145258.420    94775969.316       -2626.965          43.000  
G28  22362956.380   117518149.098       -2833.824          46.750    22362962.060    91572601.617       -2208.148          49.500  
G29  21212948.980   111474816.395       -1797.711          51.750    21212951.880    86863492.434       -1400.895          47.750  
G26  21001535.100   110363814.105        1840.027          51.250    21001540.120    85997802.418        1432.426          46.500  
G31  21709167.500   114082455.789       -1289.535          50.000    21709170.120    88895434.961       -1004.980          46.750  
G16  23524444.220   123621782.543        3317.633          43.000                                                                  
R22  19646246.440   104873031.785       -1936.754          58.000    19646252.740    81567922.590       -1506.305          54.750  
R23  19921783.120   106568139.953        1986.297          52.250                                                                  
R12  19680139.740   105127808.262       -2058.352          56.000                                                                  
R21  23427538.760   125365518.473       -4038.727          45.750    23427552.820    97506520.891       -3142.145          40.750  
R13  19634687.780   104848200.090        1687.215          43.750    19634696.220    81548586.480        1311.816          45.000  
C28  21555418.920   112244716.309         520.227          52.500                                                                  
C27  24056267.600   125267278.086        2636.070          47.750                                                                  
C37  22216537.440   115687345.184        -636.926          51.500                                                                  
C23  24424054.800   127182474.625       -3139.488          48.000                                                                  
C08  38325656.000   199571742.508          90.164          43.500    38325659.720   154321535.016          68.738          46.500  
C13  37951330.300   197622535.754         516.695          47.000    37951340.780   152814310.953         400.656          46.250  
E15  26034220.520   136810747.281       -2423.848          46.000    26034227.500   104829031.285       -1856.527          47.000  
E13  23473737.760   123355325.875         180.953          51.000    23473743.840    94519031.430         140.715          52.750  
E21  23417431.420   123059440.535        -194.629          50.750    23417436.460    94292297.246        -149.121          52.250  
E26  25318763.400   133051010.109        2709.926          48.500    25318769.860   101948185.762        2076.711          51.000  
E27  25954285.580   136390696.469       -2370.125          46.500    25954294.220   104507174.289       -1815.996          47.500  
> 2024 04 10 11 07 10.0000000  0 25       0.000000000000
G05  23271956.560   122294965.320         439.805          45.250    23271965.280    95294806.133         342.672          44.750  
G18  21047339.580   110604512.816        1789.125          51.750    21047342.360    86185350.848        1393.941          52.750  
G20  24431876.380   128390389.281       -1701.523          37.500                                                                  
G25  23145887.640   121632460.094       -3370.012          45.250    23145896.480    94778582.887       -2627.102          43.250  
G28  22363492.340   117520966.918       -2834.477          46.500    22363498.360    91574797.324       -2209.270          49.500  
G29  21213287.820   111476596.848       -1796.523          51.750    21213290.720    86864879.801       -1400.910          48.000  
G26  21001181.720   110361957.906        1838.383          50.750    21001186.860    85996356.039        1434.500          46.500  
G31  21709409.600   114083728.594       -1289.270          49.750    21709412.220    88896426.758       -1004.781          47.000  
G16  23523809.840   123618448.418        3316.910          42.500                                                                  
R22  19646605.940   104874951.988       -1937.078          57.750    19646612.420    81569416.070       -1506.176          55.000  
R23  19921408.660   106566136.895        1985.898          52.250                                                                  
R12  19680521.720   105129850.227       -2058.824          55.750                                                                  
R21  23428290.440   125369540.137       -4038.070          46.000    23428302.980    97509648.859       -3139.117          41.000  
R13  19634368.600   104846495.902        1686.887          43.750    19634376.620    81547261.012        1311.957          45.250  
C28  21555315.920   112244179.871         520.289          52.750                                                                  
C27  24055758.040   125264625.141        2636.117          48.000                                                                  
C37  22216656.860   115687965.957        -637.301          52.000                                                                  
C23  24424654.420   127185597.195       -3137.637          48.000                                                                  
C08  38325634.960   199571635.406          90.512          44.000    38325639.260   154321452.203          70.855          46.750  
C13  37951227.860   197622002.422         517.254          47.250    37951238.380   152813898.539         401.371          46.000  
E15  26034678.380   136813153.707       -2422.340          45.750    26034685.540   104830875.172       -1855.707          47.000  
E13  23473699.840   123355127.180         182.020          51.000    23473706.020    94518879.172         139.410          52.750  
E21  23417465.500   123059618.555        -194.375          50.750    23417470.380    94292433.656        -149.090          52.250  
E26  25318244.440   133048282.801        2710.566          48.500    25318250.820   101946096.008        2077.133          51.000  
E27  25954733.300   136393050.754       -2370.387          46.250    25954742.180   104508978.223       -1816.621          47.500  
> 2024 04 10 11 07 11.0000000  0 25       0.000000000000
G05  23271869.520   122294508.496         440.613          45.750    23271878.540    95294450.156         343.328          44.500  
G18  21046996.240   110602707.922        1789.426          51.750    21046999.000    86183944.438        1393.660          52.500  
G20  24432196.440   128392073.219       -1700.102          37.750                                                                  
G25  23146526.000   121635814.523       -3370.332          45.500    23146535.240    94781196.699       -2626.961          43.750  
G28  22364028.480   117523785.242       -2834.176          46.000    22364034.680    91576993.418       -2208.484          49.250  
G29  21213626.580   111478377.719       -1797.102          51.500    21213629.520    86866267.500       -1399.855          47.750  
G26  21000828.800   110360102.246        1840.328          51.250    21000833.540    85994910.051        1433.027          46.250  
G31  21709651.840   114085002.137       -1288.918          49.500    21709654.640    88897419.125       -1004.508          46.750  
G16  23523175.480   123615114.551        3317.848          42.500                                                                  
R22  19646965.800   104876872.871       -1937.414          57.750    19646972.360    81570910.090       -1506.148          55.250  
R23  19921034.300   106564134.602        1985.340          52.250                                                                  
R12  19680903.960   105131893.031       -2059.387          55.750                                                                  
R21  23429042.420   125373561.898       -4036.785          45.750    23429056.000    97512776.855       -3141.621          41.500  
R13  19634049.720   104844792.543        1687.145          43.750    19634057.200    81545936.160        1313.117          45.250  
C28  21555212.960   112243643.949         520.988          52.750                                                                  
C27  24055248.680   125261972.531        2635.922          48.250                                                                  
C37  22216776.300   115688587.375        -637.250          51.750                                                                  
C23  24425254.200   127188720.074       -3139.219          48.250                                                                  
C08  38325614.600   199571528.617          90.219          44.000    38325618.660   154321369.625          68.762          46.250  
C13  37951125.560   197621469.383         517.191          46.750    37951135.860   152813486.383         399.766          46.250  
E15  26035136.600   136815560.508       -2423.008          46.000    26035143.420   104832719.328       -1856.930          47.000  
E13  23473661.980   123354929.031         182.527          51.000    23473668.260    94518727.348         139.324          52.750  
E21  23417499.460   123059797.016        -194.375          50.750    23417504.320    94292570.391        -149.551          52.250  
E26  25317725.940   133045555.859        2711.543          48.750    25317731.980   101944006.531        2077.113          51.000  
E27  25955181.640   136395405.352       -2370.867          46.250    25955190.220   104510782.379       -1817.426          47.500  
> 2024 04 10 11 07 12.0000000  0 25       0.000000000000
G05  23271782.480   122294051.223         441.469          46.250    23271791.720    95294093.863         343.477          44.250  
G18  21046652.680   110600902.496        1788.664          52.000    21046655.440    86182537.613        1393.559          52.750  
G20  24432517.040   128393756.566       -1698.004          37.000                                                                  
G25  23147164.140   121639168.066       -3371.109          45.250    23147173.760    94783809.844       -2625.535          44.000  
G28  22364564.480   117526602.891       -2834.891          46.500    22364570.920    91579188.980       -2208.363          49.500  
G29  21213965.120   111480157.773       -1796.105          51.500    21213968.220    86867654.563       -1398.508          47.500  
G26  21000475.680   110358245.918        1839.992          51.500    21000479.980    85993463.574        1434.063          46.500  
G31  21709894.000   114086275.199       -1289.184          49.750    21709896.820    88898411.117       -1005.508          46.500  
G16  23522540.640   123611779.703        3317.141          42.500                                                                  
R22  19647325.680   104878793.215       -1936.594          57.750    19647332.060    81572403.688       -1506.832          55.000  
R23  19920659.820   106562131.828        1986.457          52.000                                                                  
R12  19681286.500   105133935.453       -2059.008          55.750                                                                  
R21  23429794.080   125377582.551       -4037.020          45.750    23429807.560    97515904.047       -3138.992          41.750  
R13  19633730.600   104843088.785        1686.426          43.750    19633738.940    81544611.031        1312.875          45.000  
C28  21555109.840   112243107.344         520.512          52.750                                                                  
C27  24054738.800   125259319.066        2639.363          47.750                                                                  
C37  22216895.640   115689208.227        -636.602          52.000                                                                  
C23  24425853.920   127191842.121       -3137.465          48.500                                                                  
C08  38325593.880   199571420.969          92.133          44.000    38325597.840   154321286.391          70.152          46.000  
C13  37951022.840   197620935.477         519.059          46.500    37951033.440   152813073.516         399.477          46.750  
E15  26035594.480   136817966.441       -2421.621          46.250    26035601.140   104834562.828       -1856.617          47.000  
E13  23473624.160   123354730.262         181.758          51.250    23473630.440    94518575.047         139.375          53.000  
E21  23417533.140   123059974.715        -193.691          51.000    23417538.160    94292706.547        -147.984          52.500  
E26  25317206.780   133042828.066        2712.156          48.750    25317212.900   101941916.418        2077.930          51.500  
E27  25955629.440   136397759.070       -2369.895          46.500    25955638.100   104512585.871       -1816.730          47.250  
> 2024 04 10 11 07 13.0000000  0 25       0.000000000000
G05  23271695.840   122293594.492         439.297          46.500    23271704.900    95293737.973         343.344          44.250  
G18  21046309.080   110599097.531        1787.941          52.250    21046312.020    86181131.148        1393.742          52.750  
G20  24432838.300   128395440.352       -1699.410          38.000                                                                  
G25  23147802.400   121642521.695       -3371.047          45.500    23147811.900    94786423.074       -2626.238          44.500  
G28  22365100.660   117529420.836       -2835.555          47.250    22365107.140    91581384.766       -2207.828          49.250  
G29  21214303.780   111481938.020       -1797.133          51.750    21214306.760    86869041.766       -1399.484          47.500  
G26  21000122.580   110356389.918        1839.922          51.500    21000127.040    85992017.340        1434.629          46.500  
G31  21710136.340   114087548.781       -1290.703          50.250    21710139.280    88899403.500       -1005.090          46.500  
G16  23521905.860   123608444.918        3319.898          43.000                                                                  
R22  19647685.480   104880714.035       -1937.984          57.250    19647692.520    81573897.652       -1507.098          55.250  
R23  19920285.460   106560129.598        1985.367          52.000                                                                  
R12  19681669.140   105135978.523       -2059.609          55.750                                                                  
R21  23430545.500   125381603.145       -4037.590          45.500    23430560.100    97519031.184       -3139.547          41.500  
R13  19633411.360   104841385.637        1685.082          43.250    19633419.820    81543286.352        1311.551          45.000  
C28  21555006.760   112242571.039         518.883          53.000                                                                  
C27  24054229.240   125256665.730        2636.207          48.000                                                                  
C37  22217014.920   115689829.523        -636.766          52.000                                                                  
C23  24426453.620   127194964.281       -3138.996          49.000                                                                  
C08  38325573.320   199571313.449          91.480          44.750    38325577.300   154321203.258          71.207          46.250  
C13  37950920.460   197620401.680         518.430          47.250    37950930.960   152812660.766         399.984          46.500  
E15  26036052.560   136820372.496       -2423.098          46.500    26036059.020   104836406.422       -1856.602          46.750  
E13  23473586.280   123354531.848         182.512          51.250    23473592.680    94518423.016         140.430          53.000  
E21  23417566.940   123060152.629        -193.949          51.000    23417572.040    94292842.867        -148.254          52.500  
E26  25316687.720   133040100.418        2711.031          49.250    25316693.780   101939826.406        2077.215          51.250  
E27  25956077.220   136400112.848       -2369.637          46.250    25956086.000   104514389.418       -1816.531          47.250  
> 2024 04 10 11 07 14.0000000  0 25       0.000000000000
G05  23271609.180   122293138.031         439.461          46.750    23271618.000    95293382.305         342.172          44.500  
G18  21045965.600   110597292.719        1788.230          52.750    21045968.640    86179724.793        1392.590          52.750  
G20  24433158.580   128397124.301       -1701.762          38.000                                                                  
G25  23148440.660   121645875.172       -3369.340          45.750    23148450.000    94789036.176       -2626.242          44.250  
G28  22365636.780   117532238.770       -2835.484          47.500    22365643.360    91583580.566       -2208.395          49.500  
G29  21214642.640   111483718.176       -1796.902          52.250    21214645.500    86870428.891       -1401.801          47.750  
G26  20999769.280   110354533.949        1839.629          52.000    20999773.840    85990571.129        1431.746          46.250  
G31  21710378.800   114088822.570       -1290.395          50.250    21710381.720    88900396.074       -1006.277          46.750  
G16  23521271.460   123605109.848        3317.641          43.000                                                                  
R22  19648045.300   104882635.020       -1937.816          57.500    19648052.120    81575391.758       -1507.359          55.250  
R23  19919911.680   106558127.602        1985.023          52.000                                                                  
R12  19682051.620   105138021.902       -2061.164          55.750                                                                  
R21  23431297.060   125385623.387       -4037.984          45.250    23431309.820    97522158.023       -3139.629          41.500  
R13  19633093.140   104839682.785        1685.863          43.250    19633100.780    81541961.918        1310.313          45.000  
C28  21554903.640   112242034.742         520.000          52.750                                                                  
C27  24053719.780   125254012.219        2637.426          47.500                                                                  
C37  22217134.240   115690450.961        -638.391          51.750                                                                  
C23  24427053.060   127198086.266       -3138.027          48.500                                                                  
C08  38325552.740   199571205.762          92.137          44.250    38325556.600   154321119.973          68.934          46.000  
C13  37950817.840   197619867.723         518.008          46.750    37950828.660   152812247.863         399.156          46.500  
E15  26036510.280   136822778.402       -2423.074          46.250    26036516.960   104838249.922       -1856.086          47.250  
E13  23473548.420   123354333.496         181.180          51.250    23473554.920    94518271.035         139.020          53.000  
E21  23417600.940   123060330.480        -194.078          51.000    23417605.860    94292979.137        -148.992          52.500  
E26  25316168.620   133037372.633        2711.734          49.000    25316174.660   101937736.273        2077.063          51.250  
E27  25956525.000   136402466.434       -2370.547          46.500    25956533.880   104516192.820       -1814.941          47.250  
> 2024 04 10 11 07 15.0000000  0 25       0.000000000000
G05  23271525.800   122292699.027         438.227          46.250    23271534.500    95293040.219         341.086          44.500  
G18  21045625.360   110595505.246        1788.355          52.500    21045628.620    86178331.973        1392.820          52.750  
G20  24433482.260   128398825.551       -1702.574          37.750                                                                  
G25  23149082.180   121649245.629       -3368.336          46.000    23149091.800    94791662.473       -2626.445          44.500  
G28  22366176.500   117535073.895       -2834.285          47.750    22366182.760    91585789.750       -2208.746          49.250  
G29  21214984.340   111485515.395       -1796.809          52.000    21214987.440    86871829.332       -1398.684          47.750  
G26  20999419.480   110352695.191        1839.656          52.000    20999423.880    85989138.336        1433.238          46.500  
G31  21710624.400   114090113.781       -1291.551          50.250    21710627.560    88901402.223       -1004.980          46.750  
G16  23520640.080   123601791.715        3318.469          43.250                                                                  
R22  19648408.420   104884573.621       -1938.328          57.250    19648415.300    81576899.551       -1507.707          55.250  
R23  19919541.000   106556143.328        1985.496          52.250                                                                  
R12  19682437.720   105140083.063       -2060.156          55.750                                                                  
R21  23432051.360   125389660.734       -4035.594          45.250    23432064.220    97525298.188       -3138.617          42.000  
R13  19632777.400   104837997.734        1685.586          43.250    19632784.940    81540651.336        1312.035          44.750  
C28  21554804.000   112241515.480         519.773          52.750                                                                  
C27  24053213.340   125251375.586        2637.598          48.250                                                                  
C37  22217256.840   115691089.563        -636.984          52.000                                                                  
C23  24427655.840   127201225.105       -3138.250          48.500                                                                  
C08  38325535.200   199571114.906          90.000          44.250    38325538.960   154321049.719          69.684          46.250  
C13  37950718.540   197619350.594         517.750          46.750    37950729.200   152811848.004         400.523          46.500  
E15  26036971.380   136825201.313       -2422.273          46.000    26036977.900   104840106.461       -1855.516          47.000  
E13  23473513.960   123354152.402         182.191          51.250    23473520.400    94518132.289         138.898          53.000  
E21  23417637.840   123060525.430        -194.621          51.000    23417642.960    94293128.531        -149.391          52.500  
E26  25315652.860   133034661.855        2709.852          48.750    25315658.840   101935659.211        2077.078          51.750  
E27  25956976.220   136404837.027       -2370.949          46.500    25956984.960   104518009.254       -1816.125          47.500  
> 2024 04 10 11 07 16.0000000  0 25       0.000000000000
G05  23271439.180   122292243.617         438.324          46.500    23271447.540    95292685.352         341.004          44.500  
G18  21045281.960   110593701.266        1786.480          52.500    21045285.300    86176926.273        1391.383          53.000  
G20  24433803.180   128400510.270       -1703.430          38.250                                                                  
G25  23149720.320   121652599.207       -3371.582          46.500    23149729.800    94794275.660       -2627.504          44.250  
G28  22366712.840   117537892.355       -2834.461          47.750    22366719.120    91587985.938       -2208.887          49.500  
G29  21215323.100   111487295.844       -1798.445          52.000    21215326.160    86873216.680       -1401.422          47.750  
G26  20999066.520   110350839.785        1838.195          52.250    20999070.600    85987692.578        1430.805          46.500  
G31  21710867.080   114091388.531       -1293.246          50.500    21710869.880    88902395.527       -1007.277          46.500  
G16  23520005.400   123598456.668        3317.207          43.250                                                                  
R22  19648768.600   104886495.461       -1939.512          57.500    19648775.620    81578394.313       -1508.926          55.250  
R23  19919167.100   106554142.309        1982.984          51.750                                                                  
R12  19682820.740   105142127.578       -2062.703          56.000                                                                  
R21  23432802.340   125393680.715       -4037.828          45.500    23432815.680    97528424.816       -3139.551          41.500  
R13  19632459.120   104836296.027        1682.910          43.250    19632465.880    81539327.781        1309.707          44.500  
C28  21554701.080   112240979.699         518.879          53.000                                                                  
C27  24052703.920   125248722.258        2635.238          48.500                                                                  
C37  22217376.340   115691711.777        -639.074          52.250                                                                  
C23  24428255.340   127204347.250       -3140.066          48.750                                                                  
C08  38325514.460   199571007.387          90.438          44.750    38325518.440   154320966.574          68.996          47.000  
C13  37950616.120   197618816.746         517.359          47.250    37950626.640   152811435.195         398.961          46.750  
E15  26037429.120   136827607.398       -2423.230          45.750    26037435.680   104841950.070       -1856.668          47.250  
E13  23473476.360   123353954.688         180.652          51.250    23473482.700    94517980.785         138.508          52.750  
E21  23417671.680   123060703.637        -195.879          51.000    23417676.820    94293265.082        -149.453          52.500  
E26  25315133.820   133031934.266        2709.531          48.500    25315139.700   101933569.250        2077.086          51.500  
E27  25957423.900   136407190.730       -2372.086          46.500    25957432.980   104519812.723       -1816.902          47.750  
> 2024 04 10 11 07 17.0000000  0 25       0.000000000000
G05  23271352.820   122291789.035         436.652          46.750    23271360.820    95292331.141         341.469          44.250  
G18  21044938.860   110591898.031        1786.730          52.500    21044942.100    86175521.160        1391.289          53.000  
G20  24434124.260   128402195.699       -1700.352          38.500                                                                  
G25  23150358.580   121655953.211       -3368.953          46.500    23150368.160    94796889.156       -2625.957          44.250  
G28  22367249.340   117540711.391       -2837.332          47.500    22367255.520    91590182.590       -2208.723          49.500  
G29  21215661.860   111489076.773       -1796.930          52.000    21215665.040    86874604.422       -1401.637          47.750  
G26  20998713.540   110348985.000        1837.645          52.250    20998717.340    85986247.285        1432.148          46.500  
G31  21711109.780   114092664.098       -1293.156          50.500    21711112.780    88903389.480       -1008.508          46.750  
G16  23519370.560   123595121.922        3316.883          42.500                                                                  
R22  19649128.580   104888418.059       -1940.824          57.500    19649135.560    81579889.668       -1508.430          55.250  
R23  19918793.460   106552142.121        1983.230          52.000                                                                  
R12  19683204.080   105144173.000       -2062.813          56.250                                                                  
R21  23433553.880   125397700.934       -4035.438          45.750    23433568.680    97531551.688       -3140.098          41.500  
R13  19632139.780   104834595.227        1683.707          43.500    19632147.300    81538004.918        1307.664          44.500  
C28  21554598.240   112240444.512         518.395          52.750                                                                  
C27  24052194.320   125246069.336        2635.992          48.250                                                                  
C37  22217496.080   115692334.707        -639.449          52.000                                                                  
C23  24428854.940   127207469.820       -3139.102          48.500                                                                  
C08  38325493.980   199570900.262          89.930          44.500    38325497.980   154320883.754          69.563          46.750  
C13  37950513.800   197618283.316         516.289          47.000    37950524.200   152811022.699         397.668          46.750  
E15  26037886.940   136830013.918       -2423.648          46.250    26037893.640   104843794.023       -1856.781          47.250  
E13  23473438.920   123353757.617         180.527          51.250    23473445.180    94517829.789         137.406          52.500  
E21  23417705.800   123060882.359        -196.043          51.250    23417710.860    94293402.023        -150.090          52.500  
E26  25314614.940   133029207.117        2711.230          48.750    25314620.780   101931479.605        2076.617          51.250  
E27  25957871.820   136409544.816       -2369.777          46.500    25957881.020   104521616.496       -1817.195          47.750  
> 2024 04 10 11 07 18.0000000  0 25       0.000000000000
G05  23271266.320   122291335.309         437.234          46.500    23271274.260    95291977.594         341.129          44.250  
G18  21044595.720   110590095.539        1785.250          52.250    21044599.000    86174116.621        1391.023          53.000  
G20  24434445.940   128403881.879       -1705.070          38.500                                                                  
G25  23150996.960   121659307.594       -3372.723          46.250    23151006.700    94799502.957       -2627.164          44.250  
G28  22367786.000   117543531.023       -2837.676          47.250    22367792.040    91592379.699       -2210.652          49.500  
G29  21216000.660   111490858.168       -1798.012          51.500    21216004.120    86875992.523       -1401.141          47.750  
G26  20998360.740   110347130.805        1837.000          52.250    20998364.500    85984802.449        1431.586          46.500  
G31  21711352.620   114093940.461       -1293.594          50.250    21711355.880    88904384.043       -1007.313          47.000  
G16  23518735.520   123591787.523        3318.676          42.500                                                                  
R22  19649488.880   104890341.414       -1940.359          57.500    19649496.140    81581385.613       -1509.418          55.250  
R23  19918420.140   106550142.742        1982.340          52.250                                                                  
R12  19683587.420   105146219.348       -2064.176          56.500                                                                  
R21  23434305.380   125401721.355       -4037.617          45.750    23434321.100    97534678.668       -3141.191          42.000  
R13  19631821.540   104832895.305        1682.793          43.750    19631829.000    81536682.766        1308.516          44.500  
C28  21554495.540   112239909.910         518.008          52.500                                                                  
C27  24051684.700   125243416.832        2635.883          47.750                                                                  
C37  22217615.680   115692958.352        -640.801          51.750                                                                  
C23  24429454.720   127210592.789       -3140.242          48.250                                                                  
C08  38325473.520   199570793.551          91.039          44.250    38325477.380   154320801.227          69.984          47.000  
C13  37950411.280   197617750.254         516.262          46.750    37950421.620   152810610.516         399.246          46.750  
E15  26038345.080   136832420.844       -2423.602          46.250    26038351.760   104845638.293       -1855.578          47.250  
E13  23473401.520   123353561.191         179.598          51.250    23473407.800    94517679.277         137.422          52.750  
E21  23417739.900   123061061.594        -195.723          51.250    23417744.960    94293539.352        -150.938          52.500  
E26  25314095.840   133026480.383        2709.883          48.500    25314101.920   101929390.297        2076.887          51.250  
E27  25958319.920   136411899.277       -2370.848          46.500    25958329.060   104523420.555       -1817.301          47.750  
> 2024 04 10 11 07 19.0000000  0 25       0.000000000000
G05  23271179.840   122290882.566         434.430          46.500    23271187.900    95291624.797         340.328          44.500  
G18  21044252.900   110588293.918        1784.949          52.250    21044256.220    86172712.746        1391.164          52.750  
G20  24434767.000   128405568.891       -1704.949          38.500                                                                  
G25  23151635.440   121662662.512       -3370.875          47.000    23151645.020    94802117.141       -2628.070          44.250  
G28  22368322.940   117546351.328       -2836.988          47.500    22368328.700    91594577.348       -2210.750          49.500  
G29  21216339.600   111492640.156       -1799.195          51.250    21216343.180    86877381.094       -1401.984          47.750  
G26  20998008.040   110345277.367        1836.340          52.000    20998011.760    85983358.223        1430.250          46.250  
G31  21711595.640   114095217.746       -1294.813          50.500    21711599.140    88905379.340       -1009.176          47.250  
G16  23518101.380   123588453.551        3319.754          42.750                                                                  
R22  19649849.260   104892265.648       -1941.348          57.250    19649856.780    81582882.246       -1509.734          55.250  
R23  19918046.340   106548144.324        1981.563          52.250                                                                  
R12  19683970.840   105148266.734       -2064.609          56.500                                                                  
R21  23435056.520   125405742.098       -4037.551          45.750    23435072.000    97537805.898       -3138.785          41.750  
R13  19631503.660   104831196.441        1681.734          44.000    19631510.700    81535361.438        1309.496          44.500  
C28  21554392.920   112239376.004         518.395          52.500                                                                  
C27  24051175.380   125240764.867        2635.676          48.000                                                                  
C37  22217735.560   115693582.832        -641.754          51.750                                                                  
C23  24430054.640   127213716.281       -3139.738          48.250                                                                  
C08  38325453.000   199570687.340          89.695          44.250    38325457.140   154320719.098          69.586          47.000  
C13  37950308.960   197617217.703         518.438          47.000    37950319.360   152810198.715         398.203          46.750  
E15  26038803.080   136834828.328       -2423.270          46.500    26038809.840   104847482.992       -1856.000          47.000  
E13  23473364.420   123353365.531         178.391          51.250    23473370.560    94517529.359         136.742          52.750  
E21  23417774.220   123061241.457        -196.852          51.250    23417779.180    94293677.172        -150.520          52.500  
E26  25313577.160   133023754.211        2710.289          48.250    25313583.160   101927301.414        2075.438          51.250  
E27  25958767.820   136414254.230       -2371.355          47.250    25958777.140   104525225.004       -1816.324          47.250  
> 2024 04 10 11 07 20.0000000  0 25       0.000000000000
G05  23271093.460   122290429.813         435.789          46.250    23271101.540    95291272.016         340.352          44.250  
G18  21043910.080   110586492.199        1784.453          52.500    21043913.320    86171308.824        1390.723          52.500  
G20  24435087.900   128407255.777       -1703.371          39.250                                                                  
G25  23152274.140   121666016.977       -3370.941          47.000    23152283.400    94804731.008       -2628.563          44.500  
G28  22368859.680   117549171.422       -2836.906          47.750    22368865.260    91596774.813       -2210.996          49.250  
G29  21216678.540   111494421.813       -1798.418          51.500    21216682.260    86878769.391       -1401.773          47.500  
G26  20997655.260   110343423.715        1836.551          52.250    20997658.880    85981913.809        1432.703          46.250  
G31  21711838.800   114096495.020       -1294.328          50.750    21711842.220    88906374.613       -1008.715          47.000  
G16  23517467.340   123585119.086        3316.195          43.750                                                                  
R22  19650209.680   104894189.805       -1941.586          57.250    19650217.260    81584378.813       -1510.086          55.000  
R23  19917672.620   106546145.898        1981.434          52.000                                                                  
R12  19684354.100   105150314.176       -2065.273          56.250                                                                  
R21  23435807.460   125409762.230       -4037.996          45.500    23435822.320    97540932.664       -3139.828          41.250  
R13  19631185.940   104829497.660        1681.668          44.250    19631193.040    81534040.160        1307.555          44.250  
C28  21554290.260   112238841.863         517.008          52.500                                                                  
C27  24050665.920   125238112.477        2635.660          48.000                                                                  
C37  22217855.480   115694207.215        -641.316          52.000                                                                  
C23  24430654.400   127216839.363       -3139.688          48.500                                                                  
C08  38325432.680   199570580.691          91.477          44.250    38325436.620   154320636.668          69.016          46.750  
C13  37950206.420   197616684.742         515.551          47.250    37950217.160   152809786.590         398.027          46.750  
E15  26039261.320   136837235.398       -2424.520          46.500    26039267.720   104849327.371       -1858.043          46.500  
E13  23473327.080   123353169.699         179.668          51.250    23473333.320    94517379.301         135.855          52.500  
E21  23417808.420   123061421.012        -196.871          51.250    23417813.400    94293814.750        -150.168          52.250  
E26  25313058.080   133021027.633        2710.188          48.000    25313064.260   101925212.223        2076.188          51.000  
E27  25959216.020   136416608.750       -2372.469          47.250    25959225.180   104527029.109       -1817.383          47.000  
> 2024 04 10 11 07 21.0000000  0 25       0.000000000000
G05  23271007.160   122289977.730         434.770          46.250    23271015.240    95290919.738         338.277          43.750  
G18  21043567.180   110584691.031        1784.598          52.750    21043570.580    86169905.316        1390.301          52.500  
G20  24435409.880   128408943.191       -1704.313          39.000                                                                  
G25  23152912.500   121669371.633       -3370.852          46.750    23152921.580    94807345.039       -2626.711          44.000  
G28  22369396.680   117551991.887       -2835.730          48.000    22369402.060    91598972.574       -2210.836          49.250  
G29  21217017.300   111496203.742       -1798.285          51.500    21217021.400    86880157.902       -1401.656          47.500  
G26  20997302.500   110341570.453        1835.508          52.500    20997306.180    85980469.719        1431.156          46.250  
G31  21712081.900   114097772.898       -1294.133          50.750    21712085.460    88907370.355       -1007.258          46.750  
G16  23516832.820   123581784.723        3316.621          43.500                                                                  
R22  19650570.260   104896114.500       -1941.879          57.250    19650577.540    81585875.793       -1510.879          55.000  
R23  19917299.140   106544148.094        1980.090          52.000                                                                  
R12  19684737.660   105152362.293       -2065.414          56.250                                                                  
R21  23436558.660   125413782.336       -4037.816          45.000    23436573.400    97544059.426       -3139.008          41.500  
R13  19630869.240   104827799.566        1680.242          44.000    19630874.280    81532719.410        1307.543          44.250  
C28  21554187.740   112238308.109         516.984          52.750                                                                  
C27  24050156.600   125235460.305        2635.316          48.000                                                                  
C37  22217975.480   115694832.109        -641.926          52.000                                                                  
C23  24431254.100   127219962.656       -3139.914          48.250                                                                  
C08  38325412.280   199570474.320          91.371          44.500    38325416.140   154320554.391          70.352          46.500  
C13  37950104.240   197616151.961         515.422          47.000    37950114.980   152809374.617         399.590          46.750  
E15  26039719.000   136839642.699       -2425.383          46.500    26039725.800   104851171.902       -1858.941          46.500  
E13  23473289.940   123352974.301         179.230          51.250    23473296.140    94517229.590         136.926          52.500  
E21  23417842.600   123061600.867        -196.020          51.250    23417847.620    94293952.563        -150.090          52.000  
E26  25312539.520   133018301.301        2710.754          48.000    25312545.400   101923123.219        2076.480          50.750  
E27  25959664.020   136418963.453       -2370.848          46.500    25959673.320   104528833.367       -1819.344          47.500  
> 2024 04 10 11 07 22.0000000  0 25       0.000000000000
G05  23270921.260   122289526.922         435.313          46.250    23270929.460    95290568.457         336.754          43.500  
G18  21043224.840   110582891.023        1784.145          52.500    21043228.080    86168502.715        1390.711          52.500  
G20  24435731.700   128410631.750       -1705.313          38.500                                                                  
G25  23153550.800   121672727.090       -3371.883          46.750    23153560.140    94809959.695       -2626.996          44.000  
G28  22369933.400   117554813.363       -2838.141          47.750    22369939.160    91601171.117       -2209.996          49.250  
G29  21217356.560   111497986.566       -1798.266          51.500    21217360.500    86881547.117       -1400.508          47.000  
G26  20996949.840   110339718.242        1836.430          52.250    20996954.100    85979026.438        1429.578          46.500  
G31  21712325.220   114099051.996       -1295.234          50.500    21712329.040    88908367.066       -1009.094          46.750  
G16  23516198.320   123578451.121        3315.867          42.500                                                                  
R22  19650931.140   104898040.391       -1941.789          57.250    19650938.160    81587373.715       -1510.715          55.000  
R23  19916925.620   106542151.551        1979.676          51.750                                                                  
R12  19685121.140   105154411.770       -2065.719          56.500                                                                  
R21  23437310.620   125417803.148       -4036.734          45.500    23437325.200    97547186.703       -3139.559          41.000  
R13  19630552.020   104826102.793        1681.535          44.250    19630556.440    81531399.707        1306.719          44.250  
C28  21554085.500   112237775.363         516.594          52.750                                                                  
C27  24049647.200   125232808.957        2636.910          47.500                                                                  
C37  22218095.780   115695458.133        -641.832          52.000                                                                  
C23  24431854.140   127223086.773       -3139.984          48.500                                                                  
C08  38325391.780   199570368.707          88.594          44.500    38325395.880   154320472.742          69.727          46.500  
C13  37950002.240   197615619.969         516.441          47.000    37950012.840   152808963.250         399.191          46.750  
E15  26040177.340   136842050.836       -2422.117          46.500    26040184.180   104853017.109       -1857.699          46.500  
E13  23473252.860   123352779.969         178.047          51.000    23473259.160    94517080.680         136.457          52.500  
E21  23417876.840   123061781.645        -196.750          51.000    23417881.980    94294091.090        -149.383          52.250  
E26  25312021.080   133015575.816        2708.949          48.000    25312026.680   101921034.863        2075.117          51.000  
E27  25960112.180   136421318.941       -2371.922          46.500    25960121.660   104530638.223       -1816.801          47.500  
> 2024 04 10 11 07 23.0000000  0 25       0.000000000000
G05  23270835.980   122289077.035         434.547          46.250    23270844.200    95290217.910         337.984          43.750  
G18  21042882.500   110581091.836        1783.840          52.500    21042885.800    86167100.746        1389.391          52.500  
G20  24436053.880   128412321.117       -1704.648          38.750                                                                  
G25  23154189.400   121676083.031       -3372.848          46.750    23154198.780    94812574.691       -2627.383          44.000  
G28  22370470.360   117557635.477       -2837.293          47.500    22370476.460    91603370.168       -2210.027          49.250  
G29  21217696.080   111499769.945       -1797.648          51.500    21217699.860    86882936.754       -1399.914          47.250  
G26  20996597.500   110337866.711        1835.195          52.250    20996602.020    85977583.691        1429.117          46.250  
G31  21712568.980   114100331.969       -1295.680          50.500    21712572.440    88909364.441       -1010.199          46.750  
G16  23515563.460   123575117.898        3317.070          42.500                                                                  
R22  19651292.080   104899967.113       -1942.078          57.250    19651299.060    81588872.277       -1511.309          55.000  
R23  19916552.380   106540155.906        1979.516          51.500                                                                  
R12  19685504.980   105156462.262       -2065.984          56.500                                                                  
R21  23438062.200   125421824.242       -4038.102          45.250    23438076.040    97550314.203       -3140.109          41.250  
R13  19630234.700   104824406.996        1679.750          44.250    19630239.340    81530080.773        1307.598          44.250  
C28  21553983.360   112237243.266         516.840          52.750                                                                  
C27  24049138.220   125230158.094        2635.355          47.750                                                                  
C37  22218216.020   115696084.945        -643.113          52.000                                                                  
C23  24432454.180   127226211.348       -3140.605          48.250                                                                  
C08  38325371.700   199570263.598          88.828          44.500    38325375.780   154320391.461          69.680          46.500  
C13  37949900.180   197615088.465         515.730          47.250    37949910.860   152808552.266         399.262          46.750  
E15  26040635.760   136844459.453       -2424.230          46.250    26040642.580   104854862.680       -1857.871          46.750  
E13  23473216.120   123352586.359         177.621          51.000    23473222.280    94516932.332         135.922          52.500  
E21  23417911.340   123061963.023        -197.262          51.000    23417916.580    94294230.066        -150.188          52.000  
E26  25311502.380   133012850.824        2710.023          47.750    25311508.100   101918946.895        2076.211          50.750  
E27  25960560.520   136423674.902       -2372.797          46.500    25960569.900   104532443.430       -1817.828          47.500  
> 2024 04 10 11 07 24.0000000  0 25       0.000000000000
G05  23270750.280   122288627.816         434.297          46.250    23270758.700    95289867.879         338.777          43.500  
G18  21042540.240   110579293.215        1782.984          52.750    21042543.480    86165699.227        1389.074          52.250  
G20  24436374.860   128414011.023       -1706.898          38.500                                                                  
G25  23154828.260   121679439.191       -3372.566          46.750    23154837.360    94815189.879       -2625.980          43.750  
G28  22371007.740   117560458.027       -2838.820          48.000    22371013.500    91605569.539       -2212.508          48.500  
G29  21218035.500   111501553.621       -1800.020          52.000    21218039.040    86884326.625       -1401.859          46.750  
G26  20996245.060   110336015.621        1835.852          52.250    20996249.920    85976141.270        1430.621          46.000  
G31  21712812.580   114101612.574       -1296.133          50.750    21712816.140    88910362.316       -1010.688          46.500  
G16  23514929.380   123571784.855        3319.238          43.500                                                                  
R22  19651653.140   104901894.410       -1943.383          57.250    19651660.060    81590371.285       -1511.207          54.750  
R23  19916178.980   106538160.934        1979.203          51.750                                                                  
R12  19685888.880   105158513.496       -2067.047          56.500                                                                  
R21  23438814.360   125425845.348       -4037.707          45.250    23438825.200    97553441.738       -3137.813          40.500  
R13  19629917.660   104822711.941        1679.230          44.500    19629921.300    81528762.391        1305.215          44.000  
C28  21553881.320   112236711.586         515.605          53.000                                                                  
C27  24048629.340   125227507.477        2635.625          48.000                                                                  
C37  22218336.360   115696712.297        -642.898          52.250                                                                  
C23  24433054.020   127229336.191       -3140.910          48.250                                                                  
C08  38325351.840   199570158.707          87.797          44.750    38325355.620   154320310.359          70.051          46.000  
C13  37949798.240   197614557.176         517.695          47.500    37949808.860   152808141.438         399.195          46.250  
E15  26041094.120   136846868.336       -2423.578          46.250    26041100.960   104856708.434       -1857.078          46.750  
E13  23473179.440   123352393.207         177.559          51.000    23473185.520    94516784.336         135.980          52.500  
E21  23417945.980   123062144.734        -197.957          51.000    23417951.120    94294369.293        -150.965          52.250  
E26  25310983.900   133010126.105        2708.055          47.750    25310989.680   101916859.125        2075.336          51.000  
E27  25961008.820   136426031.059       -2369.535          46.500    25961018.240   104534248.785       -1817.805          47.250  
> 2024 04 10 11 07 25.0000000  0 25       0.000000000000
G05  23270664.600   122288179.230         432.707          46.750    23270673.340    95289518.336         336.516          43.500  
G18  21042197.980   110577495.113        1781.922          53.250    21042201.320    86164298.109        1389.707          52.000  
G20  24436696.400   128415701.398       -1707.090          38.500                                                                  
G25  23155466.600   121682795.508       -3372.813          46.750    23155476.120    94817805.199       -2628.164          44.000  
G28  22371545.020   117563280.895       -2838.977          48.500    22371550.760    91607769.195       -2211.598          48.750  
G29  21218375.000   111503337.551       -1800.133          52.000    21218378.440    86885716.699       -1403.063          46.750  
G26  20995892.820   110334164.910        1835.566          52.500    20995897.500    85974699.168        1428.609          46.000  
G31  21713056.280   114102893.758       -1297.285          51.000    21713060.080    88911360.648       -1010.602          46.500  
G16  23514295.300   123568451.879        3318.664          43.750                                                                  
R22  19652014.420   104903822.238       -1943.922          57.000    19652020.980    81591870.711       -1512.074          54.750  
R23  19915806.440   106536166.563        1978.324          51.500                                                                  
R12  19686272.780   105160565.379       -2068.398          56.250                                                                  
R21  23439565.640   125429866.402       -4036.574          45.000    23439576.160    97556569.199       -3140.297          39.750  
R13  19629600.260   104821017.563        1677.875          44.500    19629605.080    81527444.539        1305.355          44.000  
C28  21553779.360   112236180.246         514.938          52.750                                                                  
C27  24048120.120   125224857.043        2635.070          47.750                                                                  
C37  22218456.980   115697340.145        -643.102          51.750                                                                  
C23  24433654.060   127232461.195       -3140.145          48.000                                                                  
C08  38325331.780   199570054.039          89.898          44.250    38325335.460   154320229.410          68.688          46.000  
C13  37949696.200   197614026.047         516.574          47.250    37949706.760   152807730.742         398.480          46.000  
E15  26041552.720   136849277.395       -2425.008          46.250    26041559.420   104858554.348       -1857.422          46.750  
E13  23473142.860   123352200.477         176.758          51.250    23473148.860    94516636.656         135.047          52.500  
E21  23417980.640   123062326.727        -197.473          51.000    23417985.760    94294508.734        -151.973          52.250  
E26  25310465.440   133007401.586        2708.957          48.000    25310471.220   101914771.504        2075.395          51.000  
E27  25961456.880   136428387.371       -2371.680          46.250    25961466.540   104536054.250       -1815.684          47.000  
> 2024 04 10 11 07 26.0000000  0 25       0.000000000000
G05  23270582.540   122287747.340         431.438          46.500    23270591.260    95289181.797         334.773          43.750  
G18  21041859.080   110575713.609        1782.070          53.000    21041862.380    86162909.926        1388.113          52.500  
G20  24437021.900   128417408.383       -1706.141          39.000                                                                  
G25  23156108.660   121686168.082       -3373.211          46.750    23156117.680    94820433.168       -2628.402          44.250  
G28  22372085.040   117566120.234       -2840.285          48.000    22372091.000    91609981.680       -2212.254          48.750  
G29  21218717.720   111505137.820       -1799.363          52.250    21218720.980    86887119.512       -1402.824          46.750  
G26  20995543.760   110332330.680        1834.156          52.500    20995548.560    85973269.910        1429.582          46.250  
G31  21713303.460   114104191.617       -1297.941          51.000    21713306.920    88912371.949       -1010.391          46.500  
G16  23513664.100   123565135.117        3317.738          43.750                                                                  
R22  19652378.520   104905766.949       -1944.734          57.250    19652385.140    81593383.258       -1513.145          54.500  
R23  19915436.500   106534189.176        1977.836          51.750                                                                  
R12  19686660.100   105162634.281       -2068.426          56.500                                                                  
R21  23440319.980   125433903.848       -4038.891          45.000    23440330.080    97559709.426       -3139.090          40.500  
R13  19629285.440   104819340.191        1678.527          44.500    19629290.720    81526139.930        1305.262          44.000  
C28  21553680.440   112235665.242         514.426          52.750                                                                  
C27  24047614.180   125222222.727        2636.598          47.250                                                                  
C37  22218580.560   115697984.414        -644.238          51.500                                                                  
C23  24434257.380   127235602.324       -3140.590          48.000                                                                  
C08  38325314.680   199569965.504          89.195          44.250    38325318.440   154320160.953          69.160          46.000  
C13  37949597.340   197613511.027         513.844          47.000    37949607.920   152807332.484         399.156          46.250  
E15  26042014.160   136851702.758       -2427.238          46.500    26042021.060   104860412.727       -1858.398          47.000  
E13  23473109.360   123352024.266         176.578          51.250    23473115.340    94516501.641         134.387          52.750  
E21  23418018.380   123062525.102        -198.758          51.250    23418023.520    94294660.738        -152.379          52.500  
E26  25309950.160   133004693.371        2709.887          48.250    25309955.840   101912696.379        2076.113          51.250  
E27  25961908.380   136430759.914       -2371.426          46.500    25961918.000   104537872.195       -1817.520          47.250  
> 2024 04 10 11 07 27.0000000  0 25       0.000000000000
G05  23270497.160   122287300.000         431.000          46.250    23270506.000    95288833.211         335.336          43.250  
G18  21041517.040   110573916.547        1779.992          53.000    21041520.340    86161509.617        1387.160          52.500  
G20  24437343.900   128419099.801       -1708.723          39.250                                                                  
G25  23156747.440   121689524.738       -3373.336          46.750    23156756.540    94823048.734       -2630.027          44.000  
G28  22372622.200   117568943.844       -2839.656          47.750    22372628.480    91612181.887       -2212.129          49.000  
G29  21219057.440   111506922.250       -1801.203          52.000    21219060.500    86888509.984       -1402.801          46.750  
G26  20995191.660   110330480.754        1832.938          52.250    20995196.720    85971828.391        1428.266          46.500  
G31  21713547.680   114105473.949       -1299.852          51.250    21713550.880    88913371.176       -1012.484          46.250  
G16  23513030.080   123561802.359        3316.297          43.750                                                                  
R22  19652739.860   104907695.844       -1946.184          57.250    19652746.640    81594883.512       -1513.875          54.500  
R23  19915063.820   106532196.023        1975.559          51.500                                                                  
R12  19687044.420   105164687.516       -2071.012          56.250                                                                  
R21  23441071.400   125437924.906       -4038.785          45.250    23441081.660    97562836.918       -3141.195          39.750  
R13  19628967.980   104817647.160        1675.629          44.250    19628973.100    81524823.109        1303.434          43.750  
C28  21553578.420   112235134.637         514.051          52.500                                                                  
C27  24047105.040   125219572.688        2634.023          47.000                                                                  
C37  22218701.220   115698613.254        -645.840          51.500                                                                  
C23  24434857.520   127238727.723       -3141.699          47.750                                                                  
C08  38325294.680   199569861.203          88.906          44.500    38325298.320   154320080.301          68.133          45.750  
C13  37949495.440   197612980.227         513.898          47.000    37949505.980   152806922.047         397.742          46.500  
E15  26042472.640   136854112.227       -2425.441          46.500    26042479.600   104862258.938       -1860.258          47.000  
E13  23473072.900   123351832.387         175.391          51.250    23473078.840    94516354.605         133.602          52.750  
E21  23418053.180   123062707.664        -199.445          51.500    23418058.260    94294800.625        -151.918          52.500  
E26  25309431.620   133001969.258        2706.250          48.500    25309437.440   101910609.074        2075.328          51.250  
E27  25962356.900   136433116.535       -2373.621          46.250    25962366.320   104539677.914       -1818.215          47.250  
> 2024 04 10 11 07 28.0000000  0 25       0.000000000000
G05  23270412.340   122286854.445         428.750          45.750    23270421.180    95288486.008         333.902          43.250  
G18  21041175.420   110572121.156        1780.418          52.250    21041178.640    86160110.617        1386.445          52.500  
G20  24437666.000   128420792.801       -1708.863          38.750                                                                  
G25  23157386.620   121692882.742       -3374.570          46.500    23157395.360    94825665.352       -2629.242          44.000  
G28  22373159.940   117571768.969       -2841.438          47.250    22373166.160    91614383.277       -2213.813          49.000  
G29  21219397.360   111508708.109       -1801.715          51.500    21219400.420    86889901.543       -1402.891          46.750  
G26  20994839.780   110328632.367        1833.680          51.500    20994845.040    85970388.102        1428.203          46.500  
G31  21713791.760   114106758.055       -1300.227          50.500    21713795.120    88914371.773       -1012.770          46.500  
G16  23512396.200   123558470.871        3315.344          43.250                                                                  
R22  19653101.360   104909626.445       -1946.215          57.500    19653108.200    81596385.098       -1514.238          54.750  
R23  19914691.300   106530204.641        1974.930          52.000                                                                  
R12  19687429.180   105166742.621       -2071.902          56.500                                                                  
R21  23441823.460   125441947.129       -4037.004          45.750    23441834.500    97565965.328       -3140.141          40.000  
R13  19628650.860   104815956.008        1674.637          44.750    19628656.380    81523507.762        1303.352          44.250  
C28  21553476.900   112234605.559         513.457          52.750                                                                  
C27  24046596.320   125216923.961        2632.738          47.250                                                                  
C37  22218822.300   115699243.730        -646.777          51.500                                                                  
C23  24435458.000   127241854.426       -3143.016          48.250                                                                  
C08  38325274.960   199569758.211          87.855          44.250    38325278.220   154320000.676          68.215          46.000  
C13  37949393.840   197612450.770         514.254          47.250    37949404.200   152806512.621         396.504          46.250  
E15  26042931.400   136856523.039       -2426.945          46.250    26042938.320   104864106.195       -1858.629          47.000  
E13  23473036.700   123351642.086         173.609          50.750    23473042.620    94516208.797         133.082          52.500  
E21  23418088.180   123062891.688        -200.262          51.250    23418093.300    94294941.625        -153.043          52.250  
E26  25308913.480   132999246.535        2706.539          48.250    25308919.300   101908522.836        2074.461          51.250  
E27  25962805.440   136435474.480       -2373.457          46.000    25962814.920   104541484.633       -1819.422          47.500  
> 2024 04 10 11 07 29.0000000  0 25       0.000000000000
G05  23270327.740   122286409.586         429.082          46.000    23270336.460    95288139.391         334.523          43.750  
G18  21040833.920   110570326.367        1780.387          52.500    21040837.180    86158712.086        1386.441          52.750  
G20  24437988.220   128422486.418       -1708.727          38.750                                                                  
G25  23158025.480   121696240.984       -3373.824          46.750    23158034.160    94828282.160       -2629.086          43.750  
G28  22373697.900   117574594.531       -2842.238          47.500    22373703.840    91616585.004       -2215.449          49.000  
G29  21219737.480   111510494.301       -1801.500          51.750    21219740.160    86891293.375       -1403.652          46.750  
G26  20994487.940   110326784.465        1832.961          51.750    20994493.440    85968948.176        1427.766          46.250  
G31  21714036.120   114108042.801       -1299.707          50.500    21714039.380    88915372.875       -1014.223          46.500  
G16  23511762.080   123555139.574        3316.922          43.000                                                                  
R22  19653463.200   104911557.664       -1947.141          57.500    19653469.920    81597887.156       -1514.461          54.500  
R23  19914319.420   106528213.918        1974.508          52.000                                                                  
R12  19687814.040   105168798.520       -2071.586          56.500                                                                  
R21  23442574.540   125445969.406       -4038.363          45.250    23442587.560    97569093.734       -3139.727          39.000  
R13  19628334.540   104814265.605        1675.586          44.500    19628339.620    81522193.012        1301.820          44.250  
C28  21553375.400   112234076.914         513.922          53.000                                                                  
C27  24046087.560   125214275.512        2633.762          47.500                                                                  
C37  22218943.360   115699874.770        -646.316          52.000                                                                  
C23  24436058.580   127244981.398       -3143.664          48.500                                                                  
C08  38325255.200   199569655.484          86.477          44.500    38325258.740   154319921.227          64.496          46.250  
C13  37949292.100   197611921.559         513.453          47.250    37949302.580   152806103.406         398.773          46.500  
E15  26043389.760   136858934.156       -2425.324          46.250    26043397.080   104865953.664       -1860.457          47.000  
E13  23473000.620   123351452.285         174.023          51.000    23473006.520    94516063.371         134.363          52.500  
E21  23418123.380   123063076.074        -200.184          51.250    23418128.300    94295082.914        -153.887          52.250  
E26  25308395.420   132996524.086        2706.641          48.000    25308401.200   101906436.805        2073.879          51.250  
E27  25963254.000   136437832.668       -2373.004          46.000    25963263.660   104543291.551       -1818.895          47.500  
> 2024 04 10 11 07 30.0000000  0 25       0.000000000000
G05  23270243.220   122285965.008         430.473          45.750    23270251.880    95287792.965         333.715          43.250  
G18  21040492.640   110568531.785        1778.902          52.500    21040495.720    86157313.707        1385.238          52.500  
G20  24438310.580   128424180.227       -1708.711          38.000                                                                  
G25  23158664.760   121699599.082       -3375.820          46.250    23158673.400    94830898.848       -2629.438          43.750  
G28  22374235.840   117577420.141       -2840.691          47.250    22374241.540    91618786.766       -2213.773          49.000  
G29  21220077.320   111512280.406       -1801.879          51.750    21220080.020    86892685.145       -1403.176          46.750  
G26  20994136.220   110324936.617        1832.141          51.500    20994141.740    85967508.297        1428.586          46.250  
G31  21714280.560   114109327.813       -1301.105          50.500    21714283.880    88916374.191       -1013.898          46.500  
G16  23511128.180   123551808.043        3315.359          43.000                                                                  
R22  19653825.380   104913489.086       -1947.129          57.500    19653831.880    81599389.371       -1514.609          54.500  
R23  19913947.080   106526223.461        1975.254          52.000                                                                  
R12  19688199.060   105170854.754       -2072.355          56.750                                                                  
R21  23443326.240   125449991.348       -4037.023          45.500    23443338.420    97572221.918       -3140.914          40.250  
R13  19628017.640   104812575.523        1673.375          44.500    19628022.960    81520878.527        1303.098          44.250  
C28  21553273.880   112233548.309         513.172          52.750                                                                  
C27  24045578.900   125211626.945        2634.430          46.750                                                                  
C37  22219064.540   115700506.000        -645.969          51.500                                                                  
C23  24436659.060   127248108.223       -3142.633          47.750                                                                  
C08  38325235.420   199569552.621          88.426          44.500    38325238.980   154319841.699          67.730          46.250  
C13  37949190.340   197611392.172         513.379          47.000    37949200.880   152805694.047         397.281          46.500  
E15  26043848.680   136861345.125       -2426.137          46.000    26043856.040   104867801.020       -1858.668          47.250  
E13  23472964.620   123351262.590         174.477          50.750    23472970.520    94515918.000         133.570          52.750  
E21  23418158.320   123063260.426        -199.941          51.000    23418163.480    94295224.156        -153.535          52.500  
E26  25307877.180   132993801.512        2707.734          47.750    25307883.200   101904350.676        2074.039          51.500  
E27  25963703.080   136440190.676       -2373.465          46.000    25963712.480   104545098.332       -1818.512          47.500  
> 2024 04 10 11 07 31.0000000  0 25       0.000000000000
G05  23270158.920   122285520.824         429.730          46.250    23270167.360    95287446.836         334.035          43.500  
G18  21040151.260   110566737.469        1778.938          52.250    21040154.380    86155915.539        1386.121          52.500  
G20  24438633.060   128425874.281       -1708.469          38.500                                                                  
G25  23159303.660   121702957.105       -3374.234          46.250    23159312.400    94833515.492       -2629.102          43.750  
G28  22374773.520   117580245.852       -2842.000          47.500    22374779.260    91620988.621       -2214.230          49.000  
G29  21220417.380   111514066.527       -1800.961          51.750    21220419.980    86894076.930       -1403.930          46.750  
G26  20993784.680   110323088.918        1832.313          51.500    20993790.260    85966068.543        1427.758          46.500  
G31  21714525.300   114110613.168       -1301.855          50.500    21714528.580    88917375.758       -1014.781          46.500  
G16  23510494.260   123548476.387        3317.063          42.750                                                                  
R22  19654187.320   104915420.781       -1947.492          57.500    19654193.720    81600891.809       -1514.672          54.500  
R23  19913574.860   106524233.344        1974.676          52.000                                                                  
R12  19688583.920   105172911.406       -2072.406          56.500                                                                  
R21  23444078.160   125454013.023       -4037.609          44.750    23444090.580    97575349.879       -3141.098          40.750  
R13  19627701.500   104810885.887        1675.172          44.500    19627707.140    81519564.348        1301.648          44.500  
C28  21553172.280   112233019.824         513.180          52.500                                                                  
C27  24045070.300   125208978.340        2632.270          46.750                                                                  
C37  22219185.920   115701137.469        -646.781          51.500                                                                  
C23  24437259.420   127251235.012       -3141.410          47.750                                                                  
C08  38325215.720   199569449.711          87.883          44.500    38325219.220   154319762.109          67.434          46.250  
C13  37949088.620   197610862.734         513.277          47.000    37949099.340   152805284.656         396.969          46.750  
E15  26044307.540   136863756.070       -2425.789          46.000    26044314.800   104869648.348       -1856.406          47.250  
E13  23472928.600   123351073.059         173.750          51.000    23472934.580    94515772.785         133.523          53.000  
E21  23418193.480   123063444.813        -199.820          51.000    23418198.620    94295365.434        -152.137          52.250  
E26  25307358.920   132991078.934        2706.895          47.750    25307365.100   101902264.543        2074.805          51.500  
E27  25964151.760   136442548.594       -2372.824          45.750    25964161.220   104546905.039       -1816.879          47.500  
> 2024 04 10 11 07 32.0000000  0 25       0.000000000000
G05  23270074.900   122285077.883         429.203          46.500    23270083.360    95287101.707         333.082          43.000  
G18  21039809.960   110564944.285        1778.680          52.500    21039813.140    86154518.258        1385.645          52.250  
G20  24438955.700   128427569.445       -1708.934          38.250                                                                  
G25  23159942.780   121706315.918       -3371.801          46.500    23159951.700    94836132.734       -2628.410          43.750  
G28  22375311.300   117583072.547       -2839.656          47.500    22375317.180    91623191.227       -2214.387          49.000  
G29  21220757.480   111515853.516       -1801.730          52.250    21220760.160    86895469.387       -1404.254          46.500  
G26  20993433.420   110321242.219        1833.199          51.750    20993438.920    85964629.555        1427.461          46.500  
G31  21714770.160   114111899.703       -1300.227          50.750    21714773.400    88918378.246       -1013.176          46.250  
G16  23509859.780   123545145.414        3316.645          43.000                                                                  
R22  19654549.520   104917353.641       -1947.715          57.500    19654555.660    81602395.145       -1514.953          54.750  
R23  19913203.260   106522244.461        1973.941          51.750                                                                  
R12  19688969.220   105174969.359       -2072.656          56.500                                                                  
R21  23444829.360   125458035.301       -4034.953          44.750    23444842.220    97578478.320       -3139.414          40.500  
R13  19627385.460   104809197.555        1671.219          44.250    19627391.260    81518251.207        1302.840          44.500  
C28  21553070.980   112232492.324         512.453          52.750                                                                  
C27  24044561.980   125206330.508        2631.668          46.750                                                                  
C37  22219307.360   115701770.051        -647.328          51.750                                                                  
C23  24437860.120   127254362.574       -3142.109          48.000                                                                  
C08  38325195.960   199569347.582          88.203          44.500    38325199.480   154319683.141          69.949          46.000  
C13  37948987.240   197610334.070         514.746          47.000    37948997.880   152804875.855         398.082          46.500  
E15  26044766.520   136866167.816       -2424.488          46.000    26044773.860   104871496.305       -1858.691          47.750  
E13  23472892.820   123350884.574         174.426          51.250    23472898.720    94515628.363         133.938          53.000  
E21  23418228.860   123063630.117        -200.145          51.250    23418233.900    94295507.422        -154.016          52.500  
E26  25306841.040   132988357.156        2707.281          47.750    25306847.120   101900179.031        2074.566          51.250  
E27  25964600.620   136444907.285       -2373.328          46.000    25964610.000   104548712.355       -1816.941          47.250  
> 2024 04 10 11 07 33.0000000  0 25       0.000000000000
G05  23269990.580   122284635.359         429.266          46.250    23269999.140    95286756.879         334.000          43.500  
G18  21039468.720   110563151.430        1778.598          52.250    21039471.900    86153121.238        1386.445          52.250  
G20  24439278.060   128429264.887       -1711.047          38.000                                                                  
G25  23160581.960   121709674.688       -3371.684          45.750    23160590.920    94838749.953       -2627.543          43.250  
G28  22375849.380   117585899.402       -2839.746          48.250    22375854.900    91625393.957       -2213.172          48.500  
G29  21221097.600   111517640.555       -1801.836          51.750    21221100.280    86896861.887       -1402.000          46.750  
G26  20993082.040   110319395.719        1832.051          51.500    20993087.420    85963190.723        1427.914          45.750  
G31  21715014.920   114113186.625       -1299.988          50.250    21715018.220    88919381.047       -1013.199          46.500  
G16  23509226.080   123541814.363        3318.395          42.750                                                                  
R22  19654911.840   104919286.813       -1947.609          57.250    19654917.820    81603898.727       -1514.703          55.000  
R23  19912831.580   106520255.984        1974.488          51.750                                                                  
R12  19689354.520   105177027.801       -2072.199          56.250                                                                  
R21  23445580.560   125462057.375       -4035.625          44.750    23445594.400    97581606.621       -3138.777          40.500  
R13  19627069.280   104807509.691        1672.918          44.000    19627075.620    81516938.438        1300.996          44.750  
C28  21552969.800   112231964.980         514.598          52.750                                                                  
C27  24044053.480   125203682.684        2635.141          47.500                                                                  
C37  22219428.900   115702402.918        -646.848          51.500                                                                  
C23  24438460.820   127257490.141       -3141.625          48.250                                                                  
C08  38325176.500   199569245.457          87.699          44.500    38325180.220   154319604.160          68.254          46.000  
C13  37948885.740   197609805.363         515.023          47.250    37948896.120   152804467.023         399.125          46.000  
E15  26045225.180   136868579.539       -2425.832          45.750    26045232.840   104873344.266       -1860.590          47.750  
E13  23472857.020   123350696.313         174.574          51.500    23472863.000    94515484.109         134.215          53.000  
E21  23418264.100   123063815.488        -199.738          51.500    23418269.160    94295649.469        -152.574          52.500  
E26  25306323.020   132985635.391        2709.180          47.750    25306329.260   101898093.523        2075.148          51.250  
E27  25965049.580   136447265.941       -2372.848          46.750    25965058.840   104550519.617       -1817.141          47.250  
> 2024 04 10 11 07 34.0000000  0 25       0.000000000000
G05  23269906.380   122284192.910         427.477          46.000    23269915.100    95286412.125         333.547          43.250  
G18  21039127.520   110561358.551        1778.547          52.250    21039130.700    86151724.191        1386.246          52.250  
G20  24439600.600   128430960.301       -1708.496          37.250                                                                  
G25  23161220.840   121713033.102       -3371.965          46.250    23161229.820    94841366.891       -2627.258          43.500  
G28  22376387.480   117588726.063       -2842.250          48.250    22376392.820    91627596.555       -2213.199          48.500  
G29  21221437.780   111519427.305       -1800.762          52.000    21221440.220    86898254.160       -1403.543          46.750  
G26  20992730.740   110317549.066        1833.594          51.500    20992735.900    85961751.766        1428.809          46.250  
G31  21715259.740   114114473.590       -1301.344          50.000    21715263.220    88920383.863       -1014.063          46.250  
G16  23508592.720   123538482.883        3317.422          43.500                                                                  
R22  19655273.900   104921219.980       -1947.531          57.500    19655279.960    81605402.297       -1514.285          55.000  
R23  19912460.300   106518267.563        1974.020          52.000                                                                  
R12  19689739.900   105179086.391       -2072.422          56.000                                                                  
R21  23446332.240   125466078.891       -4035.617          44.250    23446347.480    97584734.445       -3139.203          40.250  
R13  19626753.560   104805821.957        1674.145          44.000    19626760.080    81515625.746        1302.379          45.000  
C28  21552868.380   112231437.457         513.195          52.750                                                                  
C27  24043545.000   125201034.484        2635.480          48.000                                                                  
C37  22219550.400   115703035.754        -647.172          52.000                                                                  
C23  24439061.260   127260617.352       -3140.914          48.250                                                                  
C08  38325157.020   199569142.973          87.734          44.750    38325160.320   154319524.930          67.555          46.500  
C13  37948784.000   197609276.316         513.766          47.250    37948794.720   152804057.926         398.465          46.500  
E15  26045683.900   136870990.961       -2424.594          46.000    26045691.680   104875191.961       -1857.648          47.500  
E13  23472821.220   123350507.918         173.191          51.500    23472827.060    94515339.766         133.918          53.000  
E21  23418299.420   123064000.625        -199.852          51.250    23418304.360    94295791.320        -153.238          52.500  
E26  25305804.820   132982913.289        2708.555          48.000    25305811.160   101896007.770        2073.840          51.000  
E27  25965498.120   136449624.207       -2371.887          46.750    25965507.660   104552326.605       -1818.375          47.500  
> 2024 04 10 11 07 35.0000000  0 25       0.000000000000
G05  23269822.380   122283750.691         428.090          46.250    23269831.060    95286067.527         333.176          43.750  
G18  21038786.420   110559565.785        1779.039          52.250    21038789.480    86150327.234        1386.113          52.500  
G20  24439923.140   128432655.820       -1709.770          38.000                                                                  
G25  23161859.840   121716391.258       -3371.785          46.250    23161868.720    94843983.629       -2627.723          43.750  
G28  22376925.480   117591552.680       -2838.641          47.250    22376930.520    91629799.121       -2213.699          49.000  
G29  21221777.780   111521213.898       -1799.824          52.000    21221780.460    86899646.313       -1402.473          47.000  
G26  20992379.360   110315702.395        1832.484          51.500    20992384.480    85960312.805        1428.953          46.500  
G31  21715504.760   114115760.719       -1301.301          50.250    21715508.100    88921386.828       -1011.930          46.000  
G16  23507958.720   123535151.078        3317.168          43.250                                                                  
R22  19655635.780   104923153.270       -1947.195          57.000    19655642.160    81606905.953       -1515.219          54.750  
R23  19912088.420   106516279.324        1973.574          51.750                                                                  
R12  19690125.580   105181145.262       -2073.215          56.250                                                                  
R21  23447083.860   125470099.930       -4034.957          44.500    23447098.480    97587861.906       -3138.320          40.250  
R13  19626436.980   104804134.480        1674.508          43.750    19626443.580    81514313.262        1301.762          45.000  
C28  21552766.940   112230909.898         514.891          53.000                                                                  
C27  24043036.380   125198386.109        2634.309          47.250                                                                  
C37  22219672.020   115703668.672        -646.250          52.000                                                                  
C23  24439661.620   127263744.355       -3138.699          48.250                                                                  
C08  38325137.260   199569040.270          88.512          45.000    38325140.560   154319445.512          66.930          46.250  
C13  37948682.360   197608747.043         518.113          47.500    37948693.200   152803648.672         398.438          46.750  
E15  26046142.420   136873402.141       -2424.211          45.750    26046150.660   104877039.508       -1856.883          47.750  
E13  23472785.300   123350319.555         174.359          51.500    23472791.160    94515195.441         134.258          53.250  
E21  23418334.520   123064185.629        -199.031          51.250    23418339.500    94295933.094        -153.445          52.500  
E26  25305286.800   132980191.004        2710.543          48.250    25305293.020   101893921.867        2075.379          51.250  
E27  25965946.720   136451982.223       -2371.973          46.250    25965956.340   104554133.387       -1817.512          47.750  
> 2024 04 10 11 07 36.0000000  0 25       0.000000000000
G05  23269738.320   122283309.176         428.305          46.250    23269747.160    95285723.488         334.156          43.750  
G18  21038445.420   110557773.648        1778.426          52.250    21038448.220    86148930.762        1385.699          52.500  
G20  24440246.080   128434351.926       -1708.957          37.500                                                                  
G25  23162498.800   121719749.699       -3371.324          46.000    23162507.740    94846600.609       -2627.504          43.750  
G28  22377463.680   117594379.762       -2839.742          47.500    22377468.440    91632002.031       -2213.516          49.250  
G29  21222117.900   111523000.859       -1800.086          52.250    21222120.380    86901038.746       -1402.250          47.000  
G26  20992027.820   110313856.223        1833.281          51.500    20992033.280    85958874.230        1429.605          46.750  
G31  21715749.820   114117048.535       -1300.258          50.250    21715753.220    88922390.324       -1015.348          46.250  
G16  23507324.800   123531819.488        3319.188          43.500                                                                  
R22  19655997.920   104925087.176       -1947.367          57.000    19656004.440    81608410.109       -1514.488          54.750  
R23  19911717.340   106514291.789        1975.063          51.750                                                                  
R12  19690511.200   105183204.914       -2073.313          56.250                                                                  
R21  23447835.000   125474121.109       -4034.609          44.000    23447849.980    97590989.508       -3137.246          40.500  
R13  19626120.600   104802447.801        1673.781          43.750    19626127.160    81513001.398        1301.270          45.000  
C28  21552665.680   112230382.813         514.371          52.750                                                                  
C27  24042527.840   125195738.020        2636.410          47.000                                                                  
C37  22219793.660   115704302.188        -646.516          51.750                                                                  
C23  24440262.440   127266871.625       -3139.512          48.250                                                                  
C08  38325117.800   199568937.844          88.934          45.000    38325120.920   154319366.320          68.547          46.250  
C13  37948580.860   197608218.023         515.535          47.250    37948591.620   152803239.605         397.828          46.500  
E15  26046601.460   136875813.625       -2423.465          46.250    26046609.460   104878887.270       -1858.410          47.250  
E13  23472749.560   123350131.707         175.055          51.500    23472755.400    94515051.504         134.023          53.000  
E21  23418369.840   123064371.031        -198.391          51.500    23418374.760    94296075.156        -151.949          52.250  
E26  25304768.540   132977469.016        2709.785          48.000    25304774.940   101891836.199        2076.074          51.000  
E27  25966395.720   136454340.508       -2370.898          46.250    25966405.140   104555940.383       -1818.195          47.500  
> 2024 04 10 11 07 37.0000000  0 25       0.000000000000
G05  23269656.560   122282881.266         428.250          46.000    23269665.760    95285390.066         334.563          43.750  
G18  21038106.980   110555995.012        1778.426          52.250    21038109.660    86147544.809        1386.211          52.500  
G20  24440570.940   128436061.508       -1709.715          37.000                                                                  
G25  23163140.380   121723121.305       -3369.918          46.000    23163149.380    94849227.832       -2625.758          43.750  
G28  22378004.320   117597220.184       -2839.770          47.500    22378008.800    91634215.340       -2212.879          49.000  
G29  21222460.520   111524801.039       -1799.941          52.000    21222463.120    86902441.480       -1403.465          47.250  
G26  20991679.040   110312023.402        1833.172          51.250    20991684.520    85957446.066        1429.875          47.000  
G31  21715997.620   114118349.906       -1301.047          50.250    21716000.900    88923404.371       -1015.434          46.000  
G16  23506693.060   123528500.977        3319.465          43.250                                                                  
R22  19656362.760   104927034.793       -1946.914          57.250    19656369.400    81609924.922       -1515.023          54.500  
R23  19911348.360   106512318.074        1975.410          52.000                                                                  
R12  19690899.380   105185278.426       -2073.672          56.500                                                                  
R21  23448588.940   125478155.492       -4034.289          44.000    23448604.380    97594127.328       -3137.027          40.750  
R13  19625807.380   104800774.988        1672.137          43.750    19625814.820    81511700.344        1302.012          45.000  
C28  21552566.920   112229868.941         514.438          52.250                                                                  
C27  24042021.840   125193102.980        2635.539          46.750                                                                  
C37  22219917.820   115704949.063        -646.926          51.250                                                                  
C23  24440865.480   127270011.949       -3140.445          48.000                                                                  
C08  38325100.580   199568848.488          90.676          44.750    38325103.920   154319297.234          68.520          46.000  
C13  37948481.820   197607702.031         516.301          47.000    37948492.560   152802840.613         400.719          46.250  
E15  26047062.560   136878238.301       -2424.727          46.250    26047070.880   104880745.141       -1857.066          47.250  
E13  23472716.360   123349957.258         174.301          52.000    23472722.180    94514917.840         133.930          52.750  
E21  23418407.660   123064569.691        -198.570          51.500    23418412.540    94296227.379        -151.430          52.250  
E26  25304253.000   132974760.219        2708.281          48.500    25304259.560   101889760.637        2076.875          51.000  
E27  25966847.200   136456711.902       -2372.668          46.750    25966856.320   104557757.434       -1817.512          47.250  
> 2024 04 10 11 07 38.0000000  0 25       0.000000000000
G05  23269572.900   122282441.164         426.723          46.500    23269582.060    95285047.121         334.133          43.750  
G18  21037766.060   110554204.047        1777.707          52.250    21037768.860    86146149.258        1385.992          52.750  
G20  24440893.800   128437758.766       -1709.570          37.250                                                                  
G25  23163779.620   121726480.223       -3370.926          46.500    23163788.420    94851845.152       -2627.934          44.250  
G28  22378542.380   117600048.109       -2841.621          47.500    22378546.940    91636418.910       -2214.293          49.000  
G29  21222800.820   111526588.637       -1800.809          52.250    21222803.400    86903834.418       -1402.559          47.500  
G26  20991327.940   110310178.141        1832.000          51.250    20991333.320    85956008.188        1427.770          47.000  
G31  21716242.720   114119639.016       -1301.230          50.500    21716245.940    88924408.867       -1013.656          46.250  
G16  23506059.520   123525169.730        3319.113          43.750                                                                  
R22  19656725.280   104928969.906       -1948.043          57.250    19656731.880    81611430.004       -1515.031          54.500  
R23  19910977.120   106510331.906        1973.047          52.250                                                                  
R12  19691285.000   105187339.547       -2074.145          56.250                                                                  
R21  23449341.240   125482176.766       -4034.922          44.500    23449356.020    97597255.000       -3138.324          40.750  
R13  19625492.400   104799089.836        1671.203          44.000    19625499.280    81510389.645        1299.898          44.750  
C28  21552465.860   112229342.715         512.941          52.500                                                                  
C27  24041513.300   125190455.367        2634.855          46.250                                                                  
C37  22220039.660   115705583.703        -646.887          51.750                                                                  
C23  24441466.120   127273139.730       -3139.457          48.500                                                                  
C08  38325081.160   199568746.590          88.332          45.250    38325084.420   154319218.426          68.230          46.250  
C13  37948380.340   197607173.492         517.695          47.250    37948390.960   152802431.918         399.355          46.500  
E15  26047521.660   136880650.320       -2424.152          46.250    26047529.820   104882593.313       -1857.285          47.250  
E13  23472680.940   123349770.387         173.848          52.000    23472686.640    94514774.656         132.895          53.000  
E21  23418443.200   123064755.820        -199.090          51.750    23418447.980    94296369.988        -152.609          52.500  
E26  25303735.040   132972038.805        2708.012          48.000    25303741.700   101887675.387        2075.066          51.000  
E27  25967296.020   136459070.656       -2370.555          47.000    25967305.160   104559564.781       -1816.648          47.750  
> 2024 04 10 11 07 39.0000000  0 25       0.000000000000
G05  23269489.300   122282001.359         427.438          46.500    23269498.580    95284704.426         332.395          44.500  
G18  21037425.300   110552413.301        1778.113          52.000    21037428.120    86144753.875        1384.438          52.750  
G20  24441216.520   128439456.164       -1710.340          37.000                                                                  
G25  23164418.720   121729839.008       -3370.207          46.500    23164427.480    94854462.359       -2627.973          44.500  
G28  22379080.460   117602876.102       -2840.082          47.750    22379085.160    91638622.527       -2213.543          49.000  
G29  21223140.880   111528376.180       -1801.344          52.000    21223143.500    86905227.305       -1402.344          47.750  
G26  20990976.780   110308332.977        1832.242          51.500    20990982.400    85954570.406        1428.258          47.250  
G31  21716488.240   114120928.422       -1302.586          50.500    21716491.060    88925413.598       -1016.023          46.250  
G16  23505425.700   123521838.289        3319.082          43.750                                                                  
R22  19657087.940   104930905.230       -1948.789          57.250    19657094.580    81612935.262       -1515.227          54.750  
R23  19910606.060   106508346.035        1973.086          52.250                                                                  
R12  19691670.920   105189401.047       -2074.563          56.250                                                                  
R21  23450092.840   125486197.703       -4033.801          43.750    23450106.520    97600382.387       -3136.754          39.750  
R13  19625176.440   104797405.027        1671.367          44.250    19625183.880    81509079.250        1299.781          44.750  
C28  21552364.760   112228816.555         513.152          52.750                                                                  
C27  24041004.700   125187807.699        2635.680          47.250                                                                  
C37  22220161.620   115706218.535        -648.043          52.000                                                                  
C23  24442066.880   127276267.383       -3141.309          49.000                                                                  
C08  38325061.660   199568644.555          88.641          45.000    38325064.980   154319139.555          68.344          46.000  
C13  37948278.980   197606644.828         516.613          47.500    37948289.340   152802023.125         398.531          46.250  
E15  26047980.660   136883062.238       -2424.547          46.250    26047988.840   104884441.406       -1858.320          47.500  
E13  23472645.400   123349583.656         174.512          51.750    23472651.140    94514631.563         132.984          53.000  
E21  23418478.580   123064941.918        -199.680          51.750    23418483.400    94296512.582        -151.906          52.250  
E26  25303216.920   132969317.266        2708.648          48.000    25303223.780   101885590.063        2075.676          51.000  
E27  25967745.040   136461429.250       -2371.188          47.000    25967754.100   104561372.004       -1817.102          47.750  
> 2024 04 10 11 07 40.0000000  0 25       0.000000000000
G05  23269405.780   122281562.262         425.879          46.000    23269415.260    95284362.289         332.418          44.250  
G18  21037084.720   110550623.176        1778.176          52.000    21037087.660    86143358.980        1385.098          52.500  
G20  24441539.660   128441154.199       -1710.426          36.500                                                                  
G25  23165057.640   121733198.059       -3371.688          46.000    23165066.960    94857079.801       -2627.871          44.000  
G28  22379618.520   117605704.531       -2839.520          48.000    22379623.340    91640826.508       -2214.102          48.750  
G29  21223480.880   111530164.074       -1800.637          51.750    21223483.820    86906620.465       -1402.516          47.750  
G26  20990625.720   110306488.293        1833.059          51.250    20990631.340    85953132.984        1428.918          47.000  
G31  21716733.680   114122218.484       -1302.516          50.250    21716736.480    88926418.848       -1014.805          46.250  
G16  23504791.660   123518507.020        3320.176          43.250                                                                  
R22  19657450.760   104932841.199       -1948.863          57.250    19657457.220    81614441.008       -1515.531          54.500  
R23  19910234.980   106506360.867        1972.715          52.000                                                                  
R12  19692056.620   105191463.359       -2076.102          56.250                                                                  
R21  23450843.700   125490218.707       -4033.836          43.250    23450856.940    97603509.859       -3136.047          39.000  
R13  19624860.760   104795721.000        1671.152          44.000    19624868.080    81507769.449        1300.348          44.250  
C28  21552263.920   112228290.844         513.648          52.500                                                                  
C27  24040496.760   125185160.297        2633.820          47.250                                                                  
C37  22220283.740   115706853.961        -647.715          51.750                                                                  
C23  24442667.560   127279395.340       -3139.754          48.750                                                                  
C08  38325042.320   199568542.836          87.512          45.000    38325045.280   154319060.879          69.824          46.000  
C13  37948177.560   197606116.418         515.813          47.250    37948187.540   152801614.523         399.402          46.250  
E15  26048439.880   136885474.449       -2424.254          46.000    26048447.780   104886289.711       -1857.785          47.500  
E13  23472609.960   123349397.426         174.277          51.250    23472615.680    94514488.879         133.477          52.750  
E21  23418514.200   123065128.410        -199.195          51.500    23418518.880    94296655.484        -151.766          52.250  
E26  25302699.120   132966596.043        2708.277          47.250    25302705.940   101883504.984        2075.496          51.000  
E27  25968193.940   136463788.086       -2370.586          46.750    25968203.040   104563179.414       -1816.426          48.000  
> 2024 04 10 11 07 41.0000000  0 25       0.000000000000
G05  23269322.140   122281123.750         425.434          46.250    23269331.660    95284020.574         332.160          44.000  
G18  21036744.120   110548833.508        1777.621          52.250    21036747.160    86141964.426        1385.246          52.750  
G20  24441861.880   128442852.629       -1711.758          35.750                                                                  
G25  23165697.060   121736557.215       -3367.121          45.750    23165706.080    94859697.328       -2627.156          44.000  
G28  22380156.620   117608533.270       -2841.129          48.000    22380161.740    91643030.711       -2212.770          49.000  
G29  21223821.160   111531952.148       -1800.602          52.000    21223824.140    86908013.777       -1403.094          47.750  
G26  20990274.640   110304643.918        1831.910          51.250    20990280.520    85951695.820        1426.512          47.250  
G31  21716979.480   114123509.082       -1302.523          50.250    21716982.240    88927424.500       -1013.883          46.000  
G16  23504157.900   123515175.813        3318.523          43.500                                                                  
R22  19657813.580   104934777.605       -1949.395          57.500    19657820.100    81615947.113       -1515.488          54.500  
R23  19909863.660   106504376.246        1971.934          52.000                                                                  
R12  19692442.760   105193526.289       -2075.281          56.000                                                                  
R21  23451596.040   125494239.648       -4033.578          43.750    23451608.400    97606637.227       -3136.449          38.750  
R13  19624546.040   104794037.582        1670.168          44.250    19624553.020    81506460.113        1299.988          44.250  
C28  21552162.980   112227765.434         512.832          52.250                                                                  
C27  24039988.620   125182513.012        2634.832          47.500                                                                  
C37  22220405.900   115707489.820        -647.992          51.750                                                                  
C23  24443268.440   127282523.398       -3140.012          48.750                                                                  
C08  38325022.700   199568441.203          88.758          44.750    38325025.640   154318982.301          69.762          46.000  
C13  37948076.100   197605588.133         515.000          47.250    37948086.180   152801206.027         399.898          46.500  
E15  26048898.640   136887886.793       -2424.336          45.750    26048906.900   104888138.133       -1858.039          47.500  
E13  23472574.620   123349211.551         173.711          51.250    23472580.300    94514346.457         132.840          52.750  
E21  23418549.660   123065315.117        -198.734          51.500    23418554.320    94296798.539        -152.199          52.250  
E26  25302181.000   132963874.988        2708.715          47.250    25302188.200   101881420.016        2075.164          51.250  
E27  25968642.900   136466147.008       -2370.406          46.500    25968651.940   104564986.926       -1814.977          48.000  
> 2024 04 10 11 07 42.0000000  0 25       0.000000000000
G05  23269239.040   122280686.461         426.703          46.000    23269248.180    95283679.824         332.227          43.750  
G18  21036403.620   110547044.965        1777.289          52.250    21036406.800    86140570.750        1385.402          52.750  
G20  24442184.460   128444552.207       -1710.555          35.250                                                                  
G25  23166336.300   121739917.148       -3370.973          45.750    23166345.460    94862315.426       -2626.887          44.250  
G28  22380695.140   117611362.965       -2839.672          47.750    22380700.200    91645235.648       -2213.629          49.000  
G29  21224161.600   111533741.082       -1800.391          51.750    21224164.460    86909407.742       -1402.336          48.000  
G26  20989923.880   110302800.559        1830.723          51.500    20989929.960    85950259.418        1428.266          47.250  
G31  21717225.140   114124800.855       -1302.508          50.000    21717227.940    88928431.078       -1015.340          46.250  
G16  23503524.120   123511845.305        3319.383          43.750                                                                  
R22  19658176.660   104936715.188       -1948.922          57.500    19658183.080    81617454.109       -1516.230          54.250  
R23  19909492.760   106502392.836        1971.711          51.750                                                                  
R12  19692828.980   105195590.504       -2075.680          56.000                                                                  
R21  23452346.760   125498261.184       -4031.922          43.500    23452359.900    97609765.098       -3133.672          38.000  
R13  19624231.080   104792355.449        1670.566          44.000    19624238.040    81505151.805        1299.293          44.500  
C28  21552062.160   112227240.988         513.484          52.500                                                                  
C27  24039480.260   125179866.535        2635.461          47.250                                                                  
C37  22220528.280   115708126.758        -647.590          51.750                                                                  
C23  24443869.460   127285652.234       -3140.086          48.500                                                                  
C08  38325003.400   199568340.363          90.441          44.750    38325006.400   154318904.293          69.484          46.250  
C13  37947974.720   197605060.594         515.352          47.000    37947984.960   152800798.078         399.191          46.250  
E15  26049357.640   136890299.934       -2425.754          45.500    26049366.180   104889987.141       -1858.637          48.000  
E13  23472539.400   123349026.719         173.426          51.250    23472545.260    94514204.809         133.172          52.750  
E21  23418585.440   123065502.715        -199.414          51.250    23418590.180    94296942.277        -151.664          52.250  
E26  25301663.560   132961154.730        2709.375          47.250    25301670.580   101879335.645        2075.715          51.000  
E27  25969092.080   136468506.699       -2370.926          46.500    25969101.000   104566794.965       -1815.398          47.750  
> 2024 04 10 11 07 43.0000000  0 25       0.000000000000
G05  23269156.000   122280249.594         424.945          46.000    23269165.400    95283339.414         331.270          44.250  
G18  21036063.240   110545256.727        1777.152          52.000    21036066.580    86139177.328        1384.805          52.750  
G20  24442507.540   128446252.059       -1710.434          34.750                                                                  
G25  23166975.540   121743277.051       -3372.230          46.000    23166984.920    94864933.523       -2626.617          44.250  
G28  22381233.400   117614192.809       -2840.203          47.500    22381238.820    91647440.727       -2214.859          49.000  
G29  21224501.880   111535530.055       -1800.074          51.750    21224504.900    86910801.746       -1403.031          48.000  
G26  20989573.360   110300957.363        1832.344          51.500    20989579.320    85948823.168        1427.785          47.250  
G31  21717471.160   114126092.988       -1302.750          50.000    21717473.380    88929437.922       -1014.418          46.000  
G16  23502890.180   123508514.703        3319.066          43.750                                                                  
R22  19658539.580   104938653.059       -1948.684          57.500    19658546.280    81618961.355       -1515.180          54.500  
R23  19909121.800   106500409.813        1971.578          52.000                                                                  
R12  19693215.460   105197655.164       -2075.992          56.000                                                                  
R21  23453099.520   125502282.500       -4032.523          43.500    23453111.420    97612892.801       -3137.246          38.000  
R13  19623916.120   104790673.805        1671.355          44.250    19623922.820    81503843.859        1299.855          44.500  
C28  21551961.660   112226716.695         513.527          52.500                                                                  
C27  24038972.200   125177220.035        2634.867          47.000                                                                  
C37  22220650.460   115708763.988        -648.270          51.750                                                                  
C23  24444470.220   127288781.051       -3138.742          48.500                                                                  
C08  38324984.240   199568239.488          90.504          44.750    38324987.140   154318826.301          70.898          46.500  
C13  37947873.340   197604532.996         517.465          47.000    37947883.380   152800390.113         399.395          46.000  
E15  26049816.660   136892713.063       -2423.289          45.500    26049825.400   104891836.168       -1857.875          47.750  
E13  23472504.340   123348842.086         173.699          51.750    23472510.180    94514063.340         133.648          52.750  
E21  23418621.140   123065690.395        -198.234          51.250    23418625.920    94297086.090        -151.855          52.250  
E26  25301145.760   132958434.480        2708.945          47.250    25301152.900   101877251.301        2076.367          51.250  
E27  25969541.260   136470866.344       -2369.406          47.250    25969550.040   104568602.984       -1815.887          47.500  
> 2024 04 10 11 07 44.0000000  0 25       0.000000000000
G05  23269073.220   122279814.316         424.680          45.500    23269082.520    95283000.230         331.004          44.000  
G18  21035723.240   110543469.969        1776.480          51.750    21035726.600    86137785.051        1384.367          52.500  
G20  24442830.580   128447953.320       -1710.828          33.250                                                                  
G25  23167614.840   121746638.039       -3369.777          45.000    23167624.420    94867552.500       -2626.355          44.250  
G28  22381771.920   117617023.969       -2841.008          47.500    22381777.560    91649646.816       -2214.031          48.750  
G29  21224842.560   111537320.238       -1800.340          51.500    21224845.720    86912196.707       -1402.758          48.000  
G26  20989222.940   110299115.523        1831.957          51.250    20989228.820    85947387.977        1427.965          47.000  
G31  21717717.420   114127386.672       -1302.719          49.750    21717719.320    88930445.992       -1018.156          46.000  
G16  23502256.480   123505185.141        3320.656          43.250                                                                  
R22  19658903.000   104940592.449       -1949.430          57.500    19658909.280    81620469.766       -1515.891          54.250  
R23  19908751.640   106498428.387        1970.625          51.750                                                                  
R12  19693602.200   105199721.512       -2076.223          56.000                                                                  
R21  23453850.260   125506304.746       -4031.973          43.250    23453864.100    97616021.203       -3134.824          37.500  
R13  19623601.960   104788993.813        1669.648          44.250    19623608.720    81502537.172        1299.211          44.500  
C28  21551861.240   112226193.711         512.906          52.000                                                                  
C27  24038464.340   125174574.660        2634.031          46.750                                                                  
C37  22220773.260   115709402.656        -647.270          51.500                                                                  
C23  24445071.280   127291911.012       -3141.305          48.500                                                                  
C08  38324965.180   199568139.746          90.270          44.250    38324968.060   154318749.172          70.766          46.750  
C13  37947772.320   197604006.559         518.590          46.250    37947782.400   152799983.023         400.324          46.500  
E15  26050276.300   136895127.359       -2426.469          46.000    26050284.920   104893686.063       -1857.168          48.000  
E13  23472469.540   123348658.816         172.535          51.750    23472475.300    94513922.918         132.859          52.750  
E21  23418656.900   123065879.320        -199.289          51.500    23418661.820    94297230.848        -152.180          52.000  
E26  25300628.220   132955715.391        2709.715          47.500    25300635.420   101875167.840        2075.840          51.000  
E27  25969990.600   136473227.082       -2370.512          47.000    25969999.320   104570411.887       -1814.773          47.750  
> 2024 04 10 11 07 45.0000000  0 25       0.000000000000
G05  23268990.560   122279379.613         425.293          45.750    23268999.960    95282661.512         330.039          44.250  
G18  21035383.180   110541683.719        1776.441          52.000    21035386.660    86136393.168        1384.289          52.500  
G20  24443153.920   128449655.109       -1712.445          34.000                                                                  
G25  23168254.640   121749999.211       -3372.578          45.500    23168264.040    94870171.578       -2625.480          43.500  
G28  22382310.400   117619855.469       -2842.629          47.250    22382316.160    91651853.168       -2213.996          48.750  
G29  21225183.360   111539110.660       -1800.840          51.750    21225186.560    86913591.840       -1401.188          48.000  
G26  20988872.540   110297274.047        1831.414          51.750    20988878.540    85945953.074        1427.680          47.250  
G31  21717963.480   114128680.910       -1304.605          50.000    21717965.520    88931454.480       -1016.391          46.000  
G16  23501622.900   123501855.668        3319.695          43.500                                                                  
R22  19659266.580   104942532.355       -1949.820          57.500    19659272.620    81621978.574       -1516.840          54.250  
R23  19908381.260   106496447.531        1969.930          51.750                                                                  
R12  19693989.060   105201788.520       -2077.449          56.000                                                                  
R21  23454601.940   125510326.973       -4034.125          42.250    23454613.960    97619149.590       -3136.852          37.750  
R13  19623287.640   104787314.441        1667.566          44.250    19623294.620    81501231.020        1296.805          44.500  
C28  21551760.780   112225671.074         512.816          52.500                                                                  
C27  24037956.260   125171929.469        2635.316          46.750                                                                  
C37  22220896.160   115710041.809        -648.922          52.000                                                                  
C23  24445672.500   127295041.137       -3139.680          48.750                                                                  
C08  38324945.920   199568040.184          90.547          44.750    38324948.960   154318672.199          70.723          47.000  
C13  37947670.920   197603480.242         517.457          47.000    37947681.340   152799576.070         399.172          46.500  
E15  26050735.680   136897541.816       -2423.898          46.000    26050744.220   104895536.121       -1857.691          47.750  
E13  23472434.780   123348475.977         172.844          51.750    23472440.480    94513782.832         132.453          53.000  
E21  23418693.020   123066068.512        -198.816          51.250    23418697.720    94297375.828        -152.594          52.250  
E26  25300110.860   132952996.488        2710.363          47.250    25300118.000   101873084.543        2075.375          51.250  
E27  25970439.780   136475587.984       -2370.352          47.000    25970448.520   104572220.891       -1815.207          47.500  
> 2024 04 10 11 07 46.0000000  0 25       0.000000000000
G05  23268907.840   122278944.875         423.445          46.750    23268917.560    95282322.742         331.973          44.250  
G18  21035043.360   110539897.316        1776.309          52.250    21035046.600    86135001.176        1384.383          52.750  
G20  24443475.980   128451356.723       -1710.391          35.000                                                                  
G25  23168894.100   121753359.891       -3371.055          45.750    23168903.580    94872790.273       -2625.012          44.250  
G28  22382848.900   117622686.656       -2842.738          47.500    22382854.880    91654059.305       -2212.895          49.000  
G29  21225523.760   111540900.672       -1799.531          51.750    21225527.180    86914986.652       -1403.254          48.250  
G26  20988522.160   110295432.301        1831.051          51.750    20988527.860    85944517.953        1427.125          47.500  
G31  21718209.640   114129975.070       -1304.324          50.500    21718211.860    88932462.930       -1015.492          46.500  
G16  23500989.280   123498525.672        3319.840          44.000                                                                  
R22  19659629.840   104944472.094       -1949.863          57.750    19659635.840    81623487.258       -1517.199          54.250  
R23  19908010.680   106494466.609        1970.570          52.000                                                                  
R12  19694376.160   105203855.516       -2077.313          56.250                                                                  
R21  23455353.260   125514348.574       -4031.469          42.750    23455365.160    97622277.488       -3133.832          36.750  
R13  19622973.240   104785635.098        1668.277          44.500    19622979.160    81499924.871        1297.578          44.250  
C28  21551660.480   112225148.145         512.906          52.500                                                                  
C27  24037448.100   125169283.820        2636.000          46.250                                                                  
C37  22221018.860   115710680.781        -649.957          52.000                                                                  
C23  24446273.520   127298170.781       -3138.895          48.750                                                                  
C08  38324926.900   199567940.109          89.461          44.750    38324929.620   154318594.816          70.219          46.750  
C13  37947569.660   197602953.438         517.602          47.000    37947579.920   152799168.707         400.719          46.250  
E15  26051195.320   136899955.816       -2423.617          46.000    26051203.480   104897385.820       -1857.367          47.500  
E13  23472399.660   123348292.871         172.828          51.500    23472405.620    94513642.539         132.910          53.000  
E21  23418728.900   123066257.336        -197.902          51.250    23418733.620    94297520.512        -153.301          52.000  
E26  25299593.540   132950277.129        2709.422          47.000    25299600.460   101871000.898        2076.488          51.000  
E27  25970889.000   136477948.367       -2369.957          47.000    25970897.640   104574029.492       -1816.742          47.750  
> 2024 04 10 11 07 47.0000000  0 25       0.000000000000
G05  23268825.360   122278511.422         423.809          46.750    23268835.120    95281985.012         331.027          44.000  
G18  21034703.700   110538112.109        1775.898          52.500    21034706.860    86133610.098        1384.273          52.500  
G20  24443801.580   128453059.508       -1713.211          35.250                                                                  
G25  23169534.060   121756721.363       -3368.934          45.750    23169543.160    94875409.621       -2625.238          44.250  
G28  22383387.620   117625518.871       -2842.895          47.250    22383393.820    91656266.223       -2213.391          49.000  
G29  21225864.580   111542691.602       -1799.789          51.750    21225867.780    86916382.180       -1403.750          48.250  
G26  20988171.960   110293591.617        1831.164          51.750    20988177.800    85943083.645        1427.074          47.500  
G31  21718455.880   114131270.469       -1303.262          50.250    21718458.640    88933472.336       -1016.801          46.250  
G16  23500355.920   123495196.410        3319.699          43.750                                                                  
R22  19659993.560   104946413.047       -1950.336          57.500    19659998.980    81624996.891       -1516.641          54.000  
R23  19907640.400   106492486.965        1970.316          52.000                                                                  
R12  19694763.440   105205923.859       -2077.656          56.250                                                                  
R21  23456104.500   125518370.789       -4031.152          43.000    23456117.160    97625405.891       -3137.191          37.250  
R13  19622659.120   104783957.102        1669.852          44.500    19622664.620    81498619.758        1297.664          44.000  
C28  21551560.280   112224626.230         513.168          52.500                                                                  
C27  24036940.120   125166638.996        2635.457          46.500                                                                  
C37  22221141.820   115711320.922        -649.387          52.000                                                                  
C23  24446874.620   127301301.254       -3139.707          48.500                                                                  
C08  38324907.860   199567840.895          91.457          45.000    38324910.500   154318518.109          70.531          46.500  
C13  37947468.780   197602427.473         516.254          47.000    37947478.940   152798762.004         399.902          46.000  
E15  26051654.860   136902370.688       -2424.262          46.000    26051663.040   104899236.160       -1857.855          47.750  
E13  23472365.120   123348110.863         172.457          51.500    23472370.960    94513503.074         132.039          53.000  
E21  23418765.040   123066447.105        -199.168          51.250    23418769.760    94297665.922        -153.172          52.250  
E26  25299075.940   132947558.637        2711.500          46.750    25299083.120   101868917.906        2075.344          51.000  
E27  25971338.360   136480309.574       -2368.539          46.750    25971347.020   104575838.727       -1816.102          47.750  
> 2024 04 10 11 07 48.0000000  0 25       0.000000000000
G05  23268744.780   122278087.848         425.328          46.500    23268754.840    95281654.957         330.832          44.250  
G18  21034365.840   110536336.656        1775.242          52.500    21034369.020    86132226.625        1383.410          52.500  
G20  24444127.480   128454771.977       -1713.113          35.000                                                                  
G25  23170175.260   121760092.289       -3370.090          46.000    23170184.720    94878036.320       -2626.754          44.000  
G28  22383928.620   117628360.691       -2842.102          47.500    22383934.740    91658480.602       -2213.648          49.000  
G29  21226207.140   111544492.016       -1801.152          51.750    21226210.520    86917785.105       -1402.387          48.000  
G26  20987823.560   110291760.555        1830.305          51.750    20987829.340    85941656.848        1427.758          47.250  
G31  21718704.220   114132575.695       -1306.188          50.250    21718707.000    88934489.391       -1017.348          46.000  
G16  23499723.940   123491876.477        3319.508          44.000                                                                  
R22  19660359.060   104948363.906       -1950.676          58.000    19660364.480    81626514.230       -1516.867          53.750  
R23  19907272.640   106490517.320        1969.414          52.250                                                                  
R12  19695152.340   105208002.297       -2078.477          56.250                                                                  
R21  23456859.140   125522402.406       -4031.973          43.000    23456869.280    97628541.543       -3138.090          37.500  
R13  19622346.840   104782289.156        1667.699          44.500    19622351.820    81497322.469        1296.891          44.250  
C28  21551461.980   112224113.836         511.879          52.750                                                                  
C27  24036434.100   125164003.551        2635.102          47.000                                                                  
C37  22221266.760   115711970.703        -649.492          52.500                                                                  
C23  24447477.580   127304441.086       -3139.469          48.750                                                                  
C08  38324890.720   199567751.047          89.586          45.000    38324893.140   154318448.637          69.895          46.250  
C13  37947369.540   197601910.852         516.332          47.000    37947379.320   152798362.535         400.180          45.750  
E15  26052116.300   136904794.977       -2424.602          45.750    26052124.340   104901093.727       -1855.949          47.750  
E13  23472332.300   123347938.508         172.453          51.500    23472338.200    94513371.012         131.465          53.000  
E21  23418803.000   123066646.410        -199.051          51.000    23418807.720    94297818.625        -152.070          52.250  
E26  25298560.700   132944849.605        2709.285          47.000    25298567.620   101866842.148        2075.535          51.000  
E27  25971789.540   136482680.168       -2370.531          46.750    25971798.140   104577655.152       -1816.859          48.000  
> 2024 04 10 11 07 49.0000000  0 25       0.000000000000
G05  23268662.720   122277655.789         421.836          46.250    23268672.780    95281318.289         329.898          44.000  
G18  21034026.300   110534552.621        1774.785          52.000    21034029.480    86130836.469        1382.016          52.500  
G20  24444452.480   128456475.910       -1713.250          35.500                                                                  
G25  23170815.260   121763454.254       -3371.668          46.000    23170824.340    94880656.020       -2628.742          44.000  
G28  22384467.660   117631193.754       -2844.313          47.250    22384473.780    91660688.188       -2214.719          48.750  
G29  21226548.140   111546283.586       -1801.695          51.750    21226551.500    86919181.137       -1404.684          48.000  
G26  20987473.400   110289920.793        1830.113          51.500    20987479.220    85940223.254        1424.879          47.250  
G31  21718950.840   114133872.371       -1306.609          50.000    21718953.820    88935499.789       -1018.949          46.250  
G16  23499090.220   123488547.563        3318.992          43.500                                                                  
R22  19660722.960   104950306.055       -1951.297          57.500    19660728.060    81628024.789       -1518.434          53.750  
R23  19906902.960   106488539.004        1968.551          52.000                                                                  
R12  19695539.980   105210072.176       -2079.910          56.250                                                                  
R21  23457611.280   125526424.703       -4032.930          42.500    23457622.020    97631670.020       -3138.309          37.250  
R13  19622033.340   104780612.637        1665.730          44.250    19622038.680    81496018.520        1296.211          44.250  
C28  21551362.020   112223592.789         511.371          52.500                                                                  
C27  24035926.280   125161359.246        2632.660          47.000                                                                  
C37  22221389.840   115712611.961        -650.359          52.000                                                                  
C23  24448078.800   127307572.082       -3139.711          48.500                                                                  
C08  38324871.480   199567652.359          89.742          44.500    38324874.480   154318372.328          68.754          46.500  
C13  37947268.720   197601385.406         516.387          46.750    37947278.600   152797956.211         398.957          46.000  
E15  26052575.820   136907210.359       -2425.520          46.000    26052584.060   104902944.480       -1857.914          48.000  
E13  23472297.780   123347757.480         170.641          51.250    23472303.760    94513232.309         130.270          53.000  
E21  23418839.360   123066836.887        -200.113          51.000    23418843.900    94297964.586        -152.512          52.250  
E26  25298043.580   132942131.691        2708.535          47.250    25298050.420   101864759.586        2075.684          51.000  
E27  25972238.880   136485041.824       -2369.754          46.500    25972247.560   104579464.730       -1818.105          47.750  
> 2024 04 10 11 07 50.0000000  0 25       0.000000000000
G05  23268580.520   122277224.344         421.629          46.000    23268590.880    95280982.105         327.559          43.750  
G18  21033686.960   110532769.094        1773.422          52.000    21033690.000    86129446.715        1381.676          52.500  
G20  24444776.180   128458180.223       -1714.926          34.500                                                                  
G25  23171455.200   121766816.398       -3372.352          46.000    23171464.240    94883275.855       -2626.070          44.000  
G28  22385006.960   117634027.152       -2844.980          47.250    22385012.900    91662896.035       -2215.738          48.500  
G29  21226889.100   111548075.402       -1801.414          51.500    21226892.500    86920577.352       -1401.129          48.250  
G26  20987123.280   110288081.398        1829.289          51.250    20987129.020    85938789.984        1426.098          47.250  
G31  21719197.680   114135169.633       -1308.379          49.750    21719200.660    88936510.633       -1018.301          46.250  
G16  23498456.820   123485218.742        3318.789          43.000                                                                  
R22  19661086.580   104952248.719       -1952.848          57.500    19661091.760    81629535.746       -1518.789          53.500  
R23  19906533.160   106486561.270        1967.332          52.250                                                                  
R12  19695927.360   105212142.723       -2080.879          56.000                                                                  
R21  23458363.780   125530446.973       -4032.578          42.750    23458374.620    97634798.418       -3138.027          36.750  
R13  19621718.580   104778936.801        1665.156          44.250    19621724.800    81494715.078        1295.031          44.250  
C28  21551262.020   112223072.094         510.496          52.250                                                                  
C27  24035418.560   125158715.125        2634.656          47.000                                                                  
C37  22221513.040   115713253.699        -651.379          51.750                                                                  
C23  24448680.240   127310703.234       -3140.641          48.750                                                                  
C08  38324852.520   199567553.898          87.082          44.500    38324855.400   154318296.168          68.500          46.750  
C13  37947167.480   197600860.086         514.688          46.750    37947177.520   152797549.996         398.438          46.250  
E15  26053035.540   136909625.949       -2425.871          46.000    26053043.760   104904795.371       -1859.203          47.750  
E13  23472263.420   123347576.855         171.238          51.500    23472269.440    94513093.906         131.156          53.000  
E21  23418875.580   123067027.652        -200.750          51.250    23418880.240    94298110.754        -154.203          52.000  
E26  25297526.460   132939413.961        2707.008          47.250    25297533.220   101862677.184        2074.680          50.750  
E27  25972688.240   136487403.641       -2371.113          46.750    25972696.900   104581274.434       -1816.773          47.500  
> 2024 04 10 11 07 51.0000000  0 25       0.000000000000
G05  23268498.580   122276794.020         420.465          46.000    23268509.040    95280646.801         326.629          43.750  
G18  21033347.920   110530986.582        1773.164          52.000    21033350.640    86128057.746        1381.484          52.500  
G20  24445099.880   128459885.617       -1718.055          34.500                                                                  
G25  23172095.240   121770179.203       -3370.070          46.000    23172104.140    94885896.215       -2628.094          44.000  
G28  22385546.440   117636861.414       -2842.348          47.250    22385552.160    91665104.547       -2215.953          48.750  
G29  21227230.180   111549867.957       -1802.777          51.250    21227233.680    86921974.148       -1404.359          48.000  
G26  20986773.520   110286242.891        1829.414          51.250    20986779.120    85937357.371        1425.555          47.250  
G31  21719444.920   114136467.961       -1309.488          50.000    21719447.860    88937522.309       -1018.648          46.250  
G16  23497823.620   123481890.527        3317.918          42.750                                                                  
R22  19661450.600   104954192.410       -1953.281          57.250    19661455.840    81631047.500       -1518.902          53.500  
R23  19906163.880   106484584.637        1965.984          52.250                                                                  
R12  19696315.020   105214214.418       -2081.742          56.000                                                                  
R21  23459116.680   125534469.754       -4032.785          42.250    23459124.320    97637927.305       -3135.496          35.500  
R13  19621405.240   104777262.133        1665.273          44.750    19621410.800    81493412.555        1295.039          44.000  
C28  21551162.120   112222552.242         510.223          52.250                                                                  
C27  24034910.820   125156071.691        2633.602          46.500                                                                  
C37  22221636.460   115713896.422        -652.742          51.750                                                                  
C23  24449281.620   127313835.059       -3141.734          48.500                                                                  
C08  38324833.660   199567456.043          87.594          44.500    38324836.720   154318220.520          67.523          46.750  
C13  37947066.760   197600335.406         516.023          46.750    37947076.840   152797144.285         398.484          46.250  
E15  26053495.360   136912042.195       -2425.117          46.000    26053503.560   104906646.801       -1858.441          48.000  
E13  23472229.140   123347397.145         169.488          51.500    23472235.240    94512956.207         129.676          53.000  
E21  23418911.900   123067219.195        -202.063          51.250    23418916.740    94298257.520        -153.559          52.250  
E26  25297009.380   132936696.938        2707.590          47.000    25297016.120   101860595.313        2074.363          50.500  
E27  25973137.860   136489766.090       -2371.820          46.750    25973146.520   104583084.609       -1817.281          47.750  
> 2024 04 10 11 07 52.0000000  0 25       0.000000000000
G05  23268416.920   122276364.988         419.230          46.000    23268427.180    95280312.477         326.988          44.250  
G18  21033008.900   110529205.254        1772.520          52.500    21033011.620    86126669.699        1381.570          52.500  
G20  24445425.320   128461592.168       -1717.098          36.000                                                                  
G25  23172734.960   121773542.824       -3372.551          46.250    23172744.100    94888517.219       -2628.195          44.000  
G28  22386086.100   117639696.684       -2844.184          47.500    22386091.580    91667313.848       -2218.531          48.750  
G29  21227571.280   111551661.426       -1802.992          51.500    21227574.960    86923371.645       -1405.215          47.500  
G26  20986423.820   110284405.434        1828.250          51.500    20986429.440    85935925.586        1424.848          47.250  
G31  21719692.300   114137767.516       -1309.305          50.250    21719694.960    88938534.965       -1018.531          46.000  
G16  23497190.480   123478563.059        3319.902          43.500                                                                  
R22  19661814.800   104956137.297       -1954.348          57.750    19661820.380    81632560.203       -1520.348          53.500  
R23  19905794.560   106482609.266        1966.086          52.500                                                                  
R12  19696703.160   105216287.457       -2082.254          56.250                                                                  
R21  23459868.300   125538493.203       -4031.102          42.500    23459876.680    97641056.625       -3136.836          36.750  
R13  19621090.700   104775588.813        1663.012          44.500    19621097.380    81492111.078        1294.066          44.500  
C28  21551062.600   112222033.410         509.344          52.250                                                                  
C27  24034403.520   125153429.082        2633.832          46.750                                                                  
C37  22221760.180   115714540.281        -652.898          51.750                                                                  
C23  24449883.320   127316967.719       -3142.578          48.250                                                                  
C08  38324815.040   199567359.039          87.711          44.500    38324818.080   154318145.504          69.934          46.250  
C13  37946966.400   197599811.566         513.359          46.750    37946976.620   152796739.219         398.660          46.500  
E15  26053955.120   136914459.313       -2425.859          45.750    26053963.460   104908498.871       -1859.488          47.750  
E13  23472195.140   123347218.512         169.289          51.500    23472201.220    94512819.324         129.211          53.000  
E21  23418948.600   123067411.684        -199.813          51.000    23418953.320    94298405.008        -154.727          52.250  
E26  25296492.220   132933980.758        2707.781          47.000    25296499.240   101858514.105        2074.402          51.000  
E27  25973587.580   136492129.352       -2373.020          47.000    25973596.260   104584895.418       -1818.512          48.250  
> 2024 04 10 11 07 53.0000000  0 25       0.000000000000
G05  23268335.340   122275936.383         419.566          46.250    23268345.460    95279978.516         327.875          44.250  
G18  21032670.020   110527424.258        1771.531          52.500    21032672.600    86125281.906        1380.246          52.250  
G20  24445750.380   128463298.992       -1715.535          35.750                                                                  
G25  23173375.060   121776906.441       -3372.156          46.500    23173384.340    94891138.207       -2628.965          43.500  
G28  22386625.860   117642532.129       -2846.496          47.500    22386631.100    91669523.277       -2217.180          49.000  
G29  21227912.520   111553454.961       -1803.469          51.750    21227915.920    86924769.203       -1405.160          47.500  
G26  20986074.220   110282568.176        1827.449          51.750    20986079.740    85934493.961        1425.137          47.250  
G31  21719939.780   114139067.477       -1309.766          50.250    21719942.380    88939547.934       -1020.902          46.250  
G16  23496556.980   123475235.500        3319.922          43.250                                                                  
R22  19662179.040   104958082.531       -1955.176          57.500    19662184.620    81634073.156       -1520.348          53.500  
R23  19905425.440   106480634.305        1965.316          52.750                                                                  
R12  19697091.380   105218361.008       -2083.652          56.250                                                                  
R21  23460621.200   125542516.438       -4033.105          41.750    23460627.640    97644185.789       -3136.113          37.000  
R13  19620777.400   104773915.969        1665.266          44.500    19620784.380    81490810.004        1294.539          44.250  
C28  21550962.960   112221514.750         508.961          52.750                                                                  
C27  24033895.980   125150786.523        2632.246          46.750                                                                  
C37  22221883.940   115715184.465        -653.473          52.000                                                                  
C23  24450484.860   127320100.383       -3142.340          48.500                                                                  
C08  38324796.840   199567262.008          86.520          45.000    38324799.360   154318070.469          68.176          46.250  
C13  37946865.660   197599287.719         514.715          47.000    37946876.080   152796334.156         398.082          46.500  
E15  26054415.040   136916876.445       -2426.875          45.250    26054423.460   104910350.953       -1858.191          48.000  
E13  23472161.260   123347040.125         168.816          51.250    23472167.280    94512682.641         129.684          53.000  
E21  23418985.240   123067604.277        -202.242          50.750    23418989.880    94298552.578        -154.098          52.250  
E26  25295975.620   132931264.621        2705.352          47.000    25295982.340   101856432.906        2074.586          51.000  
E27  25974037.280   136494492.582       -2372.750          46.750    25974046.020   104586706.207       -1817.605          48.000  
> 2024 04 10 11 07 54.0000000  0 25       0.000000000000
G05  23268253.860   122275507.961         419.301          46.500    23268263.800    95279644.676         326.598          44.500  
G18  21032331.000   110525643.336        1771.559          52.500    21032333.860    86123894.180        1380.402          52.250  
G20  24446075.740   128465005.863       -1717.906          35.500                                                                  
G25  23174014.960   121780269.793       -3372.340          46.500    23174024.260    94893758.988       -2627.328          43.750  
G28  22387165.460   117645367.484       -2844.402          47.500    22387170.720    91671732.637       -2216.891          49.000  
G29  21228253.880   111555248.309       -1803.840          52.000    21228257.220    86926166.613       -1405.609          47.250  
G26  20985724.600   110280730.875        1828.059          51.750    20985730.140    85933062.289        1422.809          47.250  
G31  21720187.360   114140367.578       -1310.117          50.750    21720189.700    88940560.973       -1023.012          46.250  
G16  23495923.560   123471907.605        3318.297          43.500                                                                  
R22  19662543.480   104960027.848       -1955.289          57.750    19662548.880    81635586.172       -1520.465          53.250  
R23  19905056.300   106478659.500        1964.996          52.500                                                                  
R12  19697479.420   105220434.801       -2083.691          56.250                                                                  
R21  23461371.920   125546539.156       -4033.129          41.750    23461380.700    97647314.555       -3134.199          35.000  
R13  19620464.860   104772243.371        1661.086          44.500    19620471.940    81489509.074        1292.422          44.000  
C28  21550863.340   112220996.020         509.039          53.000                                                                  
C27  24033388.640   125148143.676        2634.355          47.250                                                                  
C37  22222007.680   115715828.691        -653.836          52.250                                                                  
C23  24451086.320   127323232.797       -3141.754          48.750                                                                  
C08  38324778.120   199567164.746          89.488          45.250    38324780.840   154317995.242          67.395          46.000  
C13  37946764.800   197598763.605         514.066          47.250    37946775.480   152795928.863         397.078          46.500  
E15  26054875.180   136919293.328       -2427.133          45.500    26054883.600   104912202.828       -1858.457          48.000  
E13  23472127.260   123346861.695         169.277          51.250    23472133.400    94512545.910         129.227          52.750  
E21  23419021.780   123067796.699        -202.504          50.750    23419026.560    94298700.000        -154.820          52.000  
E26  25295458.820   132928548.262        2707.070          47.000    25295465.580   101854351.512        2074.199          50.750  
E27  25974486.840   136496855.531       -2374.297          46.750    25974495.720   104588516.754       -1818.152          48.000  
> 2024 04 10 11 07 55.0000000  0 25       0.000000000000
G05  23268172.660   122275080.211         417.012          46.250    23268182.080    95279311.375         325.063          44.250  
G18  21031992.080   110523863.004        1770.520          52.500    21031994.920    86122506.902        1379.602          52.500  
G20  24446401.360   128466713.297       -1715.574          34.750                                                                  
G25  23174655.140   121783633.348       -3372.984          46.750    23174664.300    94896379.945       -2629.988          43.500  
G28  22387704.920   117648203.254       -2845.938          47.250    22387710.100    91673942.336       -2217.848          49.000  
G29  21228595.120   111557041.965       -1803.383          52.000    21228598.580    86927564.277       -1405.230          47.250  
G26  20985375.160   110278894.008        1828.094          52.000    20985380.540    85931630.988        1424.070          47.500  
G31  21720435.000   114141668.309       -1310.688          50.750    21720437.300    88941574.543       -1020.789          46.250  
G16  23495290.500   123468579.895        3317.109          44.000                                                                  
R22  19662907.920   104961973.742       -1955.711          57.500    19662913.420    81637099.648       -1519.992          53.250  
R23  19904687.440   106476685.371        1964.188          52.500                                                                  
R12  19697867.940   105222509.316       -2084.453          56.250                                                                  
R21  23462123.040   125550561.941       -4031.281          41.000    23462129.940    97650443.395       -3133.496          34.750  
R13  19620151.800   104770571.523        1661.094          44.500    19620158.180    81488208.754        1293.309          44.000  
C28  21550763.860   112220477.707         509.492          53.000                                                                  
C27  24032881.160   125145501.098        2632.961          47.000                                                                  
C37  22222131.380   115716473.473        -655.008          52.250                                                                  
C23  24451687.880   127326365.438       -3141.719          49.000                                                                  
C08  38324759.360   199567067.738          86.813          45.250    38324762.300   154317920.246          68.758          46.500  
C13  37946664.380   197598239.723         512.566          47.500    37946674.940   152795523.781         398.566          46.750  
E15  26055334.920   136921710.449       -2427.707          45.750    26055343.480   104914054.922       -1860.402          47.750  
E13  23472093.200   123346683.762         168.391          51.250    23472099.600    94512409.582         128.824          52.750  
E21  23419058.420   123067989.488        -202.973          50.750    23419063.260    94298847.730        -154.793          52.250  
E26  25294941.940   132925832.156        2705.547          47.000    25294948.840   101852270.359        2073.945          51.000  
E27  25974936.240   136499218.707       -2373.563          46.500    25974945.440   104590327.500       -1818.051          48.250  
> 2024 04 10 11 07 56.0000000  0 25       0.000000000000
G05  23268091.560   122274653.121         417.031          47.000    23268100.800    95278978.582         326.781          44.500  
G18  21031653.420   110522083.215        1770.566          52.750    21031656.180    86121120.063        1379.988          52.250  
G20  24446725.140   128468421.246       -1718.328          34.500                                                                  
G25  23175295.180   121786997.117       -3372.770          47.000    23175304.740    94899001.059       -2629.613          43.500  
G28  22388244.760   117651039.398       -2845.859          47.500    22388249.900    91676152.316       -2216.441          49.000  
G29  21228936.380   111558835.902       -1802.859          52.250    21228939.800    86928962.141       -1405.047          47.250  
G26  20985025.780   110277057.578        1827.324          52.250    20985031.180    85930199.992        1422.988          47.500  
G31  21720682.900   114142969.656       -1311.051          51.000    21720684.860    88942588.570       -1020.801          46.000  
G16  23494656.780   123465252.316        3317.918          43.250                                                                  
R22  19663272.660   104963920.195       -1955.605          57.750    19663278.060    81638613.547       -1521.438          53.500  
R23  19904318.700   106474711.883        1964.188          52.500                                                                  
R12  19698256.540   105224584.523       -2084.629          56.250                                                                  
R21  23462873.760   125554584.742       -4032.027          40.750    23462882.760    97653572.281       -3137.012          35.750  
R13  19619839.080   104768900.391        1660.496          44.750    19619845.840    81486908.969        1292.324          44.000  
C28  21550664.260   112219959.785         508.367          52.750                                                                  
C27  24032373.320   125142858.723        2635.422          46.500                                                                  
C37  22222255.340   115717118.777        -653.961          52.000                                                                  
C23  24452289.740   127329498.297       -3141.016          49.000                                                                  
C08  38324741.140   199566970.945          87.328          45.000    38324743.600   154317845.410          69.559          46.000  
C13  37946563.700   197597716.031         514.824          47.000    37946574.340   152795118.828         397.313          46.500  
E15  26055795.060   136924127.820       -2425.914          46.000    26055803.460   104915907.195       -1860.508          48.000  
E13  23472059.480   123346506.258         168.117          51.500    23472065.740    94512273.582         128.832          53.000  
E21  23419095.160   123068182.590        -202.371          51.000    23419099.980    94298995.695        -155.535          52.250  
E26  25294425.100   132923116.301        2707.344          47.500    25294431.960   101850189.383        2073.207          51.000  
E27  25975386.000   136501582.066       -2372.438          47.000    25975395.200   104592138.371       -1818.340          48.500  
> 2024 04 10 11 07 57.0000000  0 25       0.000000000000
G05  23268010.640   122274226.410         417.141          47.000    23268019.600    95278646.102         325.047          44.500  
G18  21031314.680   110520303.727        1769.781          52.750    21031317.540    86119733.453        1379.328          52.250  
G20  24447048.940   128470129.492       -1716.484          34.750                                                                  
G25  23175935.460   121790360.828       -3371.891          47.000    23175944.600    94901622.113       -2626.492          43.500  
G28  22388784.560   117653875.711       -2843.578          47.750    22388789.380    91678362.406       -2217.445          48.750  
G29  21229277.720   111560629.863       -1803.016          52.250    21229281.060    86930360.043       -1405.969          47.250  
G26  20984676.200   110275221.313        1827.156          52.250    20984682.020    85928769.145        1424.117          47.500  
G31  21720930.640   114144271.352       -1310.449          51.250    21720932.420    88943602.887       -1022.285          45.750  
G16  23494023.520   123461924.613        3317.793          44.000                                                                  
R22  19663637.460   104965866.945       -1955.605          57.500    19663642.580    81640127.695       -1520.879          53.750  
R23  19903949.660   106472738.785        1963.578          52.250                                                                  
R12  19698645.140   105226660.191       -2084.848          56.000                                                                  
R21  23463625.860   125558607.352       -4030.109          40.500    23463632.780    97656700.980       -3136.488          35.500  
R13  19619526.440   104767229.707        1661.316          44.500    19619532.780    81485609.563        1291.980          44.250  
C28  21550564.800   112219442.012         508.754          52.250                                                                  
C27  24031865.900   125140216.348        2633.199          46.500                                                                  
C37  22222379.300   115717764.363        -654.707          51.750                                                                  
C23  24452891.200   127332631.117       -3143.309          48.750                                                                  
C08  38324722.400   199566874.121          88.434          44.500    38324724.920   154317770.539          66.996          46.000  
C13  37946463.140   197597192.281         514.730          46.750    37946473.620   152794713.832         398.949          46.500  
E15  26056254.820   136926545.160       -2426.766          46.000    26056263.360   104917759.441       -1857.922          47.500  
E13  23472025.720   123346328.980         167.855          51.500    23472032.000    94512137.742         129.504          52.750  
E21  23419131.960   123068375.746        -202.918          51.250    23419136.680    94299143.707        -154.844          52.250  
E26  25293908.500   132920400.430        2707.055          47.750    25293915.040   101848108.387        2074.941          51.000  
E27  25975835.540   136503945.359       -2370.449          46.750    25975844.860   104593949.199       -1816.863          48.500  
> 2024 04 10 11 07 58.0000000  0 25       0.000000000000
G05  23267929.380   122273800.313         416.754          46.750    23267938.300    95278314.090         324.238          43.750  
G18  21030975.980   110518524.742        1770.246          52.750    21030978.880    86118347.230        1379.738          52.000  
G20  24447374.080   128471838.203       -1714.203          35.000                                                                  
G25  23176575.760   121793724.695       -3373.801          47.000    23176584.740    94904243.293       -2628.773          43.750  
G28  22389324.580   117656712.320       -2845.594          48.000    22389329.260    91680572.762       -2217.148          48.750  
G29  21229619.220   111562424.074       -1802.617          52.500    21229622.460    86931758.113       -1404.492          47.250  
G26  20984326.840   110273385.418        1827.598          52.250    20984332.660    85927338.570        1424.148          47.500  
G31  21721178.820   114145573.621       -1310.605          51.250    21721180.380    88944617.617       -1022.305          46.000  
G16  23493390.420   123458597.004        3318.441          43.500                                                                  
R22  19664002.540   104967814.203       -1956.207          57.500    19664007.340    81641642.227       -1521.680          53.750  
R23  19903580.740   106470766.270        1963.770          52.250                                                                  
R12  19699033.840   105228736.520       -2085.254          56.000                                                                  
R21  23464375.200   125562629.875       -4033.617          40.000    23464384.440    97659829.566       -3136.547          36.000  
R13  19619213.360   104765559.703        1660.285          44.250    19619220.180    81484310.676        1292.734          44.500  
C28  21550465.480   112218924.570         507.988          52.500                                                                  
C27  24031358.540   125137574.113        2632.469          46.500                                                                  
C37  22222503.400   115718410.410        -654.633          52.000                                                                  
C23  24453492.940   127335764.105       -3142.051          48.750                                                                  
C08  38324703.980   199566777.453          88.961          44.750    38324706.420   154317695.801          67.391          46.250  
C13  37946362.700   197596668.695         516.375          47.250    37946373.240   152794308.965         397.891          46.500  
E15  26056715.020   136928962.672       -2427.469          46.000    26056723.480   104919611.797       -1859.223          47.250  
E13  23471992.080   123346152.098         168.691          51.250    23471998.340    94512002.203         128.379          52.750  
E21  23419168.880   123068569.184        -202.055          51.000    23419173.480    94299291.918        -154.293          52.000  
E26  25293391.580   132917684.742        2706.582          47.250    25293398.300   101846027.551        2074.039          50.750  
E27  25976285.240   136506308.770       -2373.977          46.750    25976294.680   104595760.133       -1817.238          48.500  
> 2024 04 10 11 07 59.0000000  0 25       0.000000000000
G05  23267850.340   122273383.434         416.668          47.250    23267858.580    95277989.254         326.043          43.750  
G18  21030639.100   110516754.855        1770.465          52.750    21030642.100    86116968.102        1378.711          52.000  
G20  24447701.260   128473555.934       -1717.816          35.000                                                                  
G25  23177217.540   121797097.297       -3372.051          46.750    23177226.800    94906871.309       -2626.586          44.000  
G28  22389866.420   117659557.883       -2847.238          48.000    22389870.880    91682790.078       -2217.273          48.750  
G29  21229962.380   111564227.094       -1802.469          52.500    21229965.340    86933163.074       -1405.816          47.000  
G26  20983979.040   110271558.492        1827.281          52.250    20983985.040    85925915.000        1425.535          47.500  
G31  21721428.460   114146885.035       -1310.648          51.500    21721429.880    88945639.523       -1021.441          46.000  
G16  23492758.760   123455278.070        3318.551          43.250                                                                  
R22  19664369.080   104969770.699       -1956.359          57.750    19664374.080    81643163.957       -1521.043          53.750  
R23  19903213.680   106468803.082        1963.949          52.250                                                                  
R12  19699424.460   105230822.273       -2085.063          56.000                                                                  
R21  23465128.440   125566661.129       -4031.629          39.750    23465136.680    97662965.023       -3133.629          35.250  
R13  19618901.500   104763899.090        1661.996          44.250    19618909.360    81483019.074        1291.875          44.500  
C28  21550367.800   112218415.996         508.715          52.500                                                                  
C27  24030852.860   125134940.598        2633.766          46.500                                                                  
C37  22222629.180   115719065.461        -654.094          51.750                                                                  
C23  24454096.080   127338905.770       -3140.137          48.500                                                                  
C08  38324687.060   199566689.457          88.172          45.000    38324689.520   154317627.754          68.625          46.250  
C13  37946263.660   197596153.746         515.996          47.000    37946274.200   152793910.762         399.668          46.500  
E15  26057176.580   136931388.953       -2425.813          45.750    26057185.140   104921470.906       -1858.090          47.250  
E13  23471960.040   123345984.203         167.641          51.250    23471966.440    94511873.559         128.387          52.750  
E21  23419207.080   123068771.484        -201.633          51.000    23419211.940    94299446.938        -154.352          52.000  
E26  25292876.580   132914977.852        2706.633          47.250    25292883.280   101843953.445        2074.977          50.750  
E27  25976736.360   136508680.918       -2372.320          46.500    25976746.160   104597577.754       -1818.809          48.500  
> 2024 04 10 11 08 00.0000000  0 25       0.000000000000
G05  23267769.340   122272957.227         416.891          46.750    23267777.360    95277657.148         326.309          43.500  
G18  21030300.440   110514975.543        1769.949          52.250    21030303.520    86115581.625        1379.188          52.250  
G20  24448025.520   128475264.277       -1716.137          34.250                                                                  
G25  23177857.340   121800460.133       -3372.105          46.750    23177866.440    94909491.672       -2627.723          44.250  
G28  22390406.260   117662393.855       -2845.297          47.250    22390410.440    91684999.914       -2216.539          48.750  
G29  21230303.700   111566020.438       -1802.066          52.000    21230306.420    86934560.469       -1404.422          47.000  
G26  20983629.640   110269722.016        1826.391          52.000    20983635.600    85924483.973        1424.289          47.500  
G31  21721676.160   114148187.082       -1311.645          51.000    21721677.880    88946654.094       -1021.805          46.250  
G16  23492125.060   123451949.297        3320.426          42.750                                                                  
R22  19664734.100   104971717.633       -1956.457          57.750    19664738.780    81644678.227       -1521.844          54.000  
R23  19902844.960   106466830.371        1963.602          52.500                                                                  
R12  19699813.180   105232898.602       -2085.898          56.250                                                                  
R21  23465881.240   125570682.219       -4032.109          40.000    23465883.820    97666092.492       -3138.699          33.750  
R13  19618589.580   104762229.051        1660.215          44.250    19618596.320    81481720.156        1290.906          45.000  
C28  21550268.260   112217897.938         509.059          52.500                                                                  
C27  24030345.340   125132297.398        2634.867          46.250                                                                  
C37  22222753.280   115719711.145        -654.289          52.000                                                                  
C23  24454697.620   127342037.773       -3140.766          48.500                                                                  
C08  38324668.380   199566591.816          90.438          45.000    38324671.120   154317552.246          67.445          46.750  
C13  37946162.980   197595629.133         516.875          46.750    37946173.380   152793505.117         398.566          46.500  
E15  26057636.480   136933805.492       -2425.262          45.750    26057645.100   104923322.547       -1858.270          48.000  
E13  23471926.280   123345806.793         168.461          51.500    23471932.660    94511737.625         128.781          52.750  
E21  23419243.700   123068964.129        -201.395          51.000    23419248.620    94299594.531        -154.703          52.250  
E26  25292359.560   132912261.211        2706.051          47.500    25292366.320   101841871.871        2073.543          51.000  
E27  25977185.960   136511043.301       -2371.645          46.750    25977195.640   104599387.863       -1817.250          48.750  
> 2024 04 10 11 08 01.0000000  0 25       0.000000000000
G05  23267688.340   122272531.844         415.988          46.500    23267696.060    95277325.680         325.758          43.750  
G18  21029961.900   110513196.957        1770.988          52.000    21029964.980    86114195.719        1379.379          52.250  
G20  24448351.660   128476973.320       -1716.914          35.000                                                                  
G25  23178497.380   121803823.332       -3373.098          46.750    23178506.660    94912112.328       -2628.004          44.500  
G28  22390945.900   117665230.391       -2844.660          47.000    22390949.920    91687210.184       -2216.816          48.750  
G29  21230645.300   111567814.230       -1801.418          52.250    21230647.640    86935958.238       -1404.129          47.000  
G26  20983280.300   110267886.129        1827.781          51.750    20983286.280    85923053.410        1423.273          47.500  
G31  21721924.040   114149489.930       -1310.242          50.500    21721925.640    88947669.297       -1020.637          46.000  
G16  23491491.660   123448620.824        3320.582          42.750                                                                  
R22  19665098.840   104973665.293       -1955.551          58.000    19665103.860    81646193.078       -1521.832          54.250  
R23  19902476.440   106464858.480        1963.691          52.750                                                                  
R12  19700202.200   105234975.816       -2085.418          56.750                                                                  
R21  23466631.520   125574703.523       -4028.855          39.750    23466640.780    97669220.199       -3134.906          34.250  
R13  19618277.580   104760559.879        1659.867          44.500    19618283.980    81480421.926        1292.059          45.000  
C28  21550168.820   112217380.438         509.645          52.250                                                                  
C27  24029837.780   125129654.609        2635.375          46.000                                                                  
C37  22222877.420   115720357.527        -653.828          51.750                                                                  
C23  24455299.260   127345170.160       -3140.238          48.500                                                                  
C08  38324649.620   199566494.539          87.590          45.000    38324652.260   154317477.027          67.598          46.500  
C13  37946062.280   197595104.863         517.477          46.500    37946072.680   152793099.711         398.863          46.500  
E15  26058096.460   136936222.430       -2424.039          45.500    26058105.120   104925174.477       -1858.816          48.000  
E13  23471892.800   123345630.004         168.582          51.750    23471898.920    94511602.160         129.566          52.750  
E21  23419280.280   123069157.262        -201.531          51.000    23419285.440    94299742.523        -154.461          52.250  
E26  25291842.720   132909545.000        2708.992          47.750    25291849.460   101839790.621        2075.262          51.000  
E27  25977635.560   136513406.012       -2370.715          46.750    25977645.220   104601198.258       -1817.066          48.500  
> 2024 04 10 11 08 02.0000000  0 25       0.000000000000
G05  23267607.640   122272107.078         416.723          47.250    23267615.000    95276994.688         325.777          43.750  
G18  21029623.500   110511418.863        1769.848          52.000    21029626.560    86112810.184        1380.453          52.250  
G20  24448678.220   128478682.777       -1719.711          35.750                                                                  
G25  23179137.540   121807186.668       -3369.602          46.500    23179146.920    94914733.109       -2626.176          44.250  
G28  22391485.800   117668067.246       -2844.004          47.500    22391489.900    91689420.711       -2215.168          48.750  
G29  21230986.760   111569608.230       -1801.313          52.000    21230989.080    86937356.168       -1402.934          47.000  
G26  20982930.980   110266050.605        1827.953          51.750    20982937.080    85921623.141        1425.379          47.750  
G31  21722171.960   114150793.301       -1311.066          50.750    21722173.720    88948684.918       -1021.715          46.250  
G16  23490858.120   123445292.410        3324.348          43.250                                                                  
R22  19665463.860   104975613.445       -1955.898          58.000    19665468.900    81647708.305       -1520.551          54.250  
R23  19902107.900   106462887.145        1964.219          52.750                                                                  
R12  19700591.160   105237053.680       -2085.184          56.750                                                                  
R21  23467381.920   125578724.773       -4028.320          39.750    23467391.460    97672347.836       -3134.434          34.750  
R13  19617964.180   104758891.367        1660.688          44.250    19617971.920    81479124.191        1293.391          45.250  
C28  21550069.560   112216863.262         508.926          52.750                                                                  
C27  24029330.340   125127011.957        2636.914          46.250                                                                  
C37  22223001.700   115721004.367        -655.160          52.000                                                                  
C23  24455900.840   127348302.688       -3139.789          48.750                                                                  
C08  38324631.080   199566397.441          88.777          45.000    38324633.680   154317401.934          69.656          46.500  
C13  37945961.720   197594580.758         516.547          46.750    37945972.120   152792694.449         399.805          46.500  
E15  26058556.240   136938639.520       -2426.051          45.750    26058565.120   104927026.539       -1859.500          48.000  
E13  23471859.220   123345453.598         168.285          51.500    23471865.360    94511466.992         128.824          52.750  
E21  23419316.980   123069350.660        -200.504          51.000    23419322.240    94299890.711        -154.031          52.500  
E26  25291326.040   132906828.961        2709.258          47.750    25291332.620   101837709.500        2076.172          51.250  
E27  25978085.140   136515768.852       -2369.914          46.250    25978094.900   104603008.746       -1816.172          48.750  
> 2024 04 10 11 08 03.0000000  0 25       0.000000000000
G05  23267527.120   122271681.957         416.809          47.500    23267533.640    95276663.438         326.586          43.500  
G18  21029285.180   110509640.285        1772.086          52.000    21029288.160    86111424.289        1380.430          52.250  
G20  24449004.200   128480391.770       -1714.961          36.000                                                                  
G25  23179777.380   121810549.168       -3369.758          46.500    23179786.800    94917353.234       -2627.473          44.750  
G28  22392025.820   117670903.438       -2843.355          47.500    22392029.780    91691630.738       -2216.703          48.750  
G29  21231328.080   111571401.500       -1801.074          52.000    21231330.260    86938753.496       -1403.672          46.750  
G26  20982581.560   110264214.465        1829.078          51.750    20982587.700    85920192.383        1424.512          47.500  
G31  21722420.080   114152096.270       -1309.734          50.750    21722421.760    88949700.219       -1020.648          46.000  
G16  23490224.520   123441963.102        3322.418          42.750                                                                  
R22  19665828.640   104977561.109       -1955.219          58.000    19665833.800    81649223.148       -1520.574          54.250  
R23  19901739.780   106460915.395        1964.043          53.000                                                                  
R12  19700980.360   105239131.191       -2085.484          56.750                                                                  
R21  23468134.280   125582745.012       -4027.125          39.250    23468142.600    97675474.660       -3132.949          34.000  
R13  19617651.800   104757222.547        1661.500          44.250    19617659.620    81477826.215        1291.320          45.250  
C28  21549970.120   112216345.465         510.844          52.500                                                                  
C27  24028822.660   125124368.527        2636.027          46.750                                                                  
C37  22223125.840   115721650.711        -653.184          51.750                                                                  
C23  24456502.000   127351434.406       -3139.391          48.750                                                                  
C08  38324612.300   199566299.484          91.559          45.250    38324614.740   154317326.199          70.660          46.750  
C13  37945860.940   197594055.852         518.059          46.500    37945870.920   152792288.563         401.625          46.500  
E15  26059016.300   136941055.816       -2423.711          45.750    26059024.880   104928877.980       -1857.508          48.000  
E13  23471825.520   123345276.629         169.324          51.750    23471831.740    94511331.391         129.418          52.750  
E21  23419353.700   123069543.336        -200.207          50.750    23419358.920    94300038.340        -153.129          52.500  
E26  25290809.040   132904112.141        2709.223          47.500    25290815.600   101835627.777        2076.004          51.000  
E27  25978534.540   136518130.871       -2368.133          46.250    25978544.360   104604818.590       -1815.445          48.750  
> 2024 04 10 11 08 04.0000000  0 25       0.000000000000
G05  23267446.360   122271257.930         417.469          47.250    23267453.060    95276333.031         324.898          42.750  
G18  21028946.980   110507862.730        1770.773          52.000    21028949.940    86110039.176        1379.730          52.500  
G20  24449330.020   128482101.738       -1719.387          36.000                                                                  
G25  23180417.440   121813912.352       -3369.160          46.500    23180426.520    94919973.871       -2626.000          45.000  
G28  22392565.640   117673740.484       -2843.797          47.250    22392569.400    91693841.426       -2215.758          48.750  
G29  21231669.300   111573195.500       -1800.609          52.000    21231671.540    86940151.418       -1402.492          47.000  
G26  20982232.180   110262379.223        1828.793          51.500    20982238.400    85918762.320        1426.828          47.500  
G31  21722668.320   114153400.301       -1309.828          50.750    21722670.000    88950716.340       -1020.758          46.250  
G16  23489590.820   123438634.387        3320.914          42.250                                                                  
R22  19666193.700   104979509.805       -1955.363          57.750    19666198.900    81650738.801       -1520.523          54.000  
R23  19901371.540   106458944.738        1963.941          53.000                                                                  
R12  19701369.480   105241209.887       -2084.738          56.750                                                                  
R21  23468883.080   125586765.645       -4027.973          37.750                                                                  
R13  19617339.160   104755554.898        1660.129          43.750    19617347.940    81476529.168        1291.688          45.500  
C28  21549870.760   112215828.520         510.293          52.250                                                                  
C27  24028315.100   125121725.758        2637.094          46.250                                                                  
C37  22223250.160   115722298.027        -653.332          51.500                                                                  
C23  24457103.700   127354566.805       -3138.262          48.500                                                                  
C08  38324593.580   199566202.215          91.316          44.750    38324596.180   154317251.012          72.266          46.500  
C13  37945760.080   197593531.582         517.934          46.250    37945770.200   152791883.164         399.430          46.500  
E15  26059476.100   136943472.797       -2423.543          45.500    26059484.860   104930729.957       -1857.281          48.000  
E13  23471792.100   123345100.555         170.258          51.500    23471798.180    94511196.484         130.074          52.750  
E21  23419390.440   123069736.793        -199.066          50.500    23419395.700    94300186.574        -153.266          52.250  
E26  25290292.060   132901396.016        2710.031          47.250    25290298.800   101833546.594        2076.000          50.750  
E27  25978984.240   136520493.523       -2368.137          46.250    25978993.920   104606628.934       -1815.984          48.500  
> 2024 04 10 11 08 05.0000000  0 25       0.000000000000
G05  23267365.700   122270834.383         417.133          46.250    23267372.640    95276002.965         324.375          44.000  
G18  21028608.780   110506085.508        1770.559          51.500    21028611.720    86108654.332        1379.688          52.250  
G20  24449655.680   128483812.066       -1716.410          36.000                                                                  
G25  23181057.180   121817275.504       -3370.094          45.750    23181067.020    94922594.527       -2625.082          44.750  
G28  22393105.420   117676577.715       -2842.996          47.500    22393109.340    91696052.242       -2215.191          48.750  
G29  21232010.800   111574989.574       -1799.895          52.000    21232013.200    86941549.398       -1403.965          47.250  
G26  20981883.000   110260544.195        1829.109          51.000    20981889.260    85917332.430        1424.770          47.500  
G31  21722916.640   114154704.734       -1310.547          50.000    21722918.020    88951732.777       -1019.785          46.000  
G16  23488957.240   123435305.641        3323.102          42.250                                                                  
R22  19666558.960   104981458.836       -1954.793          58.000    19666564.200    81652254.715       -1520.461          54.000  
R23  19901003.240   106456974.504        1964.773          53.000                                                                  
R12  19701758.680   105243289.059       -2084.910          56.750                                                                  
R21  23469635.180   125590786.102       -4025.785          37.250    23469642.920    97681733.2853      -3133.828          33.250  
R13  19617026.520   104753887.785        1662.629          44.000    19617035.860    81475232.512        1291.582          45.250  
C28  21549771.560   112215311.758         511.664          52.000                                                                  
C27  24027807.500   125119083.031        2636.734          46.250                                                                  
C37  22223374.520   115722945.676        -653.301          51.500                                                                  
C23  24457705.120   127357699.219       -3138.012          48.000                                                                  
C08  38324574.700   199566104.992          91.527          44.750    38324577.520   154317175.801          70.152          46.750  
C13  37945659.320   197593007.316         518.664          46.000    37945669.580   152791477.766         400.777          46.000  
E15  26059935.940   136945889.797       -2423.336          45.000    26059944.900   104932581.930       -1857.934          48.000  
E13  23471758.820   123344924.734         170.664          51.250    23471764.800    94511061.762         130.410          52.750  
E21  23419427.160   123069930.359        -200.117          50.250    23419432.500    94300334.891        -152.980          52.000  
E26  25289775.320   132898679.914        2711.281          46.500    25289781.880   101831465.438        2076.500          50.500  
E27  25979433.840   136522856.145       -2368.766          46.000    25979443.500   104608439.262       -1814.234          48.000  
> 2024 04 10 11 08 06.0000000  0 25       0.000000000000
G05  23267285.260   122270411.801         417.738          46.500    23267292.480    95275673.719         325.402          43.500  
G18  21028270.740   110504309.211        1770.938          51.500    21028273.660    86107270.203        1380.664          52.250  
G20  24449980.560   128485523.238       -1716.336          35.500                                                                  
G25  23181697.280   121820639.223       -3368.152          45.500    23181706.960    94925215.609       -2623.754          44.750  
G28  22393645.300   117679415.707       -2843.320          47.250    22393649.400    91698263.656       -2214.746          49.000  
G29  21232352.300   111576784.297       -1799.250          51.750    21232354.800    86942947.887       -1401.676          47.250  
G26  20981533.900   110258709.949        1828.473          51.000    20981540.260    85915903.148        1424.227          47.500  
G31  21723165.120   114156010.141       -1309.824          50.000    21723166.300    88952749.984       -1022.395          46.000  
G16  23488324.160   123431977.352        3323.777          41.750                                                                  
R22  19666924.200   104983408.789       -1954.902          58.000    19666929.560    81653771.340       -1520.375          54.250  
R23  19900635.080   106455005.266        1963.992          52.750                                                                  
R12  19702148.420   105245369.344       -2084.980          56.750                                                                  
R21  23470388.360   125594806.941       -4022.664          36.750    23470397.420    97684861.141       -3131.887          34.250  
R13  19616714.560   104752221.711        1661.621          44.000    19616723.740    81473936.676        1292.711          45.500  
C28  21549672.480   112214795.746         511.277          52.000                                                                  
C27  24027299.940   125116440.875        2639.000          46.000                                                                  
C37  22223499.160   115723594.203        -653.816          51.500                                                                  
C23  24458306.640   127360832.191       -3137.316          47.750                                                                  
C08  38324556.040   199566008.340          91.668          45.000    38324558.780   154317101.063          72.094          46.500  
C13  37945558.500   197592483.605         520.867          46.000    37945569.080   152791072.805         402.207          46.000  
E15  26060395.920   136948307.387       -2421.801          45.250    26060404.980   104934434.367       -1856.105          47.750  
E13  23471725.640   123344749.727         170.027          51.250    23471731.500    94510927.664         130.488          52.750  
E21  23419464.060   123070124.621        -197.926          50.500    23419469.500    94300483.742        -153.230          52.000  
E26  25289258.640   132895964.426        2711.621          46.750    25289265.100   101829384.746        2076.820          50.500  
E27  25979883.560   136525219.324       -2367.484          45.750    25979893.240   104610250.008       -1814.352          47.750  
> 2024 04 10 11 08 07.0000000  0 25       0.000000000000
G05  23267204.840   122269989.508         418.875          47.250    23267212.280    95275344.641         325.285          44.500  
G18  21027932.920   110502533.070        1772.688          51.500    21027935.760    86105886.203        1381.480          52.250  
G20  24450306.280   128487234.516       -1714.457          35.500                                                                  
G25  23182337.180   121824002.762       -3368.004          45.750    23182347.100    94927836.516       -2625.789          44.500  
G28  22394185.120   117682253.668       -2842.258          47.250    22394189.460    91700475.059       -2214.094          49.000  
G29  21232693.840   111578578.902       -1798.219          51.500    21232696.440    86944346.273       -1401.137          47.500  
G26  20981184.720   110256875.723        1830.121          50.750    20981191.140    85914473.879        1424.547          47.500  
G31  21723413.640   114157315.758       -1310.207          50.000    21723414.600    88953767.344       -1020.738          46.000  
G16  23487690.600   123428648.785        3323.832          42.000                                                                  
R22  19667289.680   104985358.898       -1954.590          57.750    19667294.700    81655288.090       -1519.992          54.250  
R23  19900266.700   106453036.270        1964.828          52.750                                                                  
R12  19702537.900   105247449.961       -2085.012          56.500                                                                  
R21  23471137.100   125598827.402       -4022.941          37.000    23471147.980    97687988.164       -3129.906          34.750  
R13  19616402.700   104750555.941        1661.418          44.250    19616411.940    81472641.086        1292.355          45.500  
C28  21549573.420   112214279.742         511.398          52.000                                                                  
C27  24026792.340   125113798.543        2639.922          45.750                                                                  
C37  22223623.800   115724242.863        -652.773          51.500                                                                  
C23  24458908.260   127363964.988       -3137.141          48.000                                                                  
C08  38324537.460   199565911.484          93.297          45.000    38324540.420   154317026.176          71.523          46.500  
C13  37945457.840   197591959.684         519.043          46.250    37945468.340   152790667.676         401.789          46.250  
E15  26060855.960   136950724.813       -2420.090          45.500    26060864.900   104936286.680       -1855.457          47.750  
E13  23471692.340   123344574.777         170.219          51.250    23471698.200    94510793.617         131.156          52.750  
E21  23419500.980   123070318.805        -198.367          50.250    23419506.460    94300632.527        -152.117          52.000  
E26  25288741.720   132893248.781        2711.535          46.500    25288748.360   101827303.926        2077.555          50.250  
E27  25980333.260   136527582.313       -2367.211          45.750    25980342.940   104612060.598       -1813.113          47.750  
> 2024 04 10 11 08 08.0000000  0 25       0.000000000000
G05  23267124.500   122269568.074         418.535          46.750    23267132.020    95275016.258         326.633          44.000  
G18  21027595.000   110500757.676        1772.363          51.250    21027597.860    86104502.781        1380.691          52.250  
G20  24450632.280   128488946.563       -1713.938          34.500                                                                  
G25  23182977.400   121827366.660       -3369.613          45.500    23182987.120    94930457.738       -2624.398          44.500  
G28  22394725.240   117685092.227       -2841.680          47.000    22394729.720    91702686.914       -2213.695          49.000  
G29  21233035.520   111580373.988       -1798.188          51.250    21233038.140    86945745.047       -1402.148          47.250  
G26  20980835.720   110255042.137        1830.613          50.500    20980842.140    85913045.102        1424.484          47.500  
G31  21723662.060   114158622.188       -1310.484          49.500    21723663.060    88954785.340       -1019.688          45.750  
G16  23487057.040   123425320.605        3324.027          41.750                                                                  
R22  19667654.940   104987309.781       -1954.543          57.750    19667659.840    81656805.441       -1519.934          54.250  
R23  19899898.620   106451068.113        1964.766          52.750                                                                  
R12  19702927.300   105249531.469       -2085.656          56.250                                                                  
R21  23471885.620   125602848.121       -4022.645          36.000    23471896.840    97691115.383       -3129.820          34.750  
R13  19616091.780   104748891.102        1660.875          44.000    19616099.720    81471346.199        1291.996          45.750  
C28  21549474.400   112213764.324         512.559          52.500                                                                  
C27  24026284.720   125111156.629        2637.887          45.750                                                                  
C37  22223748.400   115724892.254        -651.488          51.750                                                                  
C23  24459510.000   127367098.188       -3135.777          48.500                                                                  
C08  38324519.200   199565815.039          94.035          45.500    38324521.820   154316951.609          71.516          46.000  
C13  37945357.320   197591436.180         521.344          46.750    37945367.960   152790262.867         402.391          46.000  
E15  26061315.840   136953142.652       -2420.504          45.000    26061325.120   104938139.320       -1855.504          47.750  
E13  23471659.220   123344400.480         170.734          51.250    23471665.000    94510660.063         131.406          52.500  
E21  23419537.960   123070513.496        -197.516          50.000    23419543.500    94300781.711        -150.930          51.750  
E26  25288224.920   132890533.574        2712.969          46.250    25288231.640   101825223.453        2077.887          50.250  
E27  25980782.980   136529945.695       -2364.488          45.750    25980792.700   104613871.484       -1813.414          47.750  
> 2024 04 10 11 08 09.0000000  0 25       0.000000000000
G05  23267044.680   122269147.199         419.086          46.750    23267051.960    95274688.297         325.840          44.250  
G18  21027257.220   110498982.777        1771.895          51.500    21027260.020    86103119.750        1380.406          52.000  
G20  24450957.620   128490659.031       -1713.332          35.500                                                                  
G25  23183617.800   121830730.730       -3365.984          45.500    23183627.440    94933079.082       -2623.820          44.500  
G28  22395265.620   117687931.102       -2841.336          47.250    22395270.180    91704899.023       -2213.148          49.000  
G29  21233377.200   111582169.297       -1797.441          51.500    21233379.820    86947143.988       -1400.605          47.250  
G26  20980486.800   110253208.891        1830.582          50.250    20980493.160    85911616.609        1426.211          47.500  
G31  21723910.500   114159929.156       -1310.957          49.750    21723911.740    88955803.746       -1022.066          45.750  
G16  23486423.960   123421992.469        3326.746          42.000                                                                  
R22  19668020.640   104989261.152       -1954.156          57.750    19668025.540    81658323.180       -1520.941          54.000  
R23  19899530.920   106449100.535        1964.867          52.500                                                                  
R12  19703317.120   105251613.594       -2085.090          56.250                                                                  
R21  23472639.980   125606868.730       -4023.059          37.000    23472651.440    97694242.590       -3127.398          34.750  
R13  19615780.140   104747226.906        1660.836          43.750    19615787.980    81470051.844        1292.379          45.500  
C28  21549375.520   112213249.238         513.422          52.250                                                                  
C27  24025777.480   125108514.879        2638.988          45.500                                                                  
C37  22223873.180   115725542.090        -654.168          51.500                                                                  
C23  24460111.780   127370231.543       -3134.719          48.250                                                                  
C08  38324500.600   199565718.766          95.117          44.750    38324503.300   154316877.176          72.840          46.000  
C13  37945256.820   197590912.801         520.332          46.250    37945267.360   152789858.152         402.898          46.000  
E15  26061776.020   136955560.664       -2420.840          45.000    26061785.300   104939992.074       -1854.559          47.750  
E13  23471626.140   123344226.563         171.082          51.500    23471631.860    94510526.805         131.152          52.500  
E21  23419575.120   123070708.457        -197.496          50.500    23419580.620    94300931.094        -150.816          51.750  
E26  25287708.460   132887818.559        2711.500          46.750    25287715.000   101823143.113        2077.832          50.250  
E27  25981232.880   136532309.176       -2367.008          45.750    25981242.440   104615682.461       -1812.430          48.000  
> 2024 04 10 11 08 10.0000000  0 25       0.000000000000
G05  23266964.960   122268729.031         418.504          47.000    23266972.240    95274362.438         326.250          44.500  
G18  21026920.120   110497210.449        1772.605          51.750    21026922.720    86101738.719        1381.422          52.250  
G20  24451284.200   128492374.133       -1715.379          36.000                                                                  
G25  23184258.120   121834097.020       -3365.645          46.000    23184268.160    94935702.156       -2622.355          44.500  
G28  22395806.140   117690772.387       -2841.648          47.750    22395810.960    91707113.012       -2214.363          49.250  
G29  21233719.140   111583966.906       -1797.004          52.000    21233722.080    86948544.719       -1401.324          47.500  
G26  20980138.280   110251378.090        1830.727          50.750    20980144.760    85910190.020        1427.488          47.500  
G31  21724159.380   114161238.750       -1309.090          49.750    21724160.760    88956824.211       -1020.355          46.000  
G16  23485791.020   123418666.488        3326.008          42.250                                                                  
R22  19668386.660   104991215.141       -1953.934          57.750    19668391.540    81659842.941       -1519.883          54.000  
R23  19899163.620   106447135.660        1964.891          52.500                                                                  
R12  19703707.460   105253698.500       -2084.711          56.500                                                                  
R21  23473390.260   125610891.445       -4021.410          37.000    23473403.720    97697371.332       -3129.211          34.250  
R13  19615468.280   104745565.488        1662.188          43.750    19615477.460    81468759.625        1293.355          45.500  
C28  21549277.080   112212736.551         513.039          52.500                                                                  
C27  24025270.680   125105875.352        2640.020          46.500                                                                  
C37  22223998.440   115726194.453        -652.977          51.750                                                                  
C23  24460713.980   127373367.117       -3136.063          48.750                                                                  
C08  38324482.580   199565624.727          95.359          45.500    38324485.220   154316804.430          73.188          46.500  
C13  37945156.820   197590391.609         520.348          47.000    37945167.200   152789455.141         403.352          46.250  
E15  26062236.260   136957980.910       -2420.012          45.000    26062245.840   104941846.543       -1854.125          47.750  
E13  23471593.440   123344055.125         170.914          51.500    23471599.260    94510395.445         131.320          52.250  
E21  23419612.760   123070905.746        -196.922          50.750    23419618.140    94301082.270        -150.602          51.750  
E26  25287192.180   132885105.797        2713.996          46.750    25287198.800   101821064.512        2078.891          50.250  
E27  25981683.000   136534674.879       -2364.922          46.000    25981692.660   104617495.137       -1810.996          47.750  
> 2024 04 10 11 08 11.0000000  0 25       0.000000000000
G05  23266884.720   122268308.527         418.336          47.500    23266892.180    95274034.793         324.559          43.750  
G18  21026582.320   110495435.703        1772.934          51.750    21026585.040    86100355.801        1381.941          52.250  
G20  24451609.780   128494086.723       -1713.520          36.000                                                                  
G25  23184898.380   121837460.527       -3364.043          46.000    23184908.000    94938323.070       -2621.398          44.750  
G28  22396346.320   117693611.094       -2839.918          47.500    22396351.400    91709324.980       -2212.820          49.500  
G29  21234060.780   111585761.820       -1797.457          52.000    21234063.740    86949943.363       -1399.262          47.750  
G26  20979789.240   110249544.754        1831.637          50.750    20979795.880    85908761.434        1427.180          47.250  
G31  21724407.880   114162546.000       -1309.926          49.750    21724409.300    88957842.840       -1019.598          45.750  
G16  23485157.480   123415337.680        3327.574          42.000                                                                  
R22  19668752.160   104993166.668       -1953.844          57.750    19668757.260    81661360.793       -1519.500          54.000  
R23  19898795.940   106445168.387        1965.484          52.500                                                                  
R12  19704097.240   105255781.105       -2085.082          56.500                                                                  
R21  23474141.940   125614911.137       -4020.672          37.250    23474154.660    97700497.742       -3126.766          34.250  
R13  19615156.800   104743901.730        1662.012          43.750    19615166.100    81467465.590        1293.031          45.250  
C28  21549178.180   112212221.305         513.523          52.750                                                                  
C27  24024763.300   125103233.105        2640.426          46.750                                                                  
C37  22224123.200   115726844.410        -651.742          52.000                                                                  
C23  24461315.540   127376499.949       -3135.063          48.500                                                                  
C08  38324464.180   199565527.957          94.680          45.750    38324466.700   154316729.617          74.629          46.500  
C13  37945056.220   197589867.691         522.770          47.000    37945066.580   152789050.016         404.117          46.250  
E15  26062696.160   136960398.434       -2419.551          45.000    26062705.800   104943698.926       -1854.457          47.750  
E13  23471560.420   123343881.176         171.656          51.500    23471566.120    94510262.152         131.395          52.500  
E21  23419649.740   123071100.387        -197.402          50.750    23419655.200    94301231.402        -149.938          51.750  
E26  25286675.500   132882390.297        2713.398          46.750    25286682.040   101818983.813        2079.887          50.250  
E27  25982132.700   136537037.777       -2365.586          46.000    25982142.240   104619305.668       -1811.445          47.500  
> 2024 04 10 11 08 12.0000000  0 25       0.000000000000
G05  23266805.120   122267888.992         418.695          47.250    23266812.200    95273707.883         326.488          43.500  
G18  21026244.720   110493661.789        1773.023          52.000    21026247.520    86098973.523        1381.520          52.500  
G20  24451935.840   128495800.098       -1714.441          36.250                                                                  
G25  23185538.580   121840824.508       -3365.305          46.000    23185548.120    94940944.344       -2623.234          44.500  
G28  22396886.600   117696450.449       -2841.246          47.500    22396892.000    91711537.465       -2214.723          49.500  
G29  21234402.540   111587557.293       -1796.309          52.250    21234405.180    86951342.422       -1401.691          47.750  
G26  20979440.680   110247712.105        1831.500          51.000    20979447.100    85907333.398        1425.898          47.250  
G31  21724656.640   114163854.121       -1308.605          49.750    21724658.360    88958862.148       -1018.965          46.000  
G16  23484524.260   123412009.281        3326.020          42.000                                                                  
R22  19669117.840   104995119.031       -1953.980          57.750    19669123.120    81662879.301       -1519.719          54.000  
R23  19898428.100   106443202.031        1965.859          52.500                                                                  
R12  19704487.340   105257864.691       -2084.742          56.500                                                                  
R21  23474892.560   125618931.145       -4022.508          37.000    23474909.700    97703624.387       -3127.180          35.000  
R13  19614844.640   104742238.961        1660.266          43.500    19614853.540    81466172.332        1292.656          45.250  
C28  21549079.200   112211706.723         513.344          52.750                                                                  
C27  24024256.120   125100591.336        2640.949          47.000                                                                  
C37  22224248.080   115727495.152        -651.461          51.750                                                                  
C23  24461917.120   127379633.273       -3133.797          48.500                                                                  
C08  38324445.380   199565431.652          96.270          45.750    38324448.280   154316655.148          74.773          46.750  
C13  37944955.680   197589344.250         521.848          46.750    37944966.040   152788645.266         404.590          46.250  
E15  26063156.120   136962816.441       -2418.180          45.000    26063165.980   104945551.691       -1854.215          47.500  
E13  23471527.440   123343707.941         172.496          51.750    23471533.200    94510129.414         131.824          52.500  
E21  23419686.700   123071295.621        -196.035          50.750    23419692.360    94301381.004        -149.652          51.750  
E26  25286158.680   132879675.320        2713.652          46.750    25286165.400   101816903.500        2078.949          50.250  
E27  25982582.560   136539401.152       -2365.059          46.000    25982592.020   104621116.559       -1812.320          47.750  
> 2024 04 10 11 08 13.0000000  0 25       0.000000000000
G05  23266725.480   122267470.336         417.336          47.500    23266732.460    95273381.656         327.297          43.500  
G18  21025907.220   110491888.664        1772.242          52.250    21025910.100    86097591.867        1380.676          52.500  
G20  24452262.680   128497514.301       -1715.094          36.750                                                                  
G25  23186178.940   121844188.922       -3364.207          46.000    23186188.360    94943565.953       -2621.727          44.750  
G28  22397426.980   117699290.422       -2840.566          47.250    22397432.360    91713750.445       -2213.172          49.500  
G29  21234744.300   111589353.297       -1796.539          52.250    21234746.980    86952741.902       -1399.836          47.750  
G26  20979092.000   110245880.121        1831.172          51.250    20979098.300    85905905.887        1426.773          47.250  
G31  21724905.720   114165163.086       -1308.863          50.000    21724907.440    88959882.137       -1019.484          46.250  
G16  23483890.860   123408681.246        3327.465          42.500                                                                  
R22  19669483.720   104997072.199       -1953.559          58.000    19669489.180    81664398.426       -1519.430          54.250  
R23  19898060.860   106441236.551        1964.813          52.750                                                                  
R12  19704877.540   105259949.230       -2085.078          56.750                                                                  
R21  23475645.260   125622951.383       -4022.352          36.750    23475656.420    97706751.348       -3125.664          33.500  
R13  19614533.220   104740577.191        1660.813          43.500    19614542.300    81464879.824        1292.297          45.250  
C28  21548980.540   112211192.777         512.383          52.500                                                                  
C27  24023748.580   125097950.027        2642.551          46.500                                                                  
C37  22224373.140   115728146.656        -652.070          51.500                                                                  
C23  24462519.080   127382767.039       -3133.746          47.750                                                                  
C08  38324426.940   199565335.816          98.570          45.250    38324429.580   154316581.043          74.723          46.500  
C13  37944855.240   197588821.242         521.988          46.500    37944865.640   152788240.848         403.406          46.250  
E15  26063616.600   136965234.922       -2419.617          45.250    26063626.240   104947404.813       -1851.941          47.500  
E13  23471494.520   123343535.402         171.988          51.500    23471500.360    94509997.215         131.727          52.500  
E21  23419724.140   123071491.418        -195.523          50.750    23419729.600    94301531.027        -149.938          51.750  
E26  25285642.020   132876960.840        2714.438          47.000    25285648.840   101814823.566        2079.730          50.250  
E27  25983032.260   136541764.961       -2363.344          46.000    25983041.920   104622927.801       -1812.648          47.750  
> 2024 04 10 11 08 14.0000000  0 25       0.000000000000
G05  23266646.160   122267052.406         417.785          47.750    23266652.880    95273056.008         323.715          44.250  
G18  21025569.900   110490116.176        1771.652          52.250    21025572.800    86096210.723        1380.977          52.750  
G20  24452589.220   128499229.102       -1713.867          37.250                                                                  
G25  23186819.040   121847553.637       -3365.707          46.000    23186828.640    94946187.797       -2621.422          45.250  
G28  22397967.700   117702130.875       -2841.117          47.500    22397972.900    91715963.785       -2214.355          50.000  
G29  21235086.220   111591149.664       -1796.816          52.500    21235088.780    86954141.664       -1399.793          48.000  
G26  20978743.560   110244048.656        1830.887          51.250    20978749.620    85904478.773        1426.383          47.500  
G31  21725154.840   114166472.758       -1309.805          50.000    21725157.100    88960902.648       -1018.961          46.750  
G16  23483257.380   123405353.461        3327.402          43.000                                                                  
R22  19669849.980   104999026.000       -1954.086          57.750    19669855.040    81665918.047       -1518.945          54.250  
R23  19897693.860   106439271.805        1965.105          52.500                                                                  
R12  19705267.960   105262034.574       -2085.598          56.500                                                                  
R21  23476395.980   125626971.719       -4018.977          37.000    23476406.880    97709878.223       -3130.625          32.750  
R13  19614221.920   104738916.215        1661.129          43.750    19614230.740    81463587.953        1290.973          45.000  
C28  21548881.840   112210679.313         513.090          52.250                                                                  
C27  24023241.480   125095309.039        2643.227          46.000                                                                  
C37  22224498.320   115728798.785        -652.727          51.500                                                                  
C23  24463120.940   127385901.102       -3134.137          47.750                                                                  
C08  38324408.840   199565240.285          95.031          45.250    38324411.040   154316507.172          74.703          46.750  
C13  37944754.740   197588298.535         523.574          46.250    37944765.200   152787836.672         403.887          46.500  
E15  26064076.900   136967653.711       -2421.488          45.500    26064086.560   104949258.172       -1854.059          47.750  
E13  23471461.720   123343363.395         171.707          51.750    23471467.680    94509865.422         132.113          52.500  
E21  23419761.540   123071687.629        -196.547          51.250    23419766.920    94301681.363        -150.023          51.750  
E26  25285125.320   132874246.668        2714.098          47.000    25285132.380   101812743.883        2079.738          50.500  
E27  25983482.080   136544129.055       -2363.074          46.500    25983491.740   104624739.219       -1813.582          47.750  
> 2024 04 10 11 08 15.0000000  0 25       0.000000000000
G05  23266566.800   122266635.000         416.914          48.000    23266573.260    95272730.762         324.703          44.500  
G18  21025232.780   110488344.090        1772.043          52.250    21025235.680    86094829.871        1381.566          53.000  
G20  24452915.420   128500944.258       -1715.727          37.250                                                                  
G25  23187459.380   121850918.387       -3364.191          46.250    23187468.980    94948809.672       -2621.309          45.000  
G28  22398508.080   117704971.574       -2842.031          47.500    22398513.580    91718177.305       -2213.145          50.000  
G29  21235427.940   111592946.160       -1797.227          52.250    21235430.500    86955541.535       -1399.566          48.250  
G26  20978394.940   110242217.441        1832.051          51.250    20978400.920    85903051.848        1426.184          47.250  
G31  21725404.120   114167782.871       -1309.879          50.000    21725406.720    88961923.527       -1021.438          46.750  
G16  23482624.240   123402025.641        3327.016          42.750                                                                  
R22  19670216.040   105000980.207       -1954.926          57.500    19670221.320    81667437.988       -1519.711          54.250  
R23  19897326.580   106437307.539        1964.191          52.500                                                                  
R12  19705658.420   105264120.477       -2085.859          56.500                                                                  
R21  23477148.280   125630991.922       -4018.676          37.000    23477156.940    97713005.012       -3125.992          32.750  
R13  19613911.560   104737255.777        1660.309          43.500    19613919.740    81462296.516        1290.566          45.000  
C28  21548783.360   112210166.086         513.605          52.500                                                                  
C27  24022734.240   125092668.117        2641.473          46.000                                                                  
C37  22224623.540   115729451.262        -652.594          51.750                                                                  
C23  24463722.840   127389035.227       -3135.145          47.750                                                                  
C08  38324390.620   199565144.801          94.891          45.250    38324392.880   154316433.340          74.125          46.750  
C13  37944654.260   197587775.867         522.938          46.750    37944664.740   152787432.492         404.418          46.250  
E15  26064537.360   136970072.594       -2417.426          46.000    26064546.820   104951111.582       -1853.063          47.250  
E13  23471428.880   123343191.695         172.152          52.000    23471434.960    94509733.863         131.664          52.500  
E21  23419799.000   123071883.988        -195.965          51.250    23419804.240    94301831.828        -149.250          51.750  
E26  25284608.940   132871532.605        2713.164          47.250    25284615.840   101810664.266        2079.344          50.250  
E27  25983932.120   136546493.141       -2363.559          46.750    25983941.640   104626550.672       -1810.066          47.500  
> 2024 04 10 11 08 16.0000000  0 25       0.000000000000
G05  23266487.600   122266219.539         416.258          47.500    23266494.340    95272407.055         324.086          43.500  
G18  21024895.920   110486573.844        1771.039          52.250    21024898.780    86093450.465        1380.684          53.000  
G20  24453243.440   128502661.234       -1716.121          37.500                                                                  
G25  23188100.020   121854284.617       -3363.367          46.750    23188109.880    94951432.707       -2622.570          45.250  
G28  22399049.100   117707813.938       -2842.395          48.000    22399054.420    91720392.137       -2215.063          50.000  
G29  21235770.100   111594744.234       -1796.359          52.250    21235772.980    86956942.633       -1399.313          48.250  
G26  20978046.840   110240387.965        1829.684          51.250    20978052.680    85901626.285        1426.234          47.250  
G31  21725653.720   114169094.891       -1310.438          50.250    21725656.360    88962945.879       -1021.871          47.000  
G16  23481991.180   123398699.242        3326.703          42.750                                                                  
R22  19670582.240   105002936.285       -1955.344          57.500    19670587.840    81668959.383       -1520.406          54.250  
R23  19896959.700   106435345.230        1962.961          52.500                                                                  
R12  19706049.460   105266208.395       -2086.797          56.500                                                                  
R21  23477899.680   125635013.406       -4023.105          35.250    23477910.260    97716132.863       -3128.484          33.500  
R13  19613601.300   104735597.379        1660.906          43.500    19613609.400    81461006.625        1289.512          45.000  
C28  21548685.040   112209654.527         512.480          52.750                                                                  
C27  24022227.420   125090028.695        2640.297          46.750                                                                  
C37  22224749.100   115730105.555        -654.191          52.250                                                                  
C23  24464324.860   127392170.848       -3136.551          48.000                                                                  
C08  38324372.460   199565050.813          95.492          45.750    38324374.720   154316360.664          72.398          47.000  
C13  37944554.280   197587254.684         523.172          47.250    37944564.740   152787029.488         403.852          46.250  
E15  26064997.820   136972492.965       -2418.824          45.500    26065007.440   104952966.145       -1853.891          46.750  
E13  23471396.460   123343021.727         170.285          51.500    23471402.580    94509603.625         130.469          52.250  
E21  23419836.700   123072081.977        -196.539          51.000    23419841.920    94301983.520        -150.922          51.500  
E26  25284092.480   132868820.043        2712.547          47.000    25284099.760   101808585.820        2079.660          50.250  
E27  25984382.400   136548858.742       -2364.930          46.500    25984391.860   104628363.262       -1811.098          47.500  
