     3.04           OBSERVATION DATA    M: Mixed            RINEX VERSION / TYPE
sbp2rinex v2.3 (RTKL                    20240410 141340 UTC PGM / RUN BY / DATE 
format: Swift Navigation SBP-JSON, option:                  COMMENT             
log: .\swift-gnss-20240410-123737.sbp.json                  COMMENT             
                                                            MARKER NAME         
                                                            MARKER NUMBER       
                                                            MARKER TYPE         
                                                            OBSERVER / AGENCY   
                                                            REC # / TYPE / VERS 
                                                            ANT # / TYPE        
  4388996.5297   924299.4077  4519553.0541                  APPROX POSITION XYZ 
        0.0000        0.0000        0.0000                  ANTENNA: DELTA H/E/N
G    8 C1C L1C D1C S1C C2S L2S D2S S2S                      SYS / # / OBS TYPES 
R    8 C1C L1C D1C S1C C2C L2C D2C S2C                      SYS / # / OBS TYPES 
E    8 C1B L1B D1B S1B C7I L7I D7I S7I                      SYS / # / OBS TYPES 
C    8 C2I L2I D2I S2I C7I L7I D7I S7I                      SYS / # / OBS TYPES 
  2024    04    10    10    37   55.0000000     GPS         TIME OF FIRST OBS   
  2024    04    10    10    59   25.0000000     GPS         TIME OF LAST OBS    
G L1C                                                       SYS / PHASE SHIFT   
G L2S  0.00000                                              SYS / PHASE SHIFT   
R L1C                                                       SYS / PHASE SHIFT   
R L2C                                                       SYS / PHASE SHIFT   
E L1B                                                       SYS / PHASE SHIFT   
E L7I                                                       SYS / PHASE SHIFT   
C L2I                                                       SYS / PHASE SHIFT   
C L7I                                                       SYS / PHASE SHIFT   
  6 R11  0 R12 -1 R13 -2 R21  4 R22 -3 R23  3               GLONASS SLOT / FRQ #
 C1C    0.000 C1P    0.000 C2C    0.000 C2P    0.000        GLONASS COD/PHS/BIS 
                                                            END OF HEADER       
> 2024 04 10 10 37 55.0000000  0 16       0.000000000000
G28  21556157.040   113278385.7191      -2001.930          44.750    21556161.140    88268888.8981      -1559.289          41.000  
G18  21803859.960   114580063.2231       2658.227          48.000    21803867.800    89283188.3831       2071.375          48.750  
G29  20711082.060   108837475.1761      -1239.863          49.000    20711086.520    84808442.3711       -965.273          49.250  
G31  21473293.360   112842921.7461       -158.152          49.000    21473297.560    87929555.6481       -121.750          46.500  
R22  19197327.720   102476678.8551       -797.691          54.750    19197333.100    79704083.9611       -620.816          53.250  
R13  20380163.660   108828958.2661       2736.758          39.000    20380172.780    84644763.504        2130.238          42.500  
R12  19223320.480   102687573.7301       -766.066          54.750    19223328.320    79868119.2731       -595.883          51.750  
R23  20755788.700   111029517.9731       3023.063          47.500                                                                  
R21  22133221.320   118439395.930       -3855.551          42.500                                                                  
R11  22684288.260   121218018.8091      -4007.770          42.750    22684306.340    94280706.188       -3118.719          43.250  
C23  23448761.880   122103847.1211      -2672.844          51.250                                                                  
C28  21856117.080   113810547.6521       1217.777          46.750                                                                  
C37  22163494.180   115411136.9841        264.551          52.500                                                                  
E15  25310929.200   133009837.0471      -1930.188          49.250    25310936.600   101916639.1761      -1479.863          51.500  
E13  23675779.460   124417066.0511        977.648          45.750    23675786.960    95332571.9691        749.395          49.250  
E21  23448810.740   123224338.2421        317.438          48.750    23448816.380    94418653.1051        243.609          51.250  
> 2024 04 10 10 37 56.0000000  0 16       0.000000000000
G28  21556531.580   113280355.855       -2003.141          45.000    21556536.500    88270424.063       -1559.680          41.000  
G18  21803347.840   114577372.551        2658.742          48.250    21803355.700    89281091.766        2071.539          48.750  
G29  20711311.620   108838681.492       -1238.938          49.250    20711315.860    84809382.367        -964.930          49.000  
G31  21473317.040   112843047.031        -158.035          49.000    21473321.400    87929653.254        -121.613          46.500  
R22  19197471.080   102477443.320        -797.871          54.500    19197476.720    79704678.543        -620.406          53.250  
R13  20379644.640   108826188.082        2735.598          38.500    20379653.560    84642608.926        2126.801          42.250  
R12  19223457.540   102688306.727        -766.797          54.500    19223465.760    79868689.379        -596.352          51.750  
R23  20755217.620   111026462.594        3022.270          47.250                                                                  
R21  22133934.880   118443217.500       -3854.645          42.000                                                                  
R11  22685032.820   121221994.703       -4008.922          43.000    22685051.720    94283798.520       -3118.586          43.000  
C23  23449268.980   122106487.582       -2673.910          51.500                                                                  
C28  21855877.100   113809297.270        1216.953          47.250                                                                  
C37  22163436.840   115410839.125         266.234          52.500                                                                  
E15  25311290.340   133011734.234       -1930.527          49.500    25311297.540   101918092.859       -1479.004          51.500  
E13  23675587.260   124416055.723         978.340          45.750    23675594.560    95331797.820         748.355          49.250  
E21  23448744.000   123223987.125         319.832          48.750    23448749.480    94418384.063         243.676          51.250  
> 2024 04 10 10 37 57.0000000  0 16       0.000000000000
G28  21556906.340   113282325.711       -2001.145          44.750    21556911.500    88271959.000       -1562.598          41.250  
G18  21802835.840   114574681.504        2657.355          48.250    21802843.520    89278994.824        2070.941          48.500  
G29  20711541.220   108839887.355       -1238.199          49.250    20711545.380    84810321.984        -965.273          48.750  
G31  21473340.920   112843172.160        -158.473          49.000    21473345.160    87929750.762        -125.188          46.500  
R22  19197614.040   102478207.676        -798.477          54.500    19197619.940    79705273.043        -621.648          53.250  
R13  20379127.420   108823417.605        2736.328          38.000    20379135.420    84640454.113        2129.051          42.250  
R12  19223594.780   102689039.629        -767.301          54.750    19223603.060    79869259.414        -596.008          51.750  
R23  20754646.480   111023406.918        3021.422          47.750                                                                  
R21  22134648.280   118447038.461       -3855.895          41.250                                                                  
R11  22685777.060   121225970.016       -4009.609          43.500    22685794.540    94286890.453       -3119.273          43.250  
C23  23449775.920   122109127.555       -2673.777          51.250                                                                  
C28  21855637.060   113808046.492        1217.992          47.250                                                                  
C37  22163379.560   115410540.957         263.969          52.250                                                                  
E15  25311651.740   133013630.926       -1927.969          49.750    25311658.460   101919546.156       -1479.027          51.250  
E13  23675395.060   124415045.031         977.180          46.250    23675402.100    95331023.371         748.512          49.000  
E21  23448677.200   123223635.438         318.035          49.250    23448682.560    94418114.574         243.180          51.000  
> 2024 04 10 10 37 58.0000000  0 16       0.000000000000
G28  21557281.360   113284296.031       -2003.398          45.000    21557287.140    88273494.316       -1562.887          41.750  
G18  21802323.720   114571990.805        2657.125          47.750    21802331.140    89276898.184        2071.902          48.000  
G29  20711770.740   108841093.484       -1237.996          49.000    20711774.900    84811261.820        -965.070          48.500  
G31  21473364.680   112843297.852        -158.336          48.500    21473369.220    87929848.699        -123.293          46.500  
R22  19197757.200   102478972.664        -798.113          54.500    19197763.740    79705868.023        -621.301          53.250  
R13  20378605.620   108820647.512        2739.805          38.000    20378616.100    84638299.566        2128.293          42.250  
R12  19223732.120   102689773.152        -766.840          54.750    19223740.760    79869829.926        -595.922          51.750  
R23  20754076.120   111020351.684        3021.727          48.250                                                                  
R21  22135362.420   118450859.559       -3853.953          41.750                                                                  
R11  22686522.000   121229945.500       -4009.781          44.750    22686538.180    94289982.473       -3119.336          43.250  
C23  23450282.880   122111767.746       -2672.957          51.000                                                                  
C28  21855397.300   113806796.020        1217.160          47.750                                                                  
C37  22163322.360   115410243.203         264.469          52.250                                                                  
E15  25312012.680   133015527.855       -1929.145          49.750    25312019.540   101920999.656       -1478.582          51.250  
E13  23675202.640   124414034.688         975.672          46.250    23675209.920    95330249.219         747.512          49.000  
E21  23448610.420   123223283.934         318.863          49.250    23448615.780    94417845.238         244.355          51.000  
> 2024 04 10 10 37 59.0000000  0 16       0.000000000000
G28  21557655.820   113286262.570       -2002.043          44.500    21557661.980    88275026.648       -1560.672          41.000  
G18  21801810.980   114569296.168        2658.828          47.750    21801818.360    89274798.461        2071.320          48.500  
G29  20711999.380   108842295.613       -1240.480          48.750    20712003.540    84812198.527        -965.188          48.250  
G31  21473387.720   112843419.859        -159.043          48.500    21473392.200    87929943.766        -123.496          46.500  
R22  19197899.720   102479733.961        -799.055          54.750    19197906.460    79706460.148        -621.289          53.250  
R13  20378085.780   108817873.461        2736.555          37.750    20378097.000    84636141.988        2126.512          42.250  
R12  19223868.640   102690502.977        -767.797          54.750    19223877.160    79870397.566        -596.152          51.250  
R23  20753504.740   111017292.555        3022.516          48.750                                                                  
R21  22136076.720   118454676.379       -3853.289          42.250                                                                  
R11  22687265.640   121233916.879       -4009.301          44.500    22687281.800    94293071.297       -3117.938          42.500  
C23  23450789.020   122114403.930       -2673.047          51.000                                                                  
C28  21855156.720   113805541.617        1217.832          48.250                                                                  
C37  22163264.340   115409941.617         265.418          52.250                                                                  
E15  25312372.940   133017420.770       -1929.441          50.000    25312379.780   101922450.055       -1478.383          51.000  
E13  23675009.140   124413020.426         978.168          46.000    23675017.060    95329472.063         748.063          49.250  
E21  23448542.780   123222928.324         318.547          49.250    23448548.120    94417572.762         243.793          51.000  
> 2024 04 10 10 38 00.0000000  0 16       0.000000000000
G28  21558031.080   113288235.051       -2003.406          44.750    21558037.700    88276563.680       -1560.809          41.750  
G18  21801299.360   114566607.410        2656.961          48.250    21801306.700    89272703.316        2070.656          48.250  
G29  20712229.200   108843503.504       -1238.563          49.000    20712233.360    84813139.750        -966.707          48.250  
G31  21473412.080   112843547.965        -158.820          49.000    21473416.460    87930043.574        -125.703          46.250  
R22  19198043.200   102480501.492        -799.672          54.750    19198050.260    79707057.113        -622.289          53.250  
R13  20377566.700   108815105.414        2733.949          37.500    20377578.560    84633989.047        2126.848          42.000  
R12  19224006.500   102691239.078        -767.773          55.000    19224014.820    79870970.082        -598.211          51.500  
R23  20752934.220   111014239.480        3021.719          48.500                                                                  
R21  22136790.980   118458498.930       -3854.129          42.000                                                                  
R11  22688009.740   121237894.004       -4008.961          44.250    22688026.060    94296164.629       -3117.000          42.500  
C23  23451296.060   122117045.813       -2673.688          50.750                                                                  
C28  21854917.060   113804293.000        1217.086          48.250                                                                  
C37  22163207.640   115409645.906         264.781          52.500                                                                  
E15  25312734.560   133019319.434       -1930.207          50.250    25312741.120   101923904.879       -1479.363          51.250  
E13  23674817.480   124412012.047         977.227          46.250    23674825.100    95328699.406         748.969          49.250  
E21  23448476.100   123222578.426         318.590          49.250    23448481.540    94417304.648         244.250          51.250  
> 2024 04 10 10 38 01.0000000  0 16       0.000000000000
G28  21558406.660   113290208.000       -2004.105          45.000    21558413.400    88278101.035       -1560.957          42.250  
G18  21800787.820   114563918.961        2657.199          48.500    21800795.160    89270608.418        2070.656          48.500  
G29  20712459.120   108844711.648       -1237.844          49.000    20712463.180    84814081.164        -965.383          48.000  
G31  21473436.460   112843676.613        -159.242          49.250    21473440.660    87930143.828        -123.934          45.750  
R22  19198187.200   102481269.645        -800.012          54.750    19198194.140    79707654.574        -620.965          53.250  
R13  20377047.780   108812337.727        2734.469          37.250    20377059.600    84631836.418        2127.848          42.000  
R12  19224144.420   102691975.832        -767.508          54.750    19224152.980    79871543.117        -597.680          51.750  
R23  20752363.660   111011186.824        3021.316          48.750                                                                  
R21  22137505.960   118462321.590       -3853.867          41.250                                                                  
R11  22688752.440   121241871.320       -4006.484          44.250    22688772.140    94299258.102       -3119.164          43.500  
C23  23451803.140   122119687.895       -2673.020          51.000                                                                  
C28  21854677.200   113803044.668        1217.059          48.000                                                                  
C37  22163150.980   115409350.594         265.477          52.750                                                                  
E15  25313096.040   133021218.332       -1929.309          50.500    25313102.480   101925359.875       -1478.355          51.250  
E13  23674625.880   124411004.020         977.043          46.750    23674633.400    95327927.020         749.199          49.250  
E21  23448409.820   123222228.691         319.563          49.500    23448415.020    94417036.656         244.324          51.250  
> 2024 04 10 10 38 02.0000000  0 16       0.000000000000
G28  21558782.520   113292181.109       -2004.918          45.250    21558789.620    88279638.527       -1561.172          42.750  
G18  21800276.460   114561230.574        2659.277          48.000    21800283.740    89268513.586        2070.641          48.750  
G29  20712688.980   108845919.766       -1237.992          49.000    20712692.920    84815022.555        -965.066          48.000  
G31  21473461.060   112843805.555        -160.855          49.000    21473465.320    87930244.297        -123.785          45.750  
R22  19198331.260   102482038.141        -799.160          54.750    19198338.340    79708252.285        -622.781          53.250  
R13  20376529.060   108809570.164        2736.176          37.250    20376542.380    84629683.863        2129.320          42.500  
R12  19224282.480   102692712.934        -768.230          55.000    19224291.240    79872116.422        -597.902          51.750  
R23  20751793.620   111008134.348        3021.070          48.750                                                                  
R21  22138219.880   118466144.035       -3852.707          40.750                                                                  
R11  22689496.240   121245848.555       -4008.234          43.750    22689516.620    94302351.473       -3116.230          43.500  
C23  23452310.320   122122329.926       -2671.879          50.750                                                                  
C28  21854437.540   113801796.375        1216.793          48.000                                                                  
C37  22163094.320   115409055.402         264.656          52.500                                                                  
E15  25313457.200   133023117.188       -1929.371          50.250    25313463.940   101926814.848       -1478.031          51.500  
E13  23674434.120   124409996.055         977.648          46.500    23674441.440    95327154.672         748.930          49.000  
E21  23448343.340   123221878.824         319.406          49.250    23448348.420    94416768.590         244.637          51.000  
> 2024 04 10 10 38 03.0000000  0 16       0.000000000000
G28  21559158.220   113294154.008       -2002.512          45.500    21559165.480    88281175.848       -1560.418          43.000  
G18  21799764.820   114558541.863        2659.336          48.000    21799772.200    89266418.473        2071.063          48.750  
G29  20712919.000   108847127.473       -1238.063          48.750    20712922.580    84815963.617        -963.551          47.750  
G31  21473485.640   112843934.395        -158.883          49.000    21473489.300    87930344.695        -125.730          45.250  
R22  19198475.140   102482806.586        -799.047          54.750    19198482.320    79708849.965        -621.758          53.500  
R13  20376011.440   108806802.281        2737.371          38.000    20376024.880    84627531.066        2129.469          42.250  
R12  19224420.180   102693449.988        -767.684          55.000    19224429.200    79872689.688        -596.055          51.750  
R23  20751222.940   111005081.625        3022.273          48.500                                                                  
R21  22138934.300   118469965.902       -3854.219          41.000                                                                  
R11  22690239.980   121249825.230       -4006.738          43.250    22690260.440    94305444.430       -3117.547          43.250  
C23  23452817.380   122124971.492       -2672.480          50.000                                                                  
C28  21854197.680   113800547.711        1219.762          47.750                                                                  
C37  22163037.440   115408759.941         265.191          52.000                                                                  
E15  25313818.180   133025015.602       -1929.348          49.750    25313825.280   101928269.473       -1477.832          51.500  
E13  23674242.820   124408987.766         978.336          46.500    23674249.400    95326382.094         748.039          49.000  
E21  23448276.560   123221528.469         320.387          49.250    23448281.680    94416500.145         247.145          51.250  
> 2024 04 10 10 38 04.0000000  0 16       0.000000000000
G28  21559533.640   113296126.207       -2001.133          46.000    21559541.040    88282712.652       -1561.254          43.000  
G18  21799253.340   114555852.344        2658.473          48.000    21799260.560    89264322.746        2071.613          48.750  
G29  20713148.400   108848334.297       -1238.500          48.750    20713152.340    84816904.012        -963.637          47.750  
G31  21473510.100   112844062.676        -158.520          49.000    21473513.780    87930444.660        -123.137          45.250  
R22  19198618.980   102483574.520        -798.957          54.500    19198626.580    79709447.250        -621.523          53.750  
R13  20375492.620   108804033.672        2738.309          37.500    20375504.980    84625377.688        2128.980          43.000  
R12  19224558.240   102694186.531        -766.895          55.000    19224567.000    79873262.555        -595.918          51.750  
R23  20750652.260   111002028.191        3023.242          48.250                                                                  
R21  22139647.080   118473786.727       -3852.625          40.000                                                                  
R11  22690984.320   121253800.957       -4006.266          44.250    22691003.240    94308536.641       -3117.512          43.250  
C23  23453324.320   122127612.180       -2671.750          50.250                                                                  
C28  21853958.000   113799298.219        1218.848          48.250                                                                  
C37  22162980.540   115408463.770         266.406          52.000                                                                  
E15  25314179.120   133026913.133       -1928.117          49.250    25314186.440   101929723.422       -1477.352          51.500  
E13  23674051.060   124407978.707         978.395          46.500    23674057.240    95325608.910         749.957          49.000  
E21  23448209.840   123221177.156         321.020          49.250    23448214.760    94416230.961         247.254          51.000  
> 2024 04 10 10 38 05.0000000  0 16       0.000000000000
G28  21559907.980   113298093.688       -2000.773          45.500    21559915.680    88284245.754       -1559.191          43.250  
G18  21798740.900   114553157.980        2659.621          48.250    21798747.840    89262223.250        2072.734          49.000  
G29  20713377.200   108849536.199       -1236.535          48.500    20713380.860    84817840.570        -962.961          47.500  
G31  21473533.460   112844186.328        -159.883          48.500    21473537.000    87930541.016        -123.734          45.250  
R22  19198761.820   102484337.813        -798.539          54.250    19198769.480    79710040.918        -621.488          53.500  
R13  20374974.200   108801260.180        2738.559          36.750    20374986.080    84623220.516        2130.992          42.750  
R12  19224695.240   102694918.445        -767.285          54.750    19224704.400    79873831.824        -597.066          51.750  
R23  20750080.620   110998969.922        3021.969          48.000                                                                  
R21  22140359.680   118477602.426       -3853.477          39.250                                                                  
R11  22691727.920   121257771.586       -4005.699          44.000    22691745.040    94311624.930       -3115.422          42.500  
C23  23453830.500   122130247.930       -2670.016          50.500                                                                  
C28  21853717.120   113798043.906        1220.383          48.000                                                                  
C37  22162922.740   115408162.859         265.691          52.250                                                                  
E15  25314539.200   133028805.715       -1927.883          49.500    25314546.580   101931173.598       -1477.145          51.750  
E13  23673857.720   124406964.801         980.102          46.250    23673864.240    95324832.051         750.609          49.000  
E21  23448142.020   123220820.828         321.891          49.500    23448146.980    94415957.941         245.504          51.250  
> 2024 04 10 10 38 06.0000000  0 16       0.000000000000
G28  21560283.280   113300066.211       -2001.801          44.750    21560291.200    88285782.773       -1559.824          43.500  
G18  21798229.340   114550468.527        2660.480          48.500    21798236.060    89260127.582        2073.480          48.750  
G29  20713606.820   108850742.949       -1235.527          48.250    20713610.660    84818780.875        -964.793          47.500  
G31  21473558.100   112844315.129        -157.633          48.750    21473561.380    87930641.383        -123.344          45.000  
R22  19198905.720   102485106.371        -798.734          53.750    19198913.140    79710638.688        -621.305          53.250  
R13  20374455.300   108798491.730        2739.711          36.750    20374467.800    84621067.281        2130.070          43.000  
R12  19224833.440   102695655.660        -767.129          54.750    19224842.180    79874405.199        -596.484          51.500  
R23  20749509.680   110995916.723        3024.754          47.750                                                                  
R21  22141073.080   118481422.820       -3849.941          38.000                                                                  
R11  22692470.480   121261747.078       -4003.137          42.250    22692488.760    94314716.926       -3115.328          43.000  
C23  23454337.520   122132888.434       -2669.105          51.000                                                                  
C28  21853477.000   113796794.430        1221.457          48.000                                                                  
C37  22162865.940   115407866.883         267.141          52.500                                                                  
E15  25314900.260   133030703.098       -1925.828          49.500    25314907.560   101932627.434       -1475.117          51.500  
E13  23673665.800   124405955.820         978.930          46.500    23673672.260    95324058.941         750.652          49.250  
E21  23448075.240   123220469.238         322.965          49.500    23448080.060    94415688.547         247.219          51.250  
> 2024 04 10 10 38 07.0000000  0 16       0.000000000000
G28  21560658.820   113302038.938       -2002.574          44.750    21560666.680    88287319.953       -1559.855          43.250  
G18  21797717.800   114547779.176        2661.250          49.000    21797724.100    89258031.988        2074.277          48.750  
G29  20713836.280   108851949.707       -1235.656          48.250    20713839.960    84819721.207        -962.695          47.250  
G31  21473582.920   112844444.238        -156.918          48.500    21473585.720    87930741.984        -122.281          44.750  
R22  19199049.660   102485875.293        -797.461          53.750    19199057.080    79711236.742        -621.223          53.000  
R13  20373938.100   108795723.395        2741.727          36.250    20373950.300    84618914.141        2131.574          42.750  
R12  19224971.560   102696393.262        -767.258          54.750    19224979.980    79874978.906        -597.000          51.500  
R23  20748938.640   110992863.730        3023.629          47.750                                                                  
R21  22141789.300   118485243.098       -3847.523          38.750                                                                  
R11  22693214.300   121265722.477       -4006.105          42.000    22693232.540    94317808.867       -3113.066          42.750  
C23  23454844.680   122135528.902       -2667.855          51.000                                                                  
C28  21853237.100   113795545.004        1220.082          48.000                                                                  
C37  22162809.360   115407571.059         266.781          52.750                                                                  
E15  25315261.660   133032600.469       -1924.465          49.500    25315268.580   101934081.266       -1476.313          51.750  
E13  23673473.660   124404946.973         979.531          46.500    23673480.240    95323285.918         751.867          49.250  
E21  23448008.220   123220117.586         322.516          49.500    23448013.120    94415419.098         248.691          51.250  
> 2024 04 10 10 38 08.0000000  0 16       0.000000000000
G28  21561033.800   113304010.895       -2001.438          44.750    21561042.180    88288856.539       -1559.004          43.250  
G18  21797206.340   114545088.922        2660.750          49.250    21797212.320    89255935.688        2074.055          49.000  
G29  20714065.860   108853155.484       -1236.445          48.500    20714069.260    84820660.770        -962.320          47.500  
G31  21473607.180   112844572.699        -158.004          49.000    21473610.000    87930842.090        -123.035          44.750  
R22  19199193.300   102486643.617        -798.066          54.000    19199201.200    79711834.320        -620.855          53.000  
R13  20373417.540   108792954.230        2740.797          36.750    20373431.660    84616760.332        2130.508          43.000  
R12  19225109.580   102697130.285        -767.324          55.000    19225118.320    79875552.137        -596.996          51.500  
R23  20748367.780   110989809.930        3023.867          48.250                                                                  
R21  22142504.660   118489062.203       -3849.664          39.750                                                                  
R11  22693958.700   121269696.785       -4004.641          42.750    22693974.320    94320900.000       -3114.723          41.500  
C23  23455351.420   122138168.379       -2669.191          50.500                                                                  
C28  21852996.660   113794294.664        1221.535          47.750                                                                  
C37  22162752.460   115407274.430         268.488          52.500                                                                  
E15  25315622.580   133034496.852       -1926.930          49.500    25315629.500   101935534.332       -1476.699          51.500  
E13  23673281.580   124403937.234         981.336          46.750    23673288.080    95322512.215         751.590          49.000  
E21  23447941.240   123219764.867         323.258          49.750    23447946.040    94415148.844         248.375          51.000  
> 2024 04 10 10 38 09.0000000  0 16       0.000000000000
G28  21561407.920   113305976.664       -2000.469          45.000    21561416.440    88290388.309       -1558.531          43.500  
G18  21796693.520   114542392.379        2661.500          49.750    21796699.120    89253834.480        2073.922          48.750  
G29  20714294.080   108854354.887       -1234.887          48.750    20714297.520    84821595.363        -962.230          47.500  
G31  21473630.660   112844695.086        -157.543          49.500    21473633.280    87930937.457        -124.039          44.750  
R22  19199336.140   102487405.824        -797.539          54.250    19199344.200    79712427.148        -621.133          53.250  
R13  20372898.440   108790178.699        2741.211          37.000    20372911.280    84614601.578        2130.828          43.000  
R12  19225246.380   102697861.203        -766.934          55.000    19225255.340    79876120.625        -596.953          51.500  
R23  20747795.240   110986749.797        3022.875          47.250                                                                  
R21  22143218.480   118492874.680       -3847.410          39.500                                                                  
R11  22694700.840   121273664.539       -4005.043          41.500    22694717.620    94323986.012       -3112.926          41.000  
C23  23455857.060   122140801.504       -2667.605          50.250                                                                  
C28  21852755.420   113793038.059        1222.082          47.500                                                                  
C37  22162694.320   115406971.625         267.602          52.250                                                                  
E15  25315981.820   133036386.840       -1926.270          49.750    25315989.100   101936982.504       -1474.422          51.500  
E13  23673088.000   124402921.207         981.203          46.750    23673094.660    95321733.703         750.258          49.000  
E21  23447872.940   123219405.691         324.488          49.750    23447877.700    94414873.625         248.051          51.000  
> 2024 04 10 10 38 10.0000000  0 16       0.000000000000
G28  21561783.040   113307947.906       -2000.992          44.750    21561791.620    88291924.340       -1557.961          43.750  
G18  21796181.640   114539701.211        2661.520          49.750    21796186.840    89251737.461        2073.023          48.750  
G29  20714523.400   108855559.594       -1235.895          48.750    20714526.800    84822534.086        -962.473          47.500  
G31  21473655.120   112844823.086        -158.930          49.000    21473657.340    87931037.184        -123.566          44.500  
R22  19199480.320   102488173.777        -798.531          54.500    19199487.900    79713024.441        -621.258          53.000  
R13  20372381.020   108787408.656        2738.516          37.250    20372393.100    84612447.105        2130.809          43.000  
R12  19225384.440   102698597.875        -767.371          55.000    19225393.340    79876693.590        -596.879          51.500  
R23  20747223.940   110983695.219        3024.434          47.250                                                                  
R21  22143931.620   118496692.414       -3848.504          39.750                                                                  
R11  22695442.780   121277637.555       -4003.781          40.500    22695460.140    94327076.121       -3113.891          41.250  
C23  23456363.740   122143439.824       -2669.336          50.750                                                                  
C28  21852515.040   113791786.742        1220.492          48.000                                                                  
C37  22162637.240   115406674.215         267.188          52.500                                                                  
E15  25316342.880   133038282.105       -1926.219          49.750    25316349.840   101938434.707       -1476.352          51.250  
E13  23672895.160   124401910.586         981.313          46.500    23672902.380    95320959.305         751.285          48.750  
E21  23447805.660   123219051.727         323.645          50.000    23447810.280    94414602.383         248.543          51.000  
> 2024 04 10 10 38 11.0000000  0 16       0.000000000000
G28  21562158.040   113309919.215       -2000.453          44.750    21562166.840    88293460.410       -1559.789          44.000  
G18  21795669.760   114537009.969        2660.734          49.750    21795674.640    89249640.398        2073.055          48.750  
G29  20714752.780   108856764.137       -1234.949          48.750    20714755.880    84823472.699        -962.348          47.000  
G31  21473679.440   112844951.230        -158.352          49.000    21473681.700    87931137.039        -121.801          44.750  
R22  19199624.480   102488941.930        -798.660          54.750    19199632.000    79713621.895        -621.266          53.250  
R13  20371859.620   108784638.602        2739.262          36.750    20371874.820    84610292.629        2130.102          43.250  
R12  19225522.400   102699334.762        -767.594          55.000    19225531.500    79877266.730        -596.977          51.500  
R23  20746652.500   110980640.664        3023.898          47.000                                                                  
R21  22144645.960   118500509.840       -3846.422          40.250                                                                  
R11  22696182.920   121281610.379       -4003.379          38.750    22696203.180    94330166.074       -3113.637          40.750  
C23  23456870.440   122146077.961       -2667.832          50.750                                                                  
C28  21852274.360   113790535.328        1221.418          48.000                                                                  
C37  22162580.160   115406376.793         267.574          52.750                                                                  
E15  25316703.560   133040177.191       -1925.426          49.750    25316710.540   101939886.781       -1476.363          51.250  
E13  23672703.240   124400899.887         979.742          46.750    23672710.100    95320184.898         751.863          48.500  
E21  23447738.140   123218697.504         322.230          50.000    23447742.920    94414330.973         248.121          50.750  
> 2024 04 10 10 38 12.0000000  0 16       0.000000000000
G28  21562533.460   113311892.066       -2003.266          44.500    21562542.280    88294997.719       -1558.645          44.250  
G18  21795157.960   114534320.168        2660.266          50.250    21795162.640    89247544.457        2072.848          48.500  
G29  20714982.340   108857970.039       -1234.449          49.000    20714985.260    84824412.363        -963.320          47.250  
G31  21473704.100   112845081.059        -159.590          49.500    21473706.400    87931238.211        -123.371          44.750  
R22  19199769.080   102489711.848        -799.965          54.750    19199776.000    79714220.719        -622.160          53.250  
R13  20371341.840   108781870.090        2738.859          36.500    20371356.540    84608139.320        2130.875          43.500  
R12  19225660.520   102700073.422        -768.145          55.000    19225669.700    79877841.242        -598.582          51.500  
R23  20746081.220   110977587.672        3023.383          46.750                                                                  
R21  22145360.320   118504328.473       -3848.559          40.750                                                                  
R11  22696925.620   121285584.492       -4004.660          38.250    22696946.000    94333257.066       -3112.918          40.500  
C23  23457377.360   122148717.410       -2668.223          50.500                                                                  
C28  21852034.240   113789285.297        1220.727          47.500                                                                  
C37  22162523.380   115406080.879         267.539          52.500                                                                  
E15  25317064.080   133042073.621       -1925.527          49.500    25317071.460   101941339.879       -1475.301          51.000  
E13  23672511.400   124399890.648         980.551          46.750    23672518.160    95319411.574         749.941          48.500  
E21  23447670.920   123218344.574         323.309          49.750    23447675.880    94414060.547         248.172          50.750  
> 2024 04 10 10 38 13.0000000  0 16       0.000000000000
G28  21562908.800   113313865.570       -2002.488          45.250    21562917.660    88296535.508       -1559.324          44.000  
G18  21794646.480   114531630.895        2659.539          50.750    21794650.900    89245448.922        2072.234          48.750  
G29  20715212.080   108859176.387       -1236.074          50.000    20715215.020    84825352.359        -963.523          47.000  
G31  21473728.640   112845211.641        -160.762          49.500    21473731.220    87931339.949        -124.266          44.250  
R22  19199913.680   102490482.582        -801.297          55.000    19199920.680    79714820.180        -622.527          53.250  
R13  20370823.460   108779102.145        2735.363          37.000    20370837.760    84605986.473        2128.434          43.500  
R12  19225799.360   102700812.926        -769.773          55.500    19225807.780    79878416.406        -599.453          51.500  
R23  20745510.140   110974535.340        3022.457          46.750                                                                  
R21  22146073.700   118508147.379       -3847.852          40.250                                                                  
R11  22697669.880   121289559.027       -4004.887          37.000    22697688.780    94336348.320       -3114.422          40.000  
C23  23457884.380   122151357.277       -2669.125          51.000                                                                  
C28  21851794.100   113788035.773        1220.828          47.500                                                                  
C37  22162466.720   115405785.555         265.320          52.750                                                                  
E15  25317424.760   133043970.465       -1926.516          49.000    25317432.400   101942793.309       -1476.691          51.000  
E13  23672319.020   124398881.953         978.797          46.500    23672326.180    95318638.688         751.086          48.500  
E21  23447603.500   123217991.996         321.992          49.250    23447608.820    94413790.379         246.512          50.750  
> 2024 04 10 10 38 14.0000000  0 16       0.000000000000
G28  21563284.440   113315838.223       -2002.820          45.250    21563292.960    88298072.648       -1560.496          44.000  
G18  21794134.560   114528940.680        2658.832          50.250    21794138.980    89243352.648        2072.680          48.750  
G29  20715441.600   108860381.715       -1235.176          49.750    20715444.500    84826291.582        -963.043          47.000  
G31  21473753.420   112845341.504        -162.273          49.500    21473755.360    87931441.137        -126.410          43.750  
R22  19200058.220   102491252.648        -802.254          55.000    19200064.940    79715419.113        -623.691          53.500  
R13  20370306.540   108776333.246        2734.270          37.000    20370319.500    84603832.891        2128.672          43.500  
R12  19225937.880   102701551.781        -770.117          55.500    19225945.960    79878991.078        -598.555          51.500  
R23  20744939.340   110971482.133        3022.762          46.250                                                                  
R21  22146785.600   118511965.043       -3848.445          38.750                                                                  
R11  22698411.400   121293532.313       -4002.766          36.000    22698430.640    94339438.660       -3115.445          39.250  
C23  23458391.320   122153996.078       -2669.590          50.750                                                                  
C28  21851553.980   113786785.281        1219.344          47.750                                                                  
C37  22162409.840   115405489.355         266.109          52.750                                                                  
E15  25317785.240   133045866.270       -1927.438          48.750    25317793.180   101944245.938       -1476.043          51.000  
E13  23672127.400   124397872.336         980.488          46.500    23672134.060    95317865.074         750.648          48.500  
E21  23447536.380   123217638.316         322.160          49.000    23447541.540    94413519.383         247.133          50.750  
> 2024 04 10 10 38 15.0000000  0 16       0.000000000000
G28  21563659.980   113317811.961       -2005.238          45.000    21563668.220    88299610.652       -1561.973          44.000  
G18  21793622.740   114526251.422        2659.641          50.250    21793627.240    89241257.121        2071.785          49.000  
G29  20715671.480   108861587.914       -1237.410          50.000    20715673.960    84827231.488        -963.605          47.250  
G31  21473778.500   112845472.559        -161.449          49.500    21473779.920    87931543.277        -126.387          44.000  
R22  19200202.780   102492023.969        -802.043          55.000    19200209.540    79716019.035        -623.688          53.500  
R13  20369788.560   108773565.395        2735.789          37.250    20369800.860    84601680.137        2129.020          43.500  
R12  19226076.540   102702291.906        -771.289          55.250    19226084.100    79879566.723        -599.684          51.500  
R23  20744368.300   110968430.012        3021.414          45.750                                                                  
R21  22147499.720   118515783.473       -3848.074          39.500                                                                  
R11  22699154.400   121297506.465       -4005.406          36.750    22699174.920    94342529.648       -3113.961          39.250  
C23  23458898.240   122156635.715       -2669.676          50.750                                                                  
C28  21851314.120   113785535.703        1219.602          48.000                                                                  
C37  22162353.240   115405194.180         265.859          52.750                                                                  
E15  25318145.680   133047762.934       -1926.875          48.750    25318154.020   101945699.234       -1476.945          51.250  
E13  23671935.100   124396863.680         977.906          46.250    23671941.920    95317092.230         750.535          48.500  
E21  23447469.120   123217285.426         322.578          49.000    23447474.220    94413249.004         246.980          50.750  
> 2024 04 10 10 38 16.0000000  0 16       0.000000000000
G28  21564034.920   113319781.027       -2004.539          45.500    21564042.760    88301144.973       -1562.070          44.250  
G18  21793110.040   114523557.379        2658.129          50.000    21793114.700    89239157.871        2070.820          49.500  
G29  20715900.120   108862789.258       -1237.270          49.750    20715902.520    84828167.598        -963.938          47.250  
G31  21473802.300   112845599.055        -161.840          49.500    21473803.720    87931641.836        -124.719          44.000  
R22  19200346.480   102492790.699        -803.145          54.750    19200353.120    79716615.383        -625.156          53.750  
R13  20369269.480   108770792.703        2736.426          37.250    20369281.860    84599523.605        2128.582          43.750  
R12  19226214.300   102703027.445        -771.930          55.250    19226222.100    79880138.801        -599.406          51.500  
R23  20743796.700   110965373.125        3021.875          45.500                                                                  
R21  22148213.560   118519596.801       -3848.996          39.250                                                                  
R11  22699896.820   121301475.570       -4007.340          36.250    22699917.360    94345616.738       -3117.168          38.750  
C23  23459404.380   122159270.484       -2670.625          50.750                                                                  
C28  21851073.080   113784281.344        1218.840          47.500                                                                  
C37  22162295.820   115404894.316         264.188          52.500                                                                  
E15  25318506.260   133049654.703       -1927.820          49.000    25318514.020   101947148.773       -1476.477          51.500  
E13  23671742.120   124395850.254         977.699          46.000    23671748.940    95316315.715         749.863          48.750  
E21  23447401.120   123216927.578         322.879          49.000    23447406.040    94412974.809         247.641          51.000  
> 2024 04 10 10 38 17.0000000  0 16       0.000000000000
G28  21564410.940   113321756.922       -2005.594          45.750    21564418.880    88302684.645       -1562.773          44.000  
G18  21792598.600   114520870.047        2657.438          50.250    21792603.600    89237063.848        2071.121          49.500  
G29  20716129.840   108863997.219       -1237.762          49.750    20716132.460    84829108.871        -964.000          47.250  
G31  21473827.640   112845732.508        -163.984          49.500    21473829.180    87931745.816        -125.938          44.000  
R22  19200491.380   102493564.547        -803.855          54.750    19200498.200    79717217.258        -625.320          53.750  
R13  20368749.560   108768026.898        2738.395          37.000    20368763.080    84597372.410        2128.496          43.750  
R12  19226353.540   102703770.113        -772.375          55.500    19226360.480    79880716.438        -600.098          51.250  
R23  20743226.200   110962323.191        3020.313          45.750                                                                  
R21  22148927.460   118523416.734       -3847.676          39.750                                                                  
R11  22700639.560   121305451.375       -4008.789          35.250    22700661.880    94348708.996       -3115.141          40.000  
C23  23459911.680   122161911.789       -2669.980          51.000                                                                  
C28  21850833.640   113783033.617        1218.797          48.000                                                                  
C37  22162239.560   115404601.180         264.328          53.000                                                                  
E15  25318867.000   133051553.090       -1928.898          48.750    25318875.380   101948603.379       -1476.598          51.750  
E13  23671550.780   124394843.570         977.754          46.250    23671557.340    95315544.352         748.465          48.750  
E21  23447334.060   123216576.281         320.965          49.000    23447339.280    94412705.637         246.977          51.000  
> 2024 04 10 10 38 18.0000000  0 16       0.000000000000
G28  21564786.780   113323734.613       -2008.008          45.500    21564794.880    88304225.688       -1562.344          43.750  
G18  21792087.480   114518184.402        2657.352          50.750    21792092.260    89234971.152        2071.914          49.250  
G29  20716360.160   108865206.789       -1237.898          50.250    20716362.640    84830051.391        -965.047          47.000  
G31  21473853.380   112845867.844        -162.793          50.000    21473854.860    87931851.285        -127.563          44.000  
R22  19200636.400   102494340.395        -805.078          54.500    19200643.700    79717820.691        -625.188          53.750  
R13  20368232.720   108765262.879        2734.352          37.250    20368245.740    84595222.582        2127.742          43.500  
R12  19226492.780   102704514.816        -773.754          55.250    19226499.340    79881295.652        -601.887          51.000  
R23  20742655.600   110959275.023        3019.793          45.250                                                                  
R21  22149641.260   118527238.137       -3850.816          38.500                                                                  
R11  22701384.340   121309428.664       -4005.395          35.250    22701405.600    94351802.469       -3115.301          38.750  
C23  23460419.280   122164554.645       -2670.902          51.000                                                                  
C28  21850594.400   113781787.520        1218.309          48.000                                                                  
C37  22162183.500   115404309.785         263.547          52.500                                                                  
E15  25319229.520   133053453.059       -1928.004          50.000    25319236.840   101950059.195       -1478.148          51.250  
E13  23671359.080   124393838.555         977.770          46.250    23671366.140    95314774.289         748.656          48.750  
E21  23447267.280   123216226.488         320.684          49.250    23447272.780    94412437.609         245.539          51.000  
> 2024 04 10 10 38 19.0000000  0 16       0.000000000000
G28  21565162.980   113325711.020       -2006.652          45.750    21565170.760    88305765.742       -1563.285          43.750  
G18  21791576.160   114515497.359        2656.758          50.750    21791581.060    89232877.352        2070.262          49.250  
G29  20716589.980   108866414.891       -1237.426          50.000    20716592.460    84830992.750        -964.902          47.250  
G31  21473879.000   112846002.027        -164.121          49.750    21473880.120    87931955.848        -127.844          43.500  
R22  19200781.420   102495115.086        -806.012          54.500    19200788.640    79718423.234        -627.145          53.500  
R13  20367714.840   108762497.398        2736.336          37.750    20367728.460    84593071.699        2127.180          44.000  
R12  19226631.620   102705258.387        -774.586          55.000    19226638.440    79881873.977        -602.352          51.000  
R23  20742085.200   110956225.543        3019.633          44.750                                                                  
R21  22150352.760   118531057.797       -3852.551          37.500                                                                  
R11  22702129.680   121313404.414       -4007.828          37.000    22702149.480    94354894.691       -3116.824          38.500  
C23  23460926.520   122167196.004       -2670.324          50.750                                                                  
C28  21850354.760   113780540.000        1217.840          48.000                                                                  
C37  22162127.120   115404017.063         263.328          52.500                                                                  
E15  25319590.560   133055351.516       -1928.590          49.750    25319598.080   101951513.855       -1478.082          51.250  
E13  23671168.120   124392832.176         975.684          46.500    23671174.680    95314003.176         747.430          48.750  
E21  23447200.340   123215875.141         320.379          49.000    23447205.840    94412168.395         246.070          50.750  
> 2024 04 10 10 38 20.0000000  0 18       0.000000000000
G28  21565537.680   113327677.820       -2007.086          46.500    21565544.780    88307298.336       -1565.395          43.750  
G18  21791062.880   114512800.590        2655.484          50.500    21791067.940    89230775.965        2071.152          49.500  
G29  20716818.100   108867613.180       -1239.277          50.250    20716820.300    84831926.504        -965.449          47.250  
G31  21473902.700   112846126.719        -164.211          50.000    21473903.720    87932053.020        -129.148          43.500  
G05  23601971.460   124029149.3521       1493.406          31.250                                                                  
G25  22108926.100   116183199.891       -2946.859          43.750                                                                  
R22  19200925.180   102495880.188        -807.340          55.000    19200931.900    79719018.309        -627.551          53.750  
R13  20367194.860   108759722.160        2736.770          37.250    20367209.080    84590913.168        2126.988          44.000  
R12  19226768.800   102705992.355        -775.715          55.250    19226775.900    79882444.840        -603.313          51.000  
R23  20741512.960   110953166.266        3019.926          44.750                                                                  
R21  22151064.500   118534867.391       -3851.859          38.750                                                                  
R11  22702875.420   121317370.152       -4005.426          39.250    22702892.160    94357979.090       -3117.313          40.000  
C23  23461431.980   122169827.598       -2670.867          51.000                                                                  
C28  21850113.280   113779282.824        1217.801          48.250                                                                  
C37  22162069.140   115403714.781         262.414          52.750                                                                  
E15  25319949.800   133057240.156       -1928.273          49.500    25319957.560   101952960.996       -1478.629          51.500  
E13  23670974.940   124391816.082         974.992          46.500    23670981.280    95313224.613         746.703          48.750  
E21  23447131.800   123215513.914         320.824          49.000    23447137.080    94411891.609         245.250          50.750  
> 2024 04 10 10 38 21.0000000  0 17       0.000000000000
G28  21565912.700   113329647.563       -2007.953          47.000    21565919.500    88308833.191       -1565.379          43.500  
G18  21790550.140   114510106.641        2654.953          50.750    21790555.460    89228676.793        2069.254          49.750  
G29  20717046.620   108868814.211       -1240.367          50.750    20717049.060    84832862.348        -966.254          47.250  
G31  21473927.260   112846254.461        -166.215          50.500    21473927.760    87932152.527        -128.242          43.500  
G25  22109479.220   116186110.230       -2949.641          43.750                                                                  
R22  19201068.820   102496648.438        -808.316          55.250    19201075.900    79719615.840        -628.336          53.750  
R13  20366675.740   108756949.836        2734.684          37.500    20366689.040    84588756.902        2125.117          44.000  
R12  19226907.080   102706729.516        -776.715          55.500    19226913.780    79883018.184        -604.082          51.000  
R23  20740942.280   110950109.934        3017.250          44.750                                                                  
R21  22151777.940   118538679.605       -3853.082          39.250                                                                  
R11  22703619.880   121321338.512       -4006.785          40.000    22703636.660    94361065.609       -3116.074          40.750  
C23  23461938.120   122172461.879       -2672.852          51.250                                                                  
C28  21849872.340   113778028.410        1216.594          48.250                                                                  
C37  22162011.580   115403415.352         261.340          52.500                                                                  
E15  25320310.020   133059131.512       -1929.234          49.750    25320317.560   101954410.191       -1478.770          51.500  
E13  23670782.520   124390802.836         975.215          46.250    23670788.560    95312448.207         745.551          48.750  
E21  23447063.640   123215155.316         319.770          49.000    23447068.960    94411616.836         244.523          50.750  
> 2024 04 10 10 38 22.0000000  0 17       0.000000000000
G28  21566291.460   113331639.539       -2009.449          46.250    21566298.300    88310385.406       -1564.977          43.750  
G18  21790041.600   114507434.828        2653.715          50.250    21790047.100    89226594.859        2067.691          49.750  
G29  20717279.240   108870037.297       -1240.719          50.250    20717281.840    84833815.398        -966.012          47.500  
G31  21473956.200   112846404.559        -166.762          50.750    21473956.460    87932269.492        -130.016          43.500  
G25  22110037.040   116189042.551       -2950.512          43.750                                                                  
R22  19201217.300   102497439.449        -809.266          55.250    19201223.900    79720231.070        -628.695          53.750  
R13  20366163.760   108754200.020        2732.375          37.500    20366174.540    84586618.156        2123.828          43.750  
R12  19227049.580   102707489.504        -778.113          55.500    19227055.800    79883609.281        -605.703          50.750  
R23  20740374.880   110947076.215        3015.125          44.500                                                                  
R21  22152494.140   118542514.141       -3852.270          39.250                                                                  
R11  22704367.020   121325329.199       -4010.598          41.000    22704384.440    94364169.488       -3116.887          40.750  
C23  23462448.260   122175117.969       -2673.137          51.250                                                                  
C28  21849635.720   113776795.887        1215.766          48.250                                                                  
C37  22161958.280   115403137.930         260.027          52.500                                                                  
E15  25320674.120   133061044.902       -1932.285          49.500    25320681.800   101955876.301       -1479.906          51.500  
E13  23670594.020   124389811.715         972.738          46.250    23670599.860    95311688.797         745.422          48.500  
E21  23446999.620   123214818.695         317.875          49.000    23447004.960    94411358.914         246.078          50.750  
> 2024 04 10 10 38 23.0000000  0 18       0.000000000000
G28  21566669.260   113333624.832       -2011.715          46.500    21566675.920    88311932.367       -1567.023          43.500  
G18  21789531.580   114504756.211        2652.953          50.250    21789537.060    89224507.629        2067.188          49.250  
G29  20717510.620   108871253.496       -1242.723          50.250    20717513.380    84834763.082        -969.043          47.250  
G31  21473983.540   112846548.082        -169.203          50.500    21473984.000    87932381.324        -132.543          43.750  
G05  23601112.820   124024680.3163       1486.691          33.000                                                                  
G25  22110593.820   116191967.891       -2950.297          44.000                                                                  
R22  19201364.640   102498223.844        -810.648          55.500    19201371.120    79720841.164        -631.066          53.750  
R13  20365646.640   108751443.352        2730.102          37.000    20365658.640    84584474.066        2123.602          43.750  
R12  19227190.360   102708242.879        -779.602          55.250    19227196.680    79884195.242        -606.172          50.750  
R23  20739805.720   110944035.637        3016.176          44.000                                                                  
R21  22153211.340   118546341.418       -3855.203          38.500                                                                  
R11  22705113.920   121329312.836       -4009.621          41.000    22705130.620    94367267.820       -3118.016          40.750  
C23  23462956.880   122177767.207       -2674.711          51.250                                                                  
C28  21849397.840   113775556.574        1213.281          48.250                                                                  
C37  22161903.700   115402853.824         258.602          52.500                                                                  
E15  25321036.540   133062951.371       -1932.605          49.500    25321044.600   101957337.098       -1480.363          51.500  
E13  23670404.320   124388813.820         971.734          46.500    23670410.000    95310924.164         744.570          48.500  
E21  23446933.980   123214475.109         318.043          48.750    23446939.520    94411095.629         242.410          50.750  
> 2024 04 10 10 38 24.0000000  0 18       0.000000000000
G28  21567046.720   113335608.152       -2011.785          46.250    21567053.120    88313477.824       -1566.887          43.500  
G18  21789021.320   114502075.508        2650.887          49.750    21789026.900    89222418.789        2065.785          49.250  
G29  20717741.560   108872467.523       -1242.656          49.750    20717744.240    84835709.086        -969.461          47.000  
G31  21474010.340   112846689.742        -170.273          50.000    21474010.860    87932491.723        -131.410          43.500  
G05  23600825.200   124023165.7622       1484.570          32.750                                                                  
G25  22111149.880   116194891.035       -2952.332          43.250                                                                  
R22  19201511.160   102499006.406        -811.488          55.500    19201518.200    79721449.816        -631.836          54.000  
R13  20365128.980   108748684.551        2728.781          37.500    20365142.120    84582328.371        2123.293          44.000  
R12  19227331.060   102708994.414        -780.582          55.500    19227337.500    79884779.758        -606.305          50.500  
R23  20739236.780   110940993.070        3013.047          43.750                                                                  
R21  22153926.160   118550166.387       -3856.469          39.000                                                                  
R11  22705860.320   121333294.191       -4010.082          40.500    22705876.380    94370364.465       -3120.770          40.750  
C23  23463465.460   122180414.258       -2675.730          51.250                                                                  
C28  21849159.440   113774315.188        1211.961          47.500                                                                  
C37  22161848.760   115402567.730         257.207          52.000                                                                  
E15  25321399.000   133064855.668       -1934.031          49.250    25321407.020   101958796.227       -1480.324          51.500  
E13  23670214.060   124387813.840         970.285          46.750    23670219.760    95310157.949         744.973          48.500  
E21  23446868.300   123214129.270         317.008          48.750    23446873.660    94410830.637         241.125          50.500  
> 2024 04 10 10 38 25.0000000  0 17       0.000000000000
G28  21567423.860   113337589.668       -2013.121          45.750    21567430.200    88315021.879       -1569.473          43.250  
G18  21788510.800   114499392.906        2650.891          49.500    21788516.420    89220328.449        2065.340          49.500  
G29  20717972.220   108873679.582       -1242.871          49.750    20717974.700    84836653.547        -969.805          47.250  
G31  21474037.040   112846829.742        -171.582          49.750    21474037.320    87932600.809        -134.070          43.500  
G25  22111705.300   116197812.117       -2951.887          43.000                                                                  
R22  19201657.420   102499787.328        -814.020          55.500    19201664.080    79722057.195        -631.590          53.750  
R13  20364610.800   108745923.941        2725.816          37.750    20364625.060    84580181.203        2120.945          43.750  
R12  19227471.540   102709744.277        -783.023          55.500    19227477.560    79885362.992        -609.262          50.500  
R23  20738667.640   110937948.656        3013.438          44.250                                                                  
R21  22154639.980   118553989.176       -3856.598          37.750                                                                  
R11  22706606.860   121337273.434       -4011.066          41.750    22706622.660    94373459.418       -3120.305          42.250  
C23  23463973.420   122183059.289       -2676.387          51.000                                                                  
C28  21848920.640   113773071.887        1211.215          47.500                                                                  
C37  22161793.420   115402279.816         256.320          52.250                                                                  
E15  25321761.420   133066757.965       -1933.871          49.250    25321769.040   101960253.840       -1481.000          51.500  
E13  23670023.240   124386811.992         969.344          47.000    23670029.060    95309390.320         742.324          48.750  
E21  23446802.260   123213781.363         315.785          48.750    23446807.460    94410564.090         241.887          50.750  
> 2024 04 10 10 38 26.0000000  0 17       0.000000000000
G28  21567803.500   113339585.504       -2014.074          45.500    21567809.960    88316577.063       -1567.746          43.500  
G18  21788002.880   114496724.484        2649.434          49.250    21788008.640    89218249.164        2065.602          49.750  
G29  20718205.680   108874905.719       -1245.105          49.750    20718208.060    84837608.984        -970.035          47.500  
G31  21474066.640   112846984.133        -173.410          49.500    21474066.680    87932721.137        -134.777          43.750  
G25  22112263.900   116200747.195       -2953.996          43.000                                                                  
R22  19201806.640   102500582.918        -815.031          55.750    19201813.100    79722675.984        -633.781          53.500  
R13  20364097.300   108743177.754        2728.160          37.500    20364110.000    84578045.273        2120.105          43.500  
R12  19227614.720   102710508.875        -783.453          55.250    19227621.020    79885957.672        -609.074          50.500  
R23  20738100.900   110934918.770        3010.293          44.250                                                                  
R21  22155356.860   118557826.176       -3857.020          38.500                                                                  
R11  22707355.640   121341266.914       -4013.566          42.250    22707370.260    94376565.457       -3120.871          42.000  
C23  23464483.880   122185718.262       -2678.527          51.250                                                                  
C28  21848684.600   113771842.586        1211.391          47.750                                                                  
C37  22161740.960   115402006.016         255.422          52.500                                                                  
E15  25322125.760   133068674.316       -1935.098          49.000    25322133.700   101961722.215       -1483.332          51.500  
E13  23669835.320   124385824.320         967.992          47.000    23669841.060    95308633.543         742.828          48.500  
E21  23446738.520   123213447.449         312.750          49.250    23446743.820    94410308.207         239.594          50.750  
> 2024 04 10 10 38 27.0000000  0 18       0.000000000000
G28  21568182.500   113341576.070       -2016.688          45.500    21568188.520    88318128.156       -1571.313          43.250  
G18  21787494.020   114494050.695        2648.469          49.250    21787500.000    89216165.688        2064.465          49.750  
G29  20718437.920   108876126.406       -1245.828          49.500    20718440.320    84838560.160        -971.668          47.500  
G31  21474095.040   112847133.391        -174.961          49.750    21474095.000    87932837.430        -137.945          43.750  
G05  23599969.440   124018680.9803       1482.086          31.500                                                                  
G25  22112821.380   116203676.723       -2954.582          42.750                                                                  
R22  19201955.140   102501373.328        -815.973          55.750    19201961.020    79723290.758        -634.570          53.500  
R13  20363580.720   108740426.137        2725.684          37.750    20363593.640    84575905.133        2120.223          43.500  
R12  19227756.740   102711268.328        -785.695          55.250    19227763.020    79886548.352        -611.066          50.500  
R23  20737534.020   110931883.523        3010.527          43.750                                                                  
R21  22156072.660   118561657.434       -3855.773          37.000                                                                  
R11  22708103.500   121345254.773       -4012.543          41.500    22708117.960    94379667.098       -3120.383          42.500  
C23  23464993.580   122188371.789       -2678.809          51.250                                                                  
C28  21848447.500   113770607.941        1208.266          47.500                                                                  
C37  22161687.280   115401726.961         254.035          52.750                                                                  
E15  25322489.460   133070585.191       -1935.727          49.250    25322497.320   101963186.391       -1483.574          51.500  
E13  23669646.460   124384831.305         967.484          47.250    23669651.980    95307872.656         740.953          48.500  
E21  23446673.820   123213108.004         313.727          48.750    23446679.260    94410048.137         240.398          50.750  
> 2024 04 10 10 38 28.0000000  0 18       0.000000000000
G28  21568562.860   113343573.570       -2017.051          46.000    21568568.360    88319684.648       -1569.574          43.500  
G18  21786986.400   114491383.711        2647.484          49.250    21786992.480    89214087.535        2062.453          49.750  
G29  20718671.460   108877353.828       -1246.273          49.500    20718674.060    84839516.598        -971.230          47.500  
G31  21474124.660   112847289.703        -176.563          49.500    21474124.260    87932959.219        -137.441          43.500  
G25  22113380.300   116206612.938       -2954.602          43.500                                                                  
R22  19202104.460   102502170.953        -817.449          55.750    19202110.700    79723911.125        -635.461          53.750  
R13  20363068.340   108737681.520        2723.984          37.500    20363080.460    84573770.445        2119.676          43.500  
R12  19227900.140   102712035.035        -786.086          55.250    19227906.300    79887144.668        -611.281          50.250  
R23  20736967.440   110928855.289        3006.488          43.000                                                                  
R21  22156788.140   118565495.387       -3853.766          36.000                                                                  
R11  22708851.840   121349249.375       -4013.625          42.000    22708867.340    94382774.004       -3121.813          42.500  
C23  23465504.420   122191031.957       -2679.949          51.500                                                                  
C28  21848211.540   113769380.020        1207.227          48.000                                                                  
C37  22161634.900   115401454.734         253.086          52.750                                                                  
E15  25322854.400   133072502.789       -1937.609          49.250    25322862.280   101964655.719       -1483.922          51.750  
E13  23669458.740   124383845.105         967.309          47.250    23669464.420    95307117.000         741.152          48.750  
E21  23446610.640   123212775.234         313.863          49.000    23446615.860    94409793.145         241.813          50.750  
E26  26273119.420   138066181.2151       3045.586          44.500    26273125.380   105790970.1021       2332.871          38.250  
> 2024 04 10 10 38 29.0000000  0 19       0.000000000000
G28  21568941.860   113345565.250       -2019.395          46.500    21568947.300    88321236.602       -1574.098          43.250  
G18  21786477.720   114488710.820        2646.168          50.000    21786483.680    89212004.746        2061.957          49.500  
G29  20718903.900   108878575.250       -1248.523          50.000    20718906.540    84840468.344        -971.000          47.250  
G31  21474153.200   112847440.316        -177.680          50.000    21474152.900    87933076.578        -140.063          43.500  
G05  23599391.240   124015666.2623       1479.063          33.500                                                                  
G25  22113937.680   116209543.055       -2957.586          43.750                                                                  
R22  19202252.800   102502962.840        -819.375          55.750    19202259.160    79724527.035        -638.270          53.750  
R13  20362554.260   108734930.965        2726.191          38.250    20362565.680    84571631.113        2118.250          43.500  
R12  19228042.180   102712796.004        -788.637          55.250    19228049.000    79887736.531        -613.859          50.500  
R23  20736400.020   110925821.180        3006.789          43.500                                                                  
R21  22157499.640   118569327.063       -3856.094          33.000                                                                  
R11  22709599.740   121353237.813       -4015.527          43.000    22709614.100    94385876.105       -3124.457          42.750  
C23  23466013.960   122193686.133       -2680.199          51.000                                                                  
C28  21847974.820   113768146.188        1208.125          48.000                                                                  
C37  22161581.500   115401176.707         251.766          52.750                                                                  
E15  25323217.960   133074414.363       -1938.922          49.250    25323226.080   101966120.434       -1485.430          51.500  
E13  23669269.920   124382853.000         965.109          47.000    23669275.620    95306356.820         739.512          48.500  
E21  23446546.140   123212436.363         311.328          49.000    23446551.400    94409533.488         239.895          50.750  
E26  26272534.660   138063110.488        3044.266          44.500    26272540.820   105788617.227        2331.242          38.000  
> 2024 04 10 10 38 30.0000000  0 19       0.000000000000
G28  21569320.680   113347554.293       -2020.500          46.750    21569325.760    88322786.520       -1572.148          42.750  
G18  21785968.620   114486035.176        2646.289          50.000    21785974.540    89209919.832        2062.004          49.500  
G29  20719135.700   108879793.840       -1249.613          50.250    20719138.380    84841417.902        -972.816          47.250  
G31  21474181.320   112847588.406        -178.934          50.000    21474181.120    87933191.977        -139.797          43.250  
G05  23599102.320   124014157.3872       1476.230          33.250                                                                  
G25  22114494.300   116212470.258       -2958.297          43.500                                                                  
R22  19202400.860   102503752.219        -820.121          56.000    19202406.920    79725140.996        -638.195          53.750  
R13  20362038.820   108732177.625        2723.410          38.000    20362050.040    84569489.629        2117.262          43.500  
R12  19228184.140   102713554.461        -789.348          54.750    19228190.980    79888326.441        -614.648          50.500  
R23  20735833.360   110922784.363        3005.387          43.500                                                                  
R21  22158211.080   118573155.695       -3860.098          32.250                                                                  
R11  22710347.560   121357223.289       -4018.016          42.500    22710361.120    94388975.887       -3123.906          42.750  
C23  23466522.840   122196337.469       -2681.012          50.750                                                                  
C28  21847737.460   113766909.602        1205.117          47.500                                                                  
C37  22161527.500   115400896.016         250.816          52.500                                                                  
E15  25323581.040   133076323.086       -1939.789          48.750    25323589.300   101967582.961       -1486.160          51.500  
E13  23669081.020   124381858.164         963.395          47.250    23669086.340    95305594.547         738.492          48.750  
E21  23446480.840   123212094.566         310.992          48.750    23446486.380    94409271.594         239.695          50.750  
E26  26271949.760   138060036.719        3043.383          44.500    26271955.740   105786261.980        2329.930          37.750  
> 2024 04 10 10 38 31.0000000  0 19       0.000000000000
G28  21569699.000   113349541.105       -2021.152          46.750    21569703.380    88324334.684       -1575.059          42.750  
G18  21785459.060   114483357.180        2645.453          50.000    21785464.900    89207833.086        2060.070          49.500  
G29  20719367.500   108881010.000       -1248.656          50.750    20719369.880    84842365.547        -973.516          47.250  
G31  21474209.120   112847734.395        -180.074          50.250    21474209.040    87933305.730        -139.422          43.250  
G05  23598813.980   124012646.2422       1479.949          35.000                                                                  
G25  22115050.260   116215394.973       -2957.035          42.750                                                                  
R22  19202548.520   102504539.496        -820.918          55.750    19202554.500    79725753.324        -639.512          53.750  
R13  20361521.940   108729421.984        2722.207          38.000    20361534.540    84567346.352        2116.355          43.750  
R12  19228325.680   102714310.855        -789.992          54.750    19228332.700    79888914.746        -614.832          50.500  
R23  20735264.740   110919745.242        3005.125          43.250                                                                  
R21  22158928.160   118576981.715       -3862.754          32.750                                                                  
R11  22711093.680   121361206.199       -4016.262          42.500    22711107.020    94392073.699       -3124.359          42.500  
C23  23467031.560   122198986.367       -2682.223          50.750                                                                  
C28  21847499.600   113765670.664        1205.848          47.500                                                                  
C37  22161473.220   115400613.051         249.238          52.250                                                                  
E15  25323943.920   133078229.355       -1938.715          49.000    25323951.980   101969043.602       -1485.004          51.500  
E13  23668890.800   124380861.004         963.984          47.250    23668896.680    95304830.473         737.102          49.000  
E21  23446415.240   123211750.258         311.785          48.750    23446420.900    94409007.773         238.039          51.000  
E26  26271364.540   138056960.332        3044.934          44.000    26271370.560   105783904.762        2330.203          38.750  
> 2024 04 10 10 38 32.0000000  0 19       0.000000000000
G28  21570075.140   113351518.324       -2020.820          46.250    21570079.560    88325875.363       -1574.547          43.000  
G18  21784947.440   114480669.484        2644.551          50.000    21784953.500    89205738.777        2059.516          49.750  
G29  20719597.320   108882216.348       -1248.945          51.000    20719599.580    84843305.570        -972.910          47.250  
G31  21474235.200   112847870.871        -180.832          50.500    21474234.960    87933412.078        -138.984          43.250  
G05  23598524.660   124011125.992        1477.617          36.250                                                                  
G25  22115604.300   116218309.820       -2958.652          42.250                                                                  
R22  19202694.500   102505317.188        -822.656          56.000    19202700.060    79726358.203        -639.914          53.750  
R13  20361002.100   108726656.516        2721.824          38.000    20361015.660    84565195.418        2115.621          43.750  
R12  19228465.400   102715057.680        -791.441          55.000    19228472.500    79889495.602        -615.691          50.750  
R23  20734694.740   110916696.348        3003.934          43.750                                                                  
R21  22159644.760   118580797.574       -3858.453          32.000                                                                  
R11  22711838.260   121365179.047       -4016.027          42.500    22711850.760    94395163.695       -3124.004          42.500  
C23  23467538.200   122201625.508       -2683.223          51.250                                                                  
C28  21847259.600   113764422.047        1206.352          47.500                                                                  
C37  22161417.060   115400320.547         248.973          52.500                                                                  
E15  25324304.740   133080125.820       -1938.977          48.750    25324312.840   101970496.727       -1486.867          51.500  
E13  23668699.240   124379854.117         963.109          46.750    23668705.120    95304058.988         737.391          49.000  
E21  23446347.920   123211396.066         309.996          48.500    23446353.600    94408736.387         238.867          51.000  
E26  26270777.580   138053873.926        3043.285          44.000    26270783.780   105781539.859        2330.938          39.250  
> 2024 04 10 10 38 33.0000000  0 18       0.000000000000
G28  21570449.020   113353481.867       -2022.070          46.250    21570452.540    88327405.402       -1574.184          42.750  
G18  21784433.280   114477967.984        2642.832          50.250    21784439.200    89203633.723        2059.152          49.750  
G29  20719824.320   108883408.836       -1249.301          51.000    20719826.280    84844234.773        -973.996          47.250  
G31  21474258.900   112847993.801        -181.402          50.750    21474258.360    87933507.871        -141.031          43.000  
G05  23598233.180   124009591.543        1475.898          37.000                                                                  
G25  22116155.620   116221210.723       -2958.418          42.250                                                                  
R22  19202837.400   102506081.168        -822.277          55.750    19202843.360    79726952.406        -639.996          53.750  
R13  20360483.880   108723877.082        2718.844          37.750    20360495.720    84563033.660        2117.000          43.500  
R12  19228602.660   102715790.770        -791.910          54.750    19228609.860    79890065.789        -616.398          50.750  
R23  20734122.360   110913633.484        3003.695          43.500                                                                  
R11  22712579.660   121369137.727       -4018.129          42.000    22712592.600    94398242.621       -3124.523          42.500  
C23  23468042.300   122204250.875       -2682.395          50.750                                                                  
C28  21847016.900   113763159.781        1205.762          47.250                                                                  
C37  22161358.060   115400014.441         249.660          52.250                                                                  
E15  25324662.900   133082008.363       -1940.820          49.000    25324671.100   101971939.180       -1487.367          51.500  
E13  23668504.920   124378833.492         963.188          46.750    23668511.040    95303276.930         737.648          49.000  
E21  23446277.440   123211027.926         310.148          48.250    23446283.420    94408454.293         238.234          50.750  
E26  26270187.380   138050773.441        3042.605          43.750    26270193.460   105779164.199        2332.824          38.750  
> 2024 04 10 10 38 34.0000000  0 19       0.000000000000
G28  21570823.220   113355448.195       -2021.852          46.250    21570826.960    88328937.605       -1574.922          43.000  
G18  21783919.460   114475269.176        2642.770          49.500    21783925.720    89201530.762        2059.621          49.750  
G29  20720051.540   108884603.934       -1250.402          50.250    20720053.620    84845166.008        -973.910          47.250  
G31  21474282.820   112848119.652        -181.637          50.250    21474282.360    87933605.914        -140.445          43.500  
G05  23597941.280   124008059.895        1475.363          37.250                                                                  
G25  22116707.540   116224114.113       -2958.984          41.250                                                                  
R22  19202981.320   102506848.156        -823.027          56.000    19202987.140    79727548.957        -641.188          53.750  
R13  20359963.720   108721100.434        2722.832          38.250    20359975.200    84560874.027        2114.816          43.500  
R12  19228740.320   102716526.883        -792.746          54.750    19228747.440    79890638.316        -616.695          51.000  
R23  20733549.740   110910573.445        3003.668          43.500                                                                  
R21  22161063.100   118588369.2383      -3860.023          30.250                                                                  
R11  22713322.280   121373098.977       -4017.629          41.750    22713334.700    94401323.590       -3125.441          42.750  
C23  23468546.920   122206878.770       -2683.305          51.250                                                                  
C28  21846775.220   113761900.090        1204.133          48.000                                                                  
C37  22161299.800   115399711.070         249.098          52.750                                                                  
E15  25325020.980   133083893.504       -1940.957          48.500    25325029.760   101973383.645       -1487.129          51.250  
E13  23668311.160   124377815.535         962.223          46.750    23668317.480    95302496.941         739.992          48.750  
E21  23446207.620   123210662.301         310.371          48.250    23446213.920    94408174.133         237.461          50.500  
E26  26269597.620   138047675.348        3042.508          43.500    26269603.800   105776790.305        2330.809          38.250  
> 2024 04 10 10 38 35.0000000  0 19       0.000000000000
G28  21571199.580   113357424.742       -2022.363          46.250    21571203.040    88330477.758       -1578.762          43.000  
G18  21783407.740   114472580.465        2644.016          49.250    21783414.160    89199435.656        2061.328          49.750  
G29  20720280.860   108885809.031       -1252.055          50.250    20720283.120    84846105.055        -973.117          47.500  
G31  21474308.720   112848255.816        -181.844          50.000    21474308.520    87933712.031        -140.301          43.500  
G05  23597650.640   124006538.438        1474.531          36.500                                                                  
G25  22117261.980   116227027.477       -2958.699          41.250                                                                  
R22  19203127.220   102507625.680        -824.355          56.000    19203132.900    79728153.703        -641.051          54.000  
R13  20359446.300   108718334.090        2720.457          38.000    20359457.040    84558722.414        2115.777          43.000  
R12  19228879.980   102717273.566        -792.680          54.500    19228887.600    79891219.066        -616.723          51.000  
R23  20732980.760   110907523.777        3002.914          43.750                                                                  
R21  22161779.880   118592183.3792      -3860.328          33.250                                                                  
R11  22714063.740   121377070.324       -4018.004          40.000    22714078.440    94404412.406       -3124.320          42.250  
C23  23469053.360   122209516.559       -2682.941          51.000                                                                  
C28  21846535.580   113760650.395        1205.773          48.250                                                                  
C37  22161243.540   115399417.766         248.719          53.000                                                                  
E15  25325381.500   133085788.625       -1941.648          48.750    25325390.440   101974835.770       -1486.582          51.000  
E13  23668119.720   124376807.703         961.586          47.000    23668125.540    95301724.723         736.320          48.500  
E21  23446140.100   123210306.602         309.418          48.250    23446146.200    94407901.594         237.613          50.500  
E26  26269009.900   138044587.074        3042.805          43.500    26269015.820   105774424.000        2332.836          38.000  
> 2024 04 10 10 38 36.0000000  0 19       0.000000000000
G28  21571575.720   113359400.410       -2021.875          47.000    21571578.860    88332017.246       -1575.234          43.000  
G18  21782895.880   114469890.770        2643.395          49.750    21782902.400    89197339.797        2059.047          50.000  
G29  20720509.960   108887013.070       -1251.020          50.750    20720512.080    84847043.266        -975.090          47.500  
G31  21474334.220   112848391.227        -182.902          50.250    21474334.060    87933817.527        -141.738          43.750  
G05  23597361.460   124005016.113        1474.793          37.250                                                                  
G25  22117815.640   116229939.676       -2958.352          41.000                                                                  
R22  19203272.660   102508402.484        -824.102          56.000    19203278.380    79728757.871        -641.965          54.000  
R13  20358927.140   108715566.754        2720.238          38.000    20358938.720    84556570.059        2115.289          43.250  
R12  19229019.640   102718019.570        -793.586          54.250    19229027.440    79891799.289        -618.008          51.250  
R23  20732412.000   110904473.211        3002.742          44.500                                                                  
R21  22162491.040   118595996.281       -3858.035          30.750                                                                  
R11  22714803.100   121381040.531       -4017.738          38.000    22714820.980    94407500.281       -3123.918          42.000  
C23  23469559.620   122212153.242       -2682.480          50.500                                                                  
C28  21846295.460   113759399.691        1204.133          47.750                                                                  
C37  22161187.160   115399123.555         248.363          52.500                                                                  
E15  25325742.040   133087682.676       -1941.160          48.750    25325750.800   101976287.047       -1486.891          51.250  
E13  23667927.740   124375798.891         960.918          47.500    23667933.540    95300951.738         736.891          48.500  
E21  23446072.220   123209949.746         311.023          48.500    23446078.280    94407628.160         237.563          50.750  
E26  26268421.720   138041497.508        3043.668          43.250    26268427.580   105772056.664        2330.680          38.000  
> 2024 04 10 10 38 37.0000000  0 18       0.000000000000
G28  21571952.260   113361379.789       -2023.156          46.750    21571955.380    88333559.617       -1575.723          42.750  
G18  21782384.780   114467204.680        2643.273          50.000    21782391.320    89195246.730        2059.164          50.000  
G29  20720739.760   108888220.617       -1250.941          50.750    20720741.920    84847984.211        -973.289          47.500  
G31  21474360.680   112848530.461        -182.926          50.500    21474360.600    87933926.039        -142.406          43.750  
G05  23597072.440   124003497.465        1474.809          37.500                                                                  
G25  22118370.520   116232855.285       -2959.113          42.000                                                                  
R22  19203418.600   102509183.219        -825.266          55.750    19203424.720    79729365.113        -642.617          54.000  
R13  20358409.300   108712803.113        2716.523          37.750    20358422.120    84554420.574        2114.797          43.500  
R12  19229159.640   102718769.535        -794.488          54.250    19229168.340    79892382.590        -617.957          51.250  
R23  20731842.580   110901426.395        3003.012          44.750                                                                  
R11  22715544.540   121385014.141       -4017.613          37.250    22715563.800    94410590.879       -3124.977          41.500  
C23  23470066.300   122214793.363       -2683.027          50.500                                                                  
C28  21846056.140   113758152.516        1204.508          48.000                                                                  
C37  22161131.080   115398832.961         247.676          52.500                                                                  
E15  25326103.020   133089580.207       -1941.957          48.750    25326111.900   101977740.992       -1486.902          51.250  
E13  23667736.280   124374793.676         960.625          47.000    23667742.220    95300181.516         736.988          48.750  
E21  23446005.060   123209596.305         310.250          48.500    23446010.980    94407357.348         236.527          50.750  
E26  26267834.420   138038411.266        3043.309          43.750    26267840.320   105769691.875        2332.758          37.750  
> 2024 04 10 10 38 38.0000000  0 18       0.000000000000
G28  21572337.260   113363403.773       -2024.785          46.500    21572340.720    88335136.742       -1576.801          43.500  
G18  21781882.320   114464563.094        2643.914          49.750    21781888.620    89193188.344        2059.285          50.250  
G29  20720977.900   108889472.574       -1252.016          50.500    20720980.280    84848959.758        -975.762          47.500  
G31  21474395.620   112848714.410        -183.035          50.000    21474395.900    87934069.367        -142.852          44.250  
G05  23596791.200   124002023.457        1473.449          36.500                                                                  
G25  22118933.880   116235815.262       -2959.895          41.500                                                                  
R22  19203573.420   102510009.434        -825.691          55.750    19203579.580    79730007.727        -642.262          53.750  
R13  20357900.900   108710084.754        2721.664          38.250    20357912.960    84552306.305        2114.750          43.250  
R12  19229308.560   102719565.012        -795.043          54.000    19229317.540    79893001.293        -618.754          51.000  
R23  20731282.040   110898424.965        3002.926          45.000                                                                  
R11  22716291.680   121389032.898       -4016.820          34.750    22716315.340    94413716.488       -3125.582          40.250  
C23  23470581.580   122217477.473       -2683.957          50.000                                                                  
C28  21845825.060   113756949.395        1204.500          47.500                                                                  
C37  22161083.800   115398586.535         245.906          51.750                                                                  
E15  25326472.300   133091522.133       -1942.391          48.250    25326481.460   101979228.961       -1487.141          51.250  
E13  23667553.780   124373833.000         960.621          47.000    23667559.480    95299445.410         738.051          48.750  
E21  23445946.260   123209287.215         309.250          48.250    23445952.200    94407120.512         237.480          50.750  
E26  26267255.660   138035369.219        3043.281          43.500    26267261.680   105767360.980        2332.094          38.000  
> 2024 04 10 10 38 39.0000000  0 18       0.000000000000
G28  21572714.940   113365388.043       -2023.895          46.500    21572718.180    88336682.930       -1577.668          43.250  
G18  21781371.880   114461881.664        2641.402          49.500    21781378.320    89191098.926        2056.375          50.250  
G29  20721208.780   108890684.637       -1252.953          50.750    20721210.600    84849904.219        -977.000          47.500  
G31  21474423.200   112848858.773        -185.938          50.250    21474423.400    87934181.859        -143.547          44.250  
G05  23596502.540   124000509.723        1474.215          35.750                                                                  
G25  22119490.000   116238735.238       -2960.195          41.250                                                                  
R22  19203720.480   102510795.480        -827.781          55.750    19203726.980    79730619.090        -643.648          54.000  
R13  20357383.040   108707325.996        2714.348          38.250    20357396.940    84550160.582        2112.809          43.000  
R12  19229449.900   102720320.293        -797.422          54.000    19229458.900    79893588.727        -620.332          51.250  
R23  20730713.900   110895383.129        3000.582          44.750                                                                  
R11  22717032.200   121393010.883       -4021.000          33.000    22717059.440    94416810.547       -3126.617          40.000  
C23  23471089.380   122220121.984       -2684.840          50.000                                                                  
C28  21845586.380   113755706.781        1201.168          47.250                                                                  
C37  22161028.860   115398300.719         245.523          52.000                                                                  
E15  25326834.400   133093424.133       -1943.992          48.500    25326843.440   101980686.332       -1488.605          51.250  
E13  23667363.200   124372832.492         958.766          47.000    23667369.140    95298678.793         735.246          48.750  
E21  23445879.980   123208938.137         308.191          48.500    23445885.800    94406853.039         235.281          50.750  
E26  26266668.940   138032287.055        3040.648          43.500    26266674.580   105764999.320        2327.230          37.250  
> 2024 04 10 10 38 40.0000000  0 18       0.000000000000
G28  21573093.140   113367376.941       -2026.781          46.500    21573096.940    88338232.691       -1578.832          43.500  
G18  21780862.620   114459204.742        2640.133          49.750    21780869.120    89189013.012        2057.484          50.500  
G29  20721440.080   108891901.102       -1252.758          51.000    20721441.980    84850852.121        -974.734          47.500  
G31  21474451.480   112849007.848        -185.820          50.500    21474451.960    87934298.035        -145.883          44.250  
G05  23596213.500   123999000.574        1473.465          35.750                                                                  
G25  22120045.720   116241659.566       -2962.051          41.500    22120063.780    90577976.848       -2307.941          37.250  
R22  19203868.360   102511586.379        -828.684          55.250    19203875.100    79731234.223        -644.754          53.500  
R13  20356867.340   108704571.859        2716.266          38.000    20356879.760    84548018.480        2112.215          43.000  
R12  19229592.100   102721080.449        -797.762          53.750    19229601.300    79894179.961        -620.211          51.000  
R23  20730146.060   110892345.969        2999.453          44.750                                                                  
R11  22717775.200   121396993.395       -4020.586          31.750    22717804.400    94419907.988       -3127.813          39.500  
C23  23471597.940   122222770.844       -2685.652          50.250                                                                  
C28  21845348.300   113754468.574        1200.672          47.000                                                                  
C37  22160974.900   115398019.410         244.426          52.000                                                                  
E15  25327197.200   133095330.516       -1943.605          48.750    25327206.260   101982147.066       -1488.742          51.500  
E13  23667173.580   124371836.500         959.215          47.000    23667179.620    95297915.641         734.270          48.750  
E21  23445814.240   123208593.379         306.523          48.500    23445820.240    94406588.871         237.035          50.750  
E26  26266083.240   138029209.063        3038.785          42.750    26266088.840   105762640.906        2330.504          37.750  
> 2024 04 10 10 38 41.0000000  0 18       0.000000000000
G28  21573472.040   113369367.578       -2025.543          46.750    21573475.620    88339783.848       -1579.004          43.500  
G18  21780353.740   114456529.477        2639.145          50.000    21780360.020    89186928.387        2057.031          50.250  
G29  20721671.940   108893119.137       -1252.879          51.250    20721673.880    84851801.234        -976.199          47.250  
G31  21474480.320   112849158.816        -186.941          50.750    21474481.000    87934415.672        -147.883          44.500  
G05  23595925.260   123997493.188        1471.531          35.750                                                                  
G25  22120603.120   116244585.375       -2962.688          42.250    22120620.760    90580256.723       -2308.691          37.250  
R22  19204016.860   102512379.223        -829.441          55.500    19204023.200    79731850.895        -645.066          53.250  
R13  20356352.480   108701819.441        2714.539          37.750    20356365.140    84545877.719        2111.844          42.750  
R12  19229734.680   102721842.590        -799.230          53.750    19229743.960    79894772.738        -620.891          51.000  
R23  20729578.360   110889310.570        2998.344          45.250                                                                  
R11                                                                  22718549.360    94423006.625       -3125.977          38.500  
C23  23472106.800   122225421.211       -2686.039          50.000                                                                  
C28  21845110.780   113753231.988        1199.793          47.250                                                                  
C37  22160921.260   115397739.820         244.203          52.000                                                                  
E15  25327559.780   133097238.445       -1943.695          48.750    25327569.440   101983608.980       -1489.535          51.500  
E13  23666984.160   124370842.176         959.199          47.250    23666990.480    95297153.754         733.512          48.750  
E21  23445749.160   123208250.094         306.516          49.000    23445754.840    94406325.836         235.652          50.750  
E26  26265498.100   138026132.480        3039.516          43.000    26265503.760   105760283.531        2328.660          38.250  
> 2024 04 10 10 38 42.0000000  0 18       0.000000000000
G28  21573851.100   113371358.488       -2027.555          46.750    21573854.560    88341335.219       -1578.984          43.250  
G18  21779844.780   114453854.359        2638.504          50.250    21779851.000    89184843.891        2055.754          50.250  
G29  20721903.700   108894337.250       -1254.168          51.000    20721905.360    84852750.410        -978.070          47.250  
G31  21474509.140   112849310.176        -188.113          50.500    21474509.980    87934533.605        -147.781          44.250  
G05  23595638.820   123995986.082        1469.613          36.750                                                                  
G25  22121160.920   116247511.207       -2961.363          42.750    22121177.560    90582536.582       -2307.559          38.000  
R22  19204165.160   102513172.539        -829.863          55.250    19204171.500    79732467.918        -645.547          53.250  
R13  20355835.500   108699067.270        2715.746          37.750    20355849.080    84543737.141        2112.738          42.750  
R12  19229877.320   102722605.199        -799.520          53.750    19229886.860    79895365.887        -621.621          51.250  
R23  20729011.280   110886275.426        2999.309          45.250                                                                  
R11                                                                  22719293.840    94426105.238       -3126.066          38.750  
C23  23472615.700   122228071.613       -2685.781          50.250                                                                  
C28  21844873.340   113751995.543        1199.816          47.250                                                                  
C37  22160867.640   115397460.445         242.652          52.500                                                                  
E15  25327922.860   133099146.438       -1943.430          48.750    25327932.460   101985070.949       -1489.223          51.500  
E13  23666795.100   124369848.023         958.453          47.500    23666801.360    95296392.012         734.133          48.750  
E21  23445683.660   123207906.820         307.035          48.500    23445689.500    94406062.813         235.902          50.750  
E26  26264912.600   138023055.785        3040.301          43.250    26264918.080   105757926.016        2328.648          38.000  
> 2024 04 10 10 38 43.0000000  0 18       0.000000000000
G28  21574229.880   113373349.012       -2026.727          47.000    21574233.720    88342886.262       -1579.750          43.750  
G18  21779335.460   114451178.734        2638.867          50.250    21779341.820    89182758.988        2055.441          50.250  
G29  20722135.280   108895554.770       -1254.105          51.000    20722137.080    84853699.129        -977.891          47.250  
G31  21474537.760   112849461.242        -188.645          50.500    21474538.860    87934651.316        -147.363          45.000  
G05  23595352.080   123994478.531        1470.867          36.000                                                                  
G25  22121716.980   116250436.316       -2962.191          42.250    22121734.320    90584815.895       -2309.137          37.750  
R22  19204313.780   102513965.598        -830.887          55.250    19204319.800    79733084.734        -646.680          53.250  
R13  20355321.220   108696314.598        2715.410          37.750    20355332.780    84541596.164        2112.051          42.750  
R12  19230019.860   102723367.602        -800.047          53.500    19230029.900    79895958.852        -621.715          51.250  
R23  20728444.180   110883239.840        2996.293          45.000                                                                  
R11                                                                  22720037.960    94429203.352       -3127.148          37.000  
C23  23473124.360   122230721.398       -2686.340          50.000                                                                  
C28  21844635.420   113750758.543        1199.563          47.250                                                                  
C37  22160813.900   115397180.637         242.621          52.250                                                                  
E15  25328285.860   133101053.813       -1945.051          48.750    25328295.480   101986532.445       -1489.988          51.250  
E13  23666606.160   124368853.379         956.117          47.750    23666612.120    95295629.879         732.238          48.750  
E21  23445618.240   123207562.859         306.867          48.750    23445624.060    94405799.250         234.234          50.750  
E26  26264326.660   138019978.254        3039.980          43.750    26264332.540   105755567.949        2330.734          37.750  
> 2024 04 10 10 38 44.0000000  0 18       0.000000000000
G28  21574609.460   113375342.797       -2027.543          46.750    21574612.980    88344439.859       -1580.395          43.250  
G18  21778826.880   114448506.281        2637.289          50.000    21778833.160    89180676.570        2055.520          50.000  
G29  20722367.420   108896775.371       -1254.539          50.750    20722369.480    84854650.242        -978.340          47.000  
G31  21474567.000   112849615.707        -189.883          50.250    21474568.600    87934771.684        -147.609          45.000  
G05  23595065.940   123992974.195        1468.297          35.250                                                                  
G25  22122274.120   116253364.465       -2961.754          42.000    22122292.180    90587097.563       -2307.879          37.500  
R22  19204462.640   102514762.148        -831.535          55.000    19204469.120    79733704.277        -647.090          53.250  
R13  20354807.240   108693565.176        2713.836          38.000    20354817.620    84539457.723        2109.930          42.250  
R12  19230163.260   102724133.512        -802.457          53.500    19230173.180    79896554.563        -622.855          51.250  
R23  20727877.220   110880207.566        2997.645          44.750                                                                  
R11                                                                  22720780.840    94432303.805       -3127.590          35.750  
C23  23473633.660   122233374.191       -2686.012          49.750                                                                  
C28  21844398.480   113749524.633        1199.348          47.250                                                                  
C37  22160760.800   115396904.035         241.930          52.000                                                                  
E15  25328649.160   133102964.238       -1943.969          48.500    25328658.940   101987996.281       -1490.504          51.250  
E13  23666417.700   124367861.906         956.191          47.750    23666423.500    95294870.180         732.063          48.750  
E21  23445553.360   123207221.891         305.703          48.750    23445559.120    94405537.996         235.605          50.750  
E26  26263741.660   138016903.621        3042.754          43.500    26263747.400   105753212.078        2331.238          38.250  
> 2024 04 10 10 38 45.0000000  0 18       0.000000000000
G28  21574989.320   113377338.613       -2028.879          46.750    21574992.820    88345995.039       -1580.750          43.250  
G18  21778318.740   114445835.727        2637.152          50.000    21778324.840    89178595.617        2055.762          50.000  
G29  20722599.960   108897997.777       -1256.691          50.500    20722602.100    84855602.777        -976.520          47.000  
G31  21474596.820   112849772.309        -188.828          50.000    21474598.360    87934893.691        -148.637          45.000  
G05  23594778.460   123991471.941        1468.492          34.750                                                                  
G25  22122831.660   116256294.332       -2960.449          42.250    22122851.020    90589380.586       -2311.973          37.250  
R22  19204611.880   102515560.918        -831.879          54.750    19204618.580    79734325.539        -647.547          53.000  
R13  20354292.160   108690817.730        2712.879          38.000    20354303.680    84537320.832        2112.020          42.250  
R12  19230306.980   102724901.645        -801.594          53.250    19230317.140    79897151.996        -624.594          51.250  
R23  20727310.260   110877177.328        2996.926          44.500                                                                  
R11                                                                  22721529.200    94435405.563       -3125.117          35.250  
C23  23474143.440   122236028.742       -2687.246          49.500                                                                  
C28  21844161.540   113748292.590        1199.270          46.750                                                                  
C37  22160708.100   115396629.375         241.727          52.000                                                                  
E15  25329013.320   133104876.461       -1945.359          49.000    25329022.840   101989461.488       -1490.289          51.250  
E13  23666229.080   124366872.336         956.617          48.000    23666235.260    95294111.938         733.543          48.750  
E21  23445489.080   123206882.668         304.715          48.750    23445494.640    94405278.066         233.402          50.750  
E26  26263156.560   138013830.574        3038.188          43.000    26263162.660   105750857.406        2330.027          38.250  
> 2024 04 10 10 38 46.0000000  0 17       0.000000000000
G28  21575369.880   113379337.156       -2029.707          47.000    21575373.420    88347552.344       -1581.949          42.750  
G18  21777810.800   114443167.820        2637.289          49.500    21777817.220    89176516.719        2055.641          49.750  
G29  20722833.000   108899222.754       -1255.898          50.250    20722834.960    84856557.301        -978.926          46.750  
G31  21474627.240   112849931.785        -190.953          50.000    21474628.920    87935017.973        -146.598          44.750  
G05  23594492.340   123989972.488        1468.824          34.250                                                                  
G25  22123390.300   116259226.719       -2962.559          42.750    22123409.980    90591665.574       -2307.160          36.750  
R22  19204761.920   102516362.652        -832.359          54.500    19204768.780    79734949.113        -647.941          53.000  
R13  20353778.580   108688073.000        2711.289          38.250    20353788.660    84535186.047        2110.027          42.250  
R12  19230451.060   102725672.770        -802.805          53.250    19230461.580    79897751.762        -624.727          51.250  
R23  20726745.000   110874149.895        2995.422          45.000                                                                  
C23  23474654.120   122238685.793       -2688.344          49.750                                                                  
C28  21843925.300   113747063.121        1200.832          46.750                                                                  
C37  22160655.800   115396357.402         241.441          52.000                                                                  
E15  25329377.460   133106791.234       -1944.125          48.750    25329387.280   101990928.621       -1491.625          51.000  
E13  23666040.500   124365885.445         956.355          47.500    23666047.480    95293355.727         732.570          48.500  
E21  23445424.860   123206545.934         305.766          49.000    23445430.620    94405020.031         235.008          50.500  
E26  26262571.620   138010759.895        3040.809          42.500    26262578.240   105748504.500        2326.488          38.750  
> 2024 04 10 10 38 47.0000000  0 18       0.000000000000
G28  21575750.860   113381336.859       -2029.020          46.750    21575754.140    88349110.551       -1582.719          42.750  
G18  21777303.260   114440500.945        2636.398          50.000    21777309.740    89174438.641        2054.398          49.500  
G29  20723066.320   108900448.688       -1255.914          50.250    20723068.080    84857512.563        -978.363          46.750  
G31  21474657.760   112850092.512        -190.863          50.000    21474659.480    87935143.219        -148.543          44.750  
G05  23594206.720   123988474.117        1468.020          33.500                                                                  
G25  22123948.800   116262159.949       -2963.063          42.500    22123968.220    90593951.211       -2306.359          36.500  
R22  19204912.180   102517165.719        -833.566          54.250    19204918.860    79735573.715        -648.324          53.000  
R13  20353265.420   108685329.414        2713.898          38.250    20353274.880    84533052.164        2111.281          41.750  
R12  19230595.820   102726445.227        -802.609          53.500    19230606.240    79898352.570        -623.484          51.250  
R23  20726179.180   110871123.613        2996.520          45.000                                                                  
R11                                                                  22723011.200    94441576.8053      -3128.387          32.000  
C23  23475164.780   122241343.762       -2687.320          50.000                                                                  
C28  21843689.360   113745834.656        1200.668          46.750                                                                  
C37  22160603.780   115396086.523         241.449          52.250                                                                  
E15  25329742.120   133108706.930       -1944.953          48.750    25329751.900   101992396.496       -1491.801          50.750  
E13  23665853.180   124364899.602         953.984          47.750    23665859.880    95292600.336         733.133          48.500  
E21  23445360.920   123206210.043         306.016          49.000    23445366.780    94404762.660         234.594          50.500  
E26  26261988.000   138007689.941        3039.105          43.000    26261994.160   105746152.238        2326.730          38.750  
> 2024 04 10 10 38 48.0000000  0 18       0.000000000000
G28  21576130.400   113383331.906       -2029.332          46.750    21576133.800    88350665.125       -1581.375          43.250  
G18  21776795.160   114437829.328        2637.309          50.500    21776801.120    89172356.871        2054.805          49.250  
G29  20723298.540   108901669.781       -1256.164          50.250    20723300.660    84858464.066        -978.250          46.750  
G31  21474687.240   112850248.730        -190.168          50.000    21474689.340    87935264.941        -147.789          45.000  
G05  23593921.700   123986971.109        1468.547          35.500                                                                  
G25  22124505.960   116265088.250       -2963.918          42.500    22124525.820    90596233.020       -2309.273          36.250  
R22  19205061.720   102517964.250        -833.887          54.500    19205068.240    79736194.797        -647.961          53.000  
R13  20352750.080   108682581.082        2712.387          38.750    20352760.520    84530914.555        2111.109          41.750  
R12  19230739.760   102727213.172        -803.887          53.750    19230750.080    79898949.855        -624.809          51.500  
R23  20725612.820   110868092.586        2996.137          45.250                                                                  
R11                                                                  22723759.920    94444677.4492      -3125.223          31.750  
C23  23475674.360   122243996.895       -2687.887          49.750                                                                  
C28  21843452.580   113744601.441        1198.211          46.500                                                                  
C37  22160551.060   115395811.000         240.953          52.250                                                                  
E15  25330105.980   133110617.773       -1946.543          48.750    25330115.520   101993860.645       -1490.773          50.750  
E13  23665664.820   124363909.016         956.336          47.750    23665671.440    95291841.320         733.117          48.500  
E21  23445295.800   123205869.234         306.086          48.500    23445301.920    94404501.523         233.316          50.500  
E26  26261403.240   138004614.949        3040.855          43.500    26261409.320   105743796.102        2329.863          38.750  
> 2024 04 10 10 38 49.0000000  0 18       0.000000000000
G28  21576516.940   113385362.727       -2030.215          46.750    21576520.260    88352247.594       -1583.988          43.500  
G18  21776293.660   114435193.359        2635.660          50.250    21776299.560    89170302.871        2053.777          49.250  
G29  20723537.280   108902926.441       -1255.445          50.000    20723540.040    84859443.285        -978.980          47.000  
G31  21474723.560   112850440.820        -192.109          49.500    21474725.920    87935414.621        -149.547          45.000  
G05  23593641.660   123985503.809        1468.086          34.750                                                                  
G25  22125070.000   116268052.070       -2964.504          42.000    22125089.360    90598542.469       -2309.469          36.500  
R22  19205218.040   102518799.262        -834.563          54.500    19205224.640    79736844.250        -648.797          53.000  
R13  20352242.680   108679869.012        2711.484          38.000    20352252.400    84528805.129        2108.676          41.750  
R12  19230890.320   102728017.648        -804.363          53.750    19230900.580    79899575.559        -625.621          51.500  
R23  20725052.880   110865097.949        2994.672          45.500                                                                  
R11                                                                  22724508.080    94447795.9883      -3130.316          29.250  
C23  23476190.780   122246685.234       -2688.258          49.750                                                                  
C28  21843222.440   113743403.523        1198.430          46.250                                                                  
C37  22160505.020   115395570.875         240.672          52.000                                                                  
E15  25330476.280   133112564.141       -1946.434          48.750    25330485.940   101995352.023       -1490.570          51.000  
E13  23665483.720   124362954.090         955.238          48.500    23665489.700    95291109.629         731.383          48.500  
E21  23445237.980   123205563.922         306.102          48.750    23445243.780    94404267.590         233.813          50.500  
E26  26260824.560   138001575.359        3040.520          43.500    26260831.140   105741467.016        2326.512          39.250  
> 2024 04 10 10 38 50.0000000  0 18       0.000000000000
G28  21576896.900   113387361.348       -2032.086          46.500    21576900.780    88353804.957       -1581.629          43.500  
G18  21775786.160   114432525.078        2635.656          50.250    21775791.820    89168223.691        2052.996          49.000  
G29  20723769.960   108904150.688       -1257.559          49.750    20723772.820    84860397.246        -978.180          46.750  
G31  21474754.000   112850600.820        -194.324          49.500    21474756.580    87935539.285        -151.125          45.250  
G05  23593354.880   123984004.277        1469.438          32.750                                                                  
G25  22125627.480   116270983.441       -2962.582          41.750    22125647.140    90600826.617       -2311.902          36.250  
R22  19205367.960   102519601.730        -835.992          54.500    19205375.040    79737468.398        -650.195          53.000  
R13  20351727.780   108677124.137        2712.148          38.250    20351738.680    84526670.246        2108.266          42.000  
R12  19231034.940   102728789.566        -806.055          54.000    19231045.100    79900175.949        -626.777          51.250  
R23  20724487.180   110862070.535        2993.223          45.750                                                                  
R11                                                                  22725257.240    94450911.8952      -3129.102          30.250  
C23  23476700.960   122249341.418       -2689.980          50.500                                                                  
C28  21842986.280   113742173.551        1196.887          47.000                                                                  
C37  22160452.860   115395298.785         239.195          52.500                                                                  
E15  25330840.940   133114478.094       -1947.164          48.750    25330850.220   101996818.563       -1491.594          51.000  
E13  23665295.920   124361966.840         952.516          48.250    23665301.860    95290353.172         732.270          48.250  
E21  23445173.640   123205226.102         305.613          48.500    23445179.480    94404008.742         234.414          50.250  
E26  26260239.640   137998503.117        3038.215          43.250    26260246.480   105739112.984        2328.898          38.500  
> 2024 04 10 10 38 51.0000000  0 18       0.000000000000
G28  21577278.120   113389365.012       -2032.238          46.750    21577282.000    88355366.254       -1583.734          43.500  
G18  21775279.320   114429861.730        2634.477          50.500    21775284.900    89166148.359        2052.434          49.000  
G29  20724003.840   108905379.805       -1256.391          49.750    20724006.720    84861355.000        -978.879          46.750  
G31  21474785.440   112850765.984        -193.570          49.500    21474787.860    87935667.996        -151.332          45.000  
G05  23593071.880   123982509.820        1463.570          32.500                                                                  
G25  22126186.540   116273919.555       -2965.422          42.500    22126205.600    90603114.516       -2311.066          37.500  
R22  19205519.160   102520409.484        -836.789          54.500    19205526.160    79738096.660        -651.906          53.000  
R13  20351216.640   108674384.336        2708.359          39.000    20351225.800    84524539.297        2108.254          42.500  
R12  19231180.900   102729566.824        -806.762          54.250    19231190.900    79900780.480        -627.160          51.500  
R23  20723922.320   110859048.227        2993.246          46.250                                                                  
R11                                                                  22726007.680    94454030.5863      -3131.938          30.250  
C23  23477212.160   122252002.383       -2688.945          50.250                                                                  
C28  21842750.980   113740948.434        1196.809          47.000                                                                  
C37  22160401.540   115395031.664         239.117          52.250                                                                  
E15  25331205.940   133116396.883       -1947.273          48.500    25331215.420   101998288.809       -1492.641          51.000  
E13  23665108.980   124360984.574         954.270          48.500    23665114.940    95289600.527         730.691          48.250  
E21  23445110.140   123204893.086         305.020          48.500    23445116.100    94403753.563         232.930          50.500  
E26  26259655.560   137995435.539        3039.137          42.500    26259662.540   105736762.520        2326.934          38.750  
> 2024 04 10 10 38 52.0000000  0 18       0.000000000000
G28  21577659.440   113391367.227       -2033.160          47.000    21577662.980    88356926.406       -1583.684          43.250  
G18  21774772.360   114427196.820        2634.859          51.000    21774777.680    89164071.805        2053.715          49.000  
G29  20724237.360   108906607.285       -1256.285          50.250    20724240.280    84862311.461        -980.859          46.250  
G31  21474816.260   112850929.840        -193.922          49.750    21474819.260    87935795.672        -151.066          45.000  
G05  23592786.720   123981013.992        1463.863          32.500                                                                  
G25  22126745.580   116276853.945       -2963.949          43.750    22126764.340    90605401.020       -2312.121          36.500  
R22  19205670.240   102521215.941        -837.859          54.500    19205677.060    79738723.891        -652.523          53.250  
R13  20350703.140   108671642.957        2711.129          38.750    20350712.840    84522407.105        2107.617          42.000  
R12  19231326.280   102730342.801        -806.934          54.250    19231336.000    79901384.020        -627.672          51.250  
R23  20723357.420   110856024.422        2993.023          46.250                                                                  
R11                                                                  22726754.040    94457134.0162      -3130.031          27.750  
C23  23477722.940   122254661.684       -2689.688          50.250                                                                  
C28  21842515.540   113739721.742        1196.637          47.250                                                                  
C37  22160349.960   115394763.066         237.938          52.250                                                                  
E15  25331570.560   133118314.004       -1947.012          48.500    25331580.240   101999757.773       -1492.277          51.250  
E13  23664921.720   124360000.758         952.645          48.250    23664927.760    95288846.691         730.730          48.500  
E21  23445046.840   123204558.320         304.848          48.500    23445052.460    94403497.066         232.906          50.750  
E26  26259071.500   137992366.109        3037.926          42.250    26259078.700   105734410.637        2327.977          40.000  
> 2024 04 10 10 38 53.0000000  0 17       0.000000000000
G28  21578040.180   113393369.621       -2033.633          46.500    21578044.040    88358486.719       -1583.387          42.750  
G18  21774265.540   114424531.988        2633.977          50.750    21774270.460    89161995.332        2052.094          49.000  
G29  20724470.960   108907834.738       -1257.430          50.000    20724473.880    84863267.930        -980.574          46.250  
G31  21474847.580   112851093.965        -195.523          49.500    21474850.520    87935923.578        -152.348          45.000  
G05  23592503.380   123979518.258        1464.109          34.500                                                                  
G25  22127304.760   116279788.254       -2966.520          43.750    22127322.580    90607687.535       -2309.691          36.500  
R22  19205821.600   102522022.746        -837.531          54.500    19205828.000    79739351.406        -651.570          53.000  
R13  20350189.340   108668901.727        2710.664          39.000    20350199.120    84520275.047        2106.531          42.000  
R12  19231471.640   102731119.125        -807.266          54.500    19231481.520    79901987.824        -628.406          51.500  
R23  20722791.900   110853000.785        2992.984          46.250                                                                  
C23  23478233.740   122257320.941       -2689.027          50.250                                                                  
C28  21842279.900   113738495.094        1195.383          47.000                                                                  
C37  22160298.360   115394494.602         238.195          52.000                                                                  
E15  25331935.620   133120231.090       -1946.738          48.500    25331945.040   102001226.715       -1493.926          51.000  
E13  23664734.560   124359017.023         953.691          48.250    23664740.560    95288092.914         729.902          48.250  
E21  23444983.100   123204223.461         304.711          48.750    23444988.720    94403240.488         232.879          50.750  
E26  26258487.060   137989296.453        3038.121          42.250    26258494.740   105732058.594        2329.875          40.000  
> 2024 04 10 10 38 54.0000000  0 17       0.000000000000
G28  21578419.680   113395364.816       -2033.191          46.250    21578423.840    88360041.410       -1583.848          43.000  
G18  21773757.160   114421859.863        2633.551          51.000    21773761.940    89159913.148        2052.504          49.250  
G29  20724703.220   108909054.809       -1257.719          50.500    20724706.100    84864218.641        -979.313          46.500  
G31  21474877.400   112851251.031        -195.219          49.500    21474880.560    87936045.953        -151.266          45.250  
G05  23592219.760   123978015.336        1467.156          34.500                                                                  
G25  22127861.720   116282715.102       -2963.895          43.500    22127878.600    90609968.121       -2313.496          36.250  
R22  19205971.520   102522822.434        -838.199          54.750    19205978.060    79739973.383        -651.957          53.250  
R13  20349675.580   108666153.113        2707.715          38.500    20349684.820    84518137.254        2109.480          42.250  
R12  19231615.760   102731888.316        -807.223          54.750    19231625.380    79902586.086        -627.508          51.500  
R23  20722225.020   110849969.797        2991.840          46.250                                                                  
C23  23478742.860   122259972.832       -2688.957          50.250                                                                  
C28  21842042.860   113737261.172        1197.793          47.250                                                                  
C37  22160245.460   115394218.961         237.813          51.750                                                                  
E15  25332299.180   133122140.762       -1947.059          48.500    25332308.340   102002689.965       -1492.750          51.250  
E13  23664546.040   124358025.992         952.926          48.500    23664551.880    95287333.555         729.293          48.250  
E21  23444917.940   123203881.129         306.391          48.750    23444923.600    94402978.180         233.098          50.750  
E26  26257901.800   137986219.211        3041.016          42.500    26257909.020   105729700.688        2329.313          39.750  
> 2024 04 10 10 38 55.0000000  0 18       0.000000000000
G28  21578800.320   113397365.125       -2032.660          46.500    21578804.620    88361600.109       -1585.023          43.250  
G18  21773249.740   114419192.742        2633.609          51.250    21773254.700    89157834.879        2052.688          49.500  
G29  20724936.540   108910279.797       -1258.320          50.750    20724939.060    84865173.191        -979.727          46.500  
G31  21474908.060   112851413.332        -194.605          49.500    21474911.400    87936172.438        -152.500          45.500  
G05  23591935.500   123976517.535        1466.645          33.250                                                                  
G25  22128419.480   116285646.777       -2964.684          43.750    22128435.500    90612252.582       -2311.230          36.000  
R22  19206122.540   102523627.465        -838.586          55.000    19206128.460    79740599.520        -652.266          53.000  
R13  20349162.420   108663409.691        2710.164          39.000    20349170.400    84516003.492        2109.781          42.000  
R12  19231760.880   102732662.922        -807.211          55.000    19231770.320    79903188.551        -628.000          51.500  
R11  22729024.420   121457051.0203      -4022.910          37.250                                                                  
R23  20721659.580   110846944.012        2993.953          46.750                                                                  
C23  23479253.260   122262629.563       -2688.754          50.500                                                                  
C28  21841806.900   113736032.172        1197.430          46.750                                                                  
C37  22160193.440   115393948.359         237.445          51.750                                                                  
E15  25332663.480   133124055.355       -1948.188          48.500    25332672.700   102004157.008       -1492.383          51.000  
E13  23664358.300   124357039.980         953.465          48.500    23664364.260    95286578.051         729.305          48.500  
E21  23444853.680   123203543.648         305.734          48.750    23444859.420    94402719.605         234.949          50.750  
E26  26257317.260   137983146.703        3040.148          43.000    26257324.100   105727346.445        2329.445          39.000  
> 2024 04 10 10 38 56.0000000  0 18       0.000000000000
G28  21579180.260   113399362.621       -2032.852          46.250    21579184.560    88363156.586       -1583.996          43.250  
G18  21772741.680   114416522.680        2634.586          51.250    21772746.620    89155754.309        2053.344          49.250  
G29  20725169.400   108911501.754       -1258.051          50.750    20725171.580    84866125.359        -978.844          46.750  
G31  21474938.500   112851572.906        -195.453          49.750    21474941.920    87936296.773        -152.180          45.750  
G05  23591651.860   123975016.840        1464.590          34.250                                                                  
G25  22128977.020   116288575.355       -2964.414          44.250    22128993.200    90614534.566       -2310.879          35.750  
R22  19206273.560   102524429.801        -838.156          55.250    19206279.140    79741223.543        -652.391          53.250  
R13  20348646.000   108660663.258        2709.320          38.750    20348655.460    84513867.395        2107.020          42.000  
R12  19231905.580   102733434.859        -808.512          55.000    19231915.040    79903788.938        -629.664          51.750  
R11  22729770.760   121461038.262       -4023.555          37.500                                                                  
R23  20721092.980   110843915.320        2992.566          46.750                                                                  
C23  23479763.000   122265283.266       -2689.617          50.500                                                                  
C28  21841570.260   113734800.223        1196.617          47.000                                                                  
C37  22160140.840   115393674.910         238.754          51.750                                                                  
E15  25333027.460   133125966.891       -1946.773          48.750    25333036.360   102005621.684       -1492.254          51.500  
E13  23664170.240   124356051.039         954.070          48.750    23664176.020    95285820.289         729.711          48.750  
E21  23444788.780   123203203.047         305.746          48.750    23444794.520    94402458.625         232.680          51.000  
E26  26256731.240   137980070.934        3039.605          42.750    26256738.740   105724989.707        2330.434          39.750  
> 2024 04 10 10 38 57.0000000  0 18       0.000000000000
G28  21579560.500   113401359.344       -2031.875          47.000    21579564.500    88364712.484       -1584.035          43.500  
G18  21772233.300   114413851.770        2634.504          51.250    21772238.140    89153673.082        2053.570          49.000  
G29  20725401.880   108912722.781       -1256.992          51.000    20725403.900    84867076.805        -978.340          46.500  
G31  21474969.100   112851731.848        -194.699          50.500    21474972.280    87936420.629        -153.938          46.000  
G05  23591366.880   123973515.492        1462.922          34.000                                                                  
G25  22129535.020   116291502.926       -2964.477          45.250    22129550.280    90616815.793       -2309.055          35.250  
R22  19206424.140   102525231.547        -838.824          55.250    19206429.200    79741847.125        -652.066          53.250  
R13  20348132.480   108657916.082        2708.902          38.750    20348140.160    84511730.672        2109.266          42.250  
R12  19232050.460   102734206.234        -808.109          55.250    19232059.340    79904388.902        -628.898          52.000  
R11  22730517.260   121465023.840       -4024.875          38.000                                                                  
R23  20720527.160   110840885.848        2992.172          47.000                                                                  
C23  23480272.700   122267935.992       -2688.863          51.000                                                                  
C28  21841333.620   113733567.379        1196.082          47.000                                                                  
C37  22160088.160   115393400.680         237.805          52.000                                                                  
E15  25333390.940   133127877.449       -1947.695          48.500    25333399.880   102007085.625       -1491.488          51.500  
E13  23663981.860   124355061.258         953.234          48.750    23663987.680    95285061.887         730.711          48.750  
E21  23444723.600   123202861.426         305.512          48.500    23444729.520    94402196.859         234.121          51.250  
E26  26256145.820   137976994.031        3040.566          42.750    26256153.500   105722632.086        2328.750          40.500  
> 2024 04 10 10 38 58.0000000  0 17       0.000000000000
G28  21579944.460   113403376.512       -2034.141          47.000    21579948.300    88366284.309       -1584.156          43.750  
G18  21771729.060   114411201.172        2632.930          51.250    21771733.680    89151607.684        2052.570          49.000  
G29  20725638.320   108913964.039       -1258.086          51.500    20725639.980    84868044.020        -980.309          46.500  
G31  21475003.480   112851911.344        -196.512          50.500    21475006.740    87936560.492        -153.434          46.000  
G25  22130096.160   116294450.648       -2963.902          45.250    22130111.200    90619112.715       -2311.949          35.500  
R22  19206578.060   102526054.195        -840.191          55.500    19206583.120    79742486.965        -653.066          53.000  
R13  20347620.000   108655189.543        2708.801          39.000    20347630.740    84509610.027        2105.602          41.750  
R12  19232198.860   102734998.547        -809.949          55.250    19232208.060    79905005.148        -629.699          51.750  
R11  22731265.380   121469029.941       -4023.766          39.500                                                                  
R23  20719965.040   110837877.188        2991.938          47.250                                                                  
C23  23480785.940   122270608.723       -2689.004          51.000                                                                  
C28  21841100.880   113732354.652        1196.020          47.750                                                                  
C37  22160039.320   115393146.637         236.590          52.000                                                                  
E15  25333758.460   133129808.242       -1947.512          48.250    25333767.280   102008565.059       -1492.348          51.500  
E13  23663797.440   124354091.809         952.473          48.500    23663803.200    95284319.066         730.652          48.750  
E21  23444662.660   123202539.957         303.801          48.750    23444668.340    94401950.543         233.871          51.000  
E26  26255564.580   137973937.164        3039.828          42.500    26255571.860   105720289.816        2327.383          40.250  
> 2024 04 10 10 38 59.0000000  0 17       0.000000000000
G28  21580328.060   113405393.637       -2035.473          47.000    21580332.580    88367856.102       -1584.445          44.000  
G18  21771224.760   114408550.434        2632.961          51.500    21771229.200    89149542.176        2052.250          48.750  
G29  20725874.800   108915205.066       -1258.961          51.750    20725876.100    84869011.063        -980.051          46.750  
G31  21475037.720   112852090.930        -196.129          50.500    21475041.140    87936700.426        -153.605          46.250  
G25  22130656.960   116297398.047       -2965.473          44.750    22130670.860    90621409.398       -2308.926          34.250  
R22  19206732.420   102526876.977        -841.340          55.750    19206737.560    79743126.906        -654.828          53.000  
R13  20347110.320   108652462.922        2710.383          39.500    20347120.460    84507489.320        2106.789          41.500  
R12  19232347.280   102735790.988        -811.035          55.500    19232356.240    79905621.484        -630.234          51.500  
R11  22732014.340   121473035.770       -4025.246          40.250                                                                  
R23  20719402.300   110834868.473        2990.051          47.000                                                                  
C23  23481298.840   122273281.203       -2690.082          50.750                                                                  
C28  21840868.240   113731141.746        1195.891          47.750                                                                  
C37  22159990.480   115392892.539         236.785          51.750                                                                  
E15  25334125.240   133131738.766       -1948.004          48.250    25334134.580   102010044.293       -1492.512          51.500  
E13  23663612.940   124353122.223         951.645          48.500    23663618.840    95283576.133         728.832          49.000  
E21  23444601.560   123202218.180         305.117          49.000    23444607.040    94401703.984         233.074          51.000  
E26  26254982.300   137970879.879        3041.258          42.500    26254990.180   105717947.219        2328.641          40.250  
> 2024 04 10 10 39 00.0000000  0 17       0.000000000000
G28  21580715.380   113407429.398       -2036.617          47.500    21580719.940    88369442.422       -1586.305          44.250  
G18  21770723.980   114405918.227        2631.367          51.750    21770728.200    89147491.109        2050.926          49.000  
G29  20726114.720   108916464.535       -1259.582          51.750    20726116.120    84869992.465        -980.617          47.000  
G31  21475075.660   112852289.270        -198.516          50.750    21475078.800    87936854.980        -153.988          46.250  
G25  22131221.980   116300363.824       -2966.152          45.250    22131234.380    90623720.406       -2311.715          35.000  
R22  19206890.180   102527718.855        -841.996          56.000    19206895.680    79743781.703        -655.051          53.000  
R13  20346602.960   108649755.160        2706.133          39.250    20346613.760    84505383.305        2106.219          41.500  
R12  19232499.420   102736602.531        -811.652          55.500    19232508.220    79906252.684        -632.648          51.500  
R11  22732767.520   121477060.180       -4024.727          39.250                                                                  
R23  20718843.740   110831878.730        2988.336          47.000                                                                  
C23  23481815.620   122275971.910       -2690.988          50.500                                                                  
C28  21840638.760   113729947.176        1194.555          47.000                                                                  
C37  22159945.120   115392656.844         235.938          51.250                                                                  
E15  25334496.640   133133687.719       -1950.617          48.250    25334505.460   102011537.641       -1494.152          51.500  
E13  23663431.940   124352171.184         952.574          48.500    23663437.880    95282847.418         730.996          49.000  
E21  23444543.880   123201914.758         303.977          48.750    23444549.340    94401471.488         232.719          51.000  
E26  26254403.840   137967840.809        3037.750          42.500    26254411.620   105715618.613        2328.230          39.750  
> 2024 04 10 10 39 01.0000000  0 17       0.000000000000
G28  21581099.380   113409446.297       -2036.563          47.000    21581104.000    88371014.004       -1588.133          44.500  
G18  21770219.540   114403267.039        2630.527          51.000    21770223.560    89145425.250        2049.676          49.250  
G29  20726350.720   108917704.938       -1260.230          51.250    20726352.160    84870959.000        -982.066          47.000  
G31  21475109.820   112852468.859        -199.469          50.000    21475113.340    87936994.922        -155.383          46.500  
G25  22131783.200   116303310.465       -2966.895          45.000    22131794.740    90626016.453       -2312.895          34.750  
R22  19207044.640   102528541.738        -843.176          56.000    19207049.760    79744421.719        -656.395          53.000  
R13  20346093.240   108647028.164        2704.941          39.500    20346102.480    84503262.309        2104.832          41.500  
R12  19232648.040   102737395.109        -813.680          55.750    19232656.460    79906869.137        -632.934          51.250  
R11  22733515.280   121481065.230       -4026.418          38.500                                                                  
R23  20718281.540   110828869.754        2988.117          46.750                                                                  
C23  23482328.800   122278643.691       -2691.719          51.000                                                                  
C28  21840405.620   113728733.742        1193.805          47.500                                                                  
C37  22159896.340   115392402.406         233.746          51.750                                                                  
E15  25334864.260   133135617.598       -1949.992          48.500    25334872.720   102013016.371       -1494.922          51.750  
E13  23663247.540   124351201.176         950.395          48.750    23663253.440    95282104.160         729.063          49.000  
E21  23444482.400   123201592.184         303.383          48.750    23444487.940    94401224.328         232.223          51.000  
E26  26253822.000   137964782.469        3038.219          42.750    26253829.640   105713275.188        2329.125          40.000  
> 2024 04 10 10 39 02.0000000  0 17       0.000000000000
G28  21581483.580   113411463.785       -2038.105          47.000    21581488.540    88372586.070       -1588.305          44.750  
G18  21769715.000   114400616.328        2629.902          50.500    21769719.240    89143359.762        2049.078          49.500  
G29  20726587.140   108918945.742       -1260.227          51.250    20726588.400    84871925.867        -983.262          47.250  
G31  21475144.140   112852649.133        -201.957          49.750    21475147.960    87937135.395        -156.004          47.000  
G25  22132344.380   116306257.410       -2966.719          45.000    22132355.300    90628312.805       -2309.516          34.750  
R22  19207199.040   102529365.363        -844.332          56.000    19207204.540    79745062.320        -656.438          53.250  
R13  20345583.460   108644301.676        2703.785          39.500    20345592.260    84501141.719        2103.367          41.750  
R12  19232796.680   102738188.516        -814.000          55.750    19232804.780    79907486.219        -634.566          51.500  
R11  22734264.580   121485070.508       -4025.336          38.750                                                                  
R23  20717718.920   110825861.344        2987.301          47.250                                                                  
C23  23482842.240   122281315.813       -2692.305          51.250                                                                  
C28  21840172.660   113727520.762        1193.539          47.750                                                                  
C37  22159847.540   115392148.523         234.004          51.750                                                                  
E15  25335231.580   133137547.816       -1951.902          48.500    25335240.060   102014495.379       -1494.672          51.500  
E13  23663062.980   124350231.648         950.430          48.500    23663069.040    95281361.285         727.387          48.750  
E21  23444420.980   123201269.918         302.074          48.750    23444426.580    94400977.398         230.793          51.000  
E26  26253240.120   137961724.313        3037.922          42.750    26253248.000   105710931.926        2327.957          40.500  
> 2024 04 10 10 39 03.0000000  0 17       0.000000000000
G28  21581867.520   113413480.117       -2037.844          47.250    21581872.500    88374157.230       -1588.402          45.000  
G18  21769210.300   114397964.375        2628.578          50.750    21769214.700    89141293.305        2049.664          49.500  
G29  20726823.260   108920185.207       -1262.125          51.500    20726824.260    84872891.684        -983.785          47.000  
G31  21475178.300   112852828.410        -201.887          49.500    21475182.140    87937275.082        -157.223          47.000  
G25  22132904.440   116309202.930       -2967.691          44.500    22132914.380    90630607.965       -2314.137          34.500  
R22  19207353.380   102530188.031        -845.324          56.250    19207358.640    79745702.164        -657.719          53.500  
R13  20345072.660   108641574.051        2707.047          39.750    20345081.540    84499020.211        2104.969          41.500  
R12  19232945.020   102738980.938        -815.066          55.500    19232952.660    79908102.547        -634.242          51.250  
R11  22735012.640   121489074.387       -4028.250          39.000                                                                  
R23  20717156.440   110822851.785        2985.910          47.750                                                                  
C23  23483355.060   122283986.586       -2693.504          51.250                                                                  
C28  21839939.400   113726306.516        1190.602          48.000                                                                  
C37  22159798.580   115391893.469         232.156          51.750                                                                  
E15  25335599.040   133139476.699       -1952.859          48.750    25335607.160   102015973.355       -1495.117          51.750  
E13  23662878.220   124349260.910         947.750          48.500    23662884.320    95280617.457         726.582          48.750  
E21  23444359.460   123200946.254         301.578          48.500    23444365.020    94400729.387         231.008          51.000  
E26  26252657.560   137958664.605        3036.957          42.250    26252666.320   105708587.512        2330.379          40.750  
> 2024 04 10 10 39 04.0000000  0 18       0.000000000000
G28  21582243.800   113415456.926       -2038.910          47.000    21582248.200    88375697.598       -1589.098          44.250  
G18  21768698.260   114395272.773        2630.238          50.750    21768702.620    89139195.957        2049.176          49.500  
G29  20727051.760   108921384.949       -1260.449          51.750    20727052.520    84873826.547        -982.422          47.000  
G31  21475205.020   112852968.270        -201.938          50.000    21475208.700    87937384.066        -157.141          47.000  
G25  22133457.860   116312108.668       -2967.031          45.000    22133467.380    90632872.203       -2311.254          34.750  
G05                                                                  23589401.020    96594673.7541       1137.332          37.000  
R22  19207500.260   102530970.699        -845.781          56.000    19207505.280    79746310.910        -657.688          53.500  
R13  20344554.480   108638806.133        2706.297          39.750    20344563.080    84496867.395        2102.617          41.500  
R12  19233085.420   102739733.316        -815.195          55.250    19233093.280    79908687.734        -633.512          51.250  
R11  22735756.260   121493037.785       -4026.598          36.500                                                                  
R23  20716586.500   110819801.953        2986.215          47.000                                                                  
C23  23483860.620   122286617.953       -2691.301          51.250                                                                  
C28  21839698.800   113725052.938        1192.961          47.750                                                                  
C37  22159741.820   115391599.207         234.008          51.750                                                                  
E15  25335958.540   133141365.828       -1950.973          48.750    25335966.580   102017420.867       -1493.773          51.000  
E13  23662685.500   124348250.523         948.715          48.250    23662692.020    95279843.281         727.551          48.500  
E21  23444290.460   123200582.762         301.961          48.500    23444295.880    94400450.879         233.359          50.750  
E26  26252068.100   137955564.984        3037.918          42.750    26252076.900   105706212.477        2328.965          40.500  
> 2024 04 10 10 39 05.0000000  0 18       0.000000000000
G28  21582627.080   113417471.172       -2037.719          47.000    21582631.500    88377267.148       -1588.016          43.750  
G18  21768193.180   114392618.516        2628.578          50.750    21768197.700    89137127.711        2049.758          49.750  
G29  20727287.160   108922621.922       -1261.609          51.500    20727287.680    84874790.434        -984.070          47.000  
G31  21475238.660   112853145.672        -202.078          50.000    21475242.340    87937522.305        -157.383          46.750  
G05  23589109.040   123961603.7193       1456.770          29.750    23589118.180    96593517.422        1134.656          36.500  
G25  22134018.180   116315051.582       -2967.027          45.250    22134027.400    90635165.375       -2310.805          34.500  
R22  19207654.220   102531791.559        -846.207          56.000    19207659.080    79746949.359        -658.570          53.500  
R13  20344043.960   108636076.254        2706.152          39.750    20344051.360    84494744.152        2103.535          41.500  
R12  19233233.560   102740523.953        -816.156          55.250    19233241.200    79909302.668        -635.449          51.250  
R11  22736506.480   121497038.934       -4024.340          33.750                                                                  
R23  20716023.860   110816790.211        2986.055          46.250                                                                  
C23  23484373.240   122289286.180       -2693.094          51.250                                                                  
C28  21839465.320   113723836.324        1191.922          48.000                                                                  
C37  22159692.280   115391341.996         232.457          51.500                                                                  
E15  25336325.000   133143292.188       -1950.934          49.000    25336333.120   102018896.902       -1494.641          50.750  
E13  23662500.580   124347277.488         949.332          48.750    23662507.020    95279097.691         726.926          48.250  
E21  23444228.220   123200256.441         300.938          48.750    23444233.860    94400200.836         231.070          50.750  
E26  26251485.320   137952502.387        3038.293          43.000    26251494.200   105703865.832        2325.695          40.000  
> 2024 04 10 10 39 06.0000000  0 18       0.000000000000
G28  21583010.500   113419486.180       -2042.145          47.250    21583015.140    88378837.285       -1591.242          44.500  
G18  21767688.300   114389964.898        2626.828          50.500    21767692.940    89135059.965        2048.531          49.500  
G29  20727522.660   108923859.473       -1263.047          51.500    20727522.940    84875754.742        -985.414          46.750  
G31  21475272.720   112853323.961        -203.676          50.000    21475276.100    87937661.223        -159.277          46.500  
G05  23588826.960   123960120.5863       1457.176          30.250    23588834.520    96592361.750        1138.980          36.000  
G25  22134578.600   116317994.961       -2969.473          45.500    22134587.000    90637458.902       -2314.250          34.000  
R22  19207808.120   102532613.355        -848.188          56.000    19207812.740    79747588.539        -659.262          53.500  
R13  20343532.400   108633347.043        2703.922          39.500    20343540.880    84492621.430        2101.941          41.500  
R12  19233381.460   102741315.578        -817.426          55.250    19233389.760    79909918.375        -635.746          51.250  
R11  22737257.440   121501040.586       -4028.004          34.500                                                                  
R23  20715459.900   110813779.203        2984.504          46.500                                                                  
C23  23484885.740   122291954.930       -2694.551          51.500                                                                  
C28  21839232.140   113722620.309        1193.008          48.250                                                                  
C37  22159642.940   115391085.488         230.293          51.500                                                                  
E15  25336692.760   133145219.074       -1952.367          49.250    25336699.780   102020373.344       -1496.547          50.750  
E13  23662315.540   124346305.105         947.090          48.500    23662322.140    95278352.629         725.602          48.250  
E21  23444165.860   123199930.602         301.047          48.750    23444171.880    94399951.156         230.180          50.500  
E26  26250902.340   137949440.184        3036.895          42.250    26250911.420   105701519.453        2325.797          40.250  
> 2024 04 10 10 39 07.0000000  0 18       0.000000000000
G28  21583387.820   113421469.492       -2039.668          47.000    21583392.540    88380382.727       -1590.469          44.750  
G18  21767177.140   114387279.496        2628.680          50.500    21767181.920    89132967.457        2048.172          49.500  
G29  20727752.260   108925065.148       -1262.926          51.750    20727752.440    84876694.246        -984.938          46.750  
G31  21475300.720   112853470.691        -203.586          50.000    21475304.140    87937775.559        -158.566          46.500  
G25  22135132.720   116320906.391       -2968.090          45.500    22135140.840    90639727.527       -2314.980          35.250  
G05                                                                  23588546.000    96591181.359        1135.984          36.500  
R22  19207956.040   102533403.145        -847.961          56.250    19207960.620    79748202.809        -658.539          53.500  
R13  20343015.300   108630585.582        2701.637          39.250    20343023.480    84490473.633        2102.742          41.500  
R12  19233523.460   102742075.207        -817.711          55.250    19233531.900    79910509.199        -636.285          51.500  
R11  22737996.040   121505009.781       -4028.410          33.250                                                                  
R23  20714890.960   110810735.938        2983.574          46.750                                                                  
C23  23485392.240   122294592.066       -2694.277          51.250                                                                  
C28  21838992.440   113721372.781        1190.664          47.750                                                                  
C37  22159587.680   115390797.551         231.945          51.750                                                                  
E15  25337052.680   133147114.078       -1952.438          49.000    25337060.420   102021825.359       -1495.258          50.500  
E13  23662124.300   124345300.938         947.500          48.250    23662130.920    95277583.211         725.414          48.000  
E21  23444097.760   123199572.801         300.039          48.500    23444103.880    94399677.004         229.746          50.500  
E26  26250313.060   137946345.883        3039.137          42.500    26250322.040   105699148.492        2324.027          39.000  
> 2024 04 10 10 39 08.0000000  0 18       0.000000000000
G28  21583765.860   113423456.590       -2039.813          47.500    21583770.680    88381931.105       -1590.051          44.250  
G18  21766666.560   114384597.770        2629.230          51.000    21766671.720    89130877.793        2049.398          49.500  
G29  20727982.320   108926274.406       -1262.270          52.250    20727982.640    84877636.516        -984.605          46.500  
G31  21475329.160   112853621.309        -203.738          50.000    21475332.720    87937892.922        -157.660          46.500  
G25  22135687.440   116323821.336       -2967.727          46.000    22135695.180    90641998.918       -2313.945          35.250  
G05                                                                  23588258.660    96590003.895        1137.906          36.250  
R22  19208104.680   102534196.938        -847.113          56.000    19208109.840    79748820.203        -659.277          53.500  
R13  20342499.160   108627827.887        2701.316          39.750    20342507.000    84488328.754        2101.570          41.750  
R12  19233666.380   102742838.859        -818.090          55.000    19233674.900    79911103.148        -636.543          51.500  
R11  22738740.460   121508982.523       -4026.324          32.750                                                                  
R23  20714322.460   110807696.527        2986.922          47.000                                                                  
C23  23485899.580   122297232.719       -2694.227          51.250                                                                  
C28  21838753.660   113720128.855        1192.063          47.750                                                                  
C37  22159533.040   115390513.305         232.090          51.500                                                                  
E15  25337414.300   133149012.637       -1950.191          49.000    25337421.640   102023280.102       -1495.926          50.750  
E13  23661933.520   124344300.469         947.895          48.250    23661940.580    95276816.605         725.918          48.250  
E21  23444030.380   123199218.508         301.406          48.500    23444036.540    94399405.535         230.684          50.750  
E26  26249725.940   137943254.961        3039.055          42.750    26249733.900   105696780.141        2328.641          40.250  
> 2024 04 10 10 39 09.0000000  0 17       0.000000000000
G28  21584148.820   113425469.859       -2041.594          46.750    21584153.680    88383499.871       -1590.617          44.500  
G18  21766161.300   114381942.090        2627.293          51.000    21766166.660    89128808.441        2048.523          49.750  
G29  20728217.160   108927509.641       -1262.844          52.000    20728217.700    84878599.031        -982.980          46.750  
G31  21475362.660   112853798.211        -204.973          50.000    21475366.360    87938030.766        -160.090          46.750  
G05  23587968.300   123955596.8953       1457.914          33.000    23587976.860    96588846.797        1135.563          36.500  
G25  22136247.520   116326762.176       -2968.070          45.500    22136253.660    90644290.484       -2310.328          34.750  
R22  19208258.540   102535017.480        -848.715          56.000    19208263.640    79749458.398        -659.906          53.500  
R13  20341988.620   108625096.742        2703.426          39.750    20341995.540    84486204.551        2100.547          41.250  
R12  19233814.440   102743629.258        -818.727          55.000    19233823.020    79911717.902        -637.230          51.500  
R23  20713760.140   110804683.727        2985.508          47.250                                                                  
C23  23486411.720   122299899.047       -2694.090          51.250                                                                  
C28  21838519.560   113718910.707        1190.734          48.000                                                                  
C37  22159483.600   115390254.953         230.633          52.000                                                                  
E15  25337780.060   133150937.129       -1952.781          48.500    25337787.820   102024754.719       -1495.598          50.750  
E13  23661747.840   124343326.063         945.496          48.000    23661755.200    95276069.984         725.012          48.250  
E21  23443967.960   123198890.105         299.832          48.750    23443974.040    94399153.883         230.863          50.750  
E26  26249142.520   137940189.824        3037.047          43.250    26249150.900   105694431.527        2327.449          40.750  
> 2024 04 10 10 39 10.0000000  0 17       0.000000000000
G28  21584531.460   113427481.625       -2041.535          47.250    21584536.440    88385067.484       -1591.516          45.000  
G18  21765655.880   114379284.820        2627.891          51.000    21765661.100    89126737.836        2047.836          49.750  
G29  20728451.780   108928743.176       -1263.047          52.000    20728452.640    84879560.227        -983.848          47.000  
G31  21475395.960   112853973.738        -205.469          49.750    21475399.800    87938167.527        -159.598          46.500  
G05  23587687.680   123954110.4182       1455.285          32.000    23587692.540    96587688.563        1135.988          36.250  
G25  22136806.840   116329701.238       -2967.906          45.500    22136812.420    90646580.645       -2312.121          35.250  
R22  19208411.660   102535836.664        -849.965          56.000    19208417.160    79750095.543        -659.688          53.750  
R13  20341474.280   108622364.016        2703.504          39.500    20341484.540    84484079.098        2102.129          41.750  
R12  19233961.820   102744418.336        -819.215          55.000    19233970.420    79912331.625        -636.508          51.750  
R23  20713196.200   110801669.387        2984.824          47.000                                                                  
C23  23486923.580   122302563.676       -2693.094          50.750                                                                  
C28  21838285.340   113717690.930        1190.234          47.500                                                                  
C37  22159433.680   115389995.082         230.883          51.500                                                                  
E15  25338145.600   133152859.938       -1951.918          48.500    25338153.740   102026228.020       -1495.453          50.750  
E13  23661562.280   124342350.055         947.602          48.000    23661569.500    95275322.141         725.730          48.500  
E21  23443905.240   123198559.914         302.332          48.750    23443911.220    94398900.891         230.148          50.750  
E26  26248558.940   137937122.770        3037.801          43.250    26248567.380   105692081.477        2327.824          41.250  
> 2024 04 10 10 39 11.0000000  0 17       0.000000000000
G28  21584919.860   113429523.723       -2042.184          47.000    21584924.720    88386658.738       -1590.711          44.500  
G18  21765155.920   114376657.793        2627.305          51.000    21765161.220    89124690.801        2048.566          50.000  
G29  20728692.460   108930006.863       -1264.348          52.000    20728693.140    84880544.914        -986.020          47.000  
G31  21475435.100   112854179.742        -204.816          50.250    21475438.840    87938328.043        -160.004          46.500  
G05  23587409.840   123952654.4062       1457.289          32.250    23587415.280    96586553.961        1136.184          36.500  
G25  22137371.500   116332670.375       -2968.078          45.000    22137377.100    90648894.270       -2312.715          35.250  
R22  19208570.940   102536686.855        -849.691          56.250    19208576.520    79750756.805        -660.941          53.750  
R13  20340969.220   108619662.055        2703.043          40.000    20340978.200    84481977.566        2101.621          41.750  
R12  19234115.300   102745238.461        -819.008          54.750    19234124.100    79912969.492        -637.266          52.000  
R23  20712637.600   110798685.918        2983.133          46.750                                                                  
C23  23487441.180   122305258.141       -2694.363          51.000                                                                  
C28  21838056.860   113716501.082        1190.938          48.000                                                                  
C37  22159389.760   115389765.234         230.547          51.500                                                                  
E15  25338517.640   133154812.859       -1954.012          48.500    25338525.340   102027724.426       -1495.063          50.750  
E13  23661382.000   124341404.309         945.520          47.750    23661389.640    95274597.477         724.090          48.500  
E21  23443847.800   123198259.793         299.984          48.750    23443854.160    94398670.930         230.305          50.750  
E26  26247980.540   137934085.684        3035.770          42.500    26247989.520   105689754.344        2327.246          41.250  
> 2024 04 10 10 39 12.0000000  0 17       0.000000000000
G28  21585302.040   113431532.355       -2044.324          47.000    21585306.820    88388223.910       -1593.488          44.500  
G18  21764649.640   114373997.184        2626.074          51.250    21764654.980    89122617.598        2045.574          49.500  
G29  20728926.520   108931236.891       -1265.363          52.250    20728927.340    84881503.371        -984.863          47.000  
G31  21475468.000   112854352.371        -207.957          50.250    21475471.600    87938462.570        -161.457          46.250  
G05  23587127.560   123951164.7702       1453.758          35.000    23587132.380    96585393.277        1132.973          36.500  
G25  22137929.920   116335605.770       -2970.824          45.000    22137935.220    90651181.598       -2315.969          34.750  
R22  19208724.340   102537503.203        -852.047          56.500    19208729.120    79751391.730        -662.121          53.750  
R13  20340458.160   108616926.043        2701.332          39.750    20340466.400    84479849.570        2101.234          41.750  
R12  19234262.300   102746024.723        -821.746          55.000    19234271.540    79913581.023        -639.930          52.000  
R23  20712073.460   110795668.379        2982.117          46.750                                                                  
C23  23487952.140   122307919.203       -2695.582          51.500                                                                  
C28  21837821.820   113715277.934        1188.914          48.500                                                                  
C37  22159339.180   115389502.184         229.152          51.750                                                                  
E15  25338883.000   133156732.094       -1953.523          48.500    25338890.700   102029194.996       -1497.758          51.000  
E13  23661195.960   124340424.992         944.090          48.000    23661203.440    95273847.094         724.977          48.750  
E21  23443784.360   123197925.949         299.406          48.500    23443790.680    94398415.121         230.688          51.000  
E26  26247396.580   137931014.727        3036.797          42.750    26247405.020   105687401.258        2326.145          41.000  
> 2024 04 10 10 39 13.0000000  0 17       0.000000000000
G28  21585680.820   113433524.063       -2042.301          47.000    21585685.660    88389775.875       -1593.324          44.250  
G18  21764140.200   114371319.512        2626.141          51.500    21764145.580    89120531.113        2046.977          49.500  
G29  20729157.280   108932449.781       -1263.551          52.250    20729158.360    84882448.480        -985.809          47.250  
G31  21475497.720   112854508.184        -209.082          50.250    21475501.440    87938583.980        -161.848          46.750  
G05  23586842.360   123949658.3162       1455.805          33.750    23586845.920    96584219.324        1130.340          36.000  
G25  22138485.080   116338523.945       -2969.176          45.250    22138490.920    90653455.484       -2314.324          34.750  
R22  19208874.220   102538302.504        -851.563          56.500    19208878.780    79752013.406        -662.254          54.000  
R13  20339940.300   108614172.715        2702.059          39.750    20339950.920    84477708.102        2101.574          41.500  
R12  19234406.460   102746793.949        -821.969          55.250    19234415.320    79914179.305        -638.809          52.000  
R23  20711506.060   110792633.582        2982.977          47.250                                                                  
C23  23488459.840   122310563.238       -2694.992          51.750                                                                  
C28  21837583.780   113714037.836        1188.902          48.500                                                                  
C37  22159285.540   115389222.297         229.273          52.000                                                                  
E15  25339244.480   133158634.172       -1954.070          48.500    25339252.680   102030652.426       -1496.801          51.000  
E13  23661006.160   124339428.625         945.750          48.000    23661013.920    95273083.641         723.066          48.750  
E21  23443717.800   123197574.855         300.066          48.750    23443723.880    94398146.105         230.980          51.000  
E26  26246809.540   137927926.422        3037.328          43.250    26246817.140   105685034.898        2329.699          41.000  
> 2024 04 10 10 39 14.0000000  0 17       0.000000000000
G28  21586060.420   113435519.281       -2045.336          46.750    21586065.240    88391330.598       -1591.672          44.250  
G18  21763631.360   114368645.281        2625.832          51.250    21763636.580    89118447.289        2046.316          49.750  
G29  20729388.560   108933665.996       -1264.520          51.750    20729389.780    84883396.176        -985.961          47.500  
G31  21475528.180   112854667.641        -207.512          50.000    21475531.880    87938708.227        -161.723          46.750  
G05  23586558.380   123948155.859        1459.145          32.500    23586560.220    96583048.238        1134.469          36.500  
G25  22139040.900   116341445.375       -2969.168          45.250    22139046.300    90655731.906       -2315.949          35.000  
R22  19209024.860   102539105.555        -852.320          56.750    19209029.560    79752638.004        -662.586          54.000  
R13  20339426.540   108611422.914        2700.297          39.750    20339435.320    84475569.383        2101.508          41.250  
R12  19234551.480   102747566.984        -821.910          55.250    19234559.740    79914780.551        -639.160          51.750  
R23  20710939.820   110789602.359        2982.070          47.500                                                                  
C23  23488968.140   122313210.543       -2694.730          51.500                                                                  
C28  21837346.240   113712801.113        1188.926          48.250                                                                  
C37  22159232.320   115388945.863         228.750          51.500                                                                  
E15  25339607.100   133160539.551       -1953.734          48.000    25339615.240   102032112.398       -1496.695          51.000  
E13  23660817.260   124338435.703         945.395          47.500    23660824.980    95272322.836         724.539          49.000  
E21  23443651.620   123197227.020         300.445          48.250    23443657.680    94397879.578         228.863          51.250  
E26  26246221.900   137924841.223        3035.949          42.500    26246230.100   105682670.938        2324.914          41.250  
> 2024 04 10 10 39 15.0000000  0 18       0.000000000000
G28  21586438.560   113437505.141       -2042.605          47.000    21586442.880    88392878.016       -1591.707          44.250  
G18  21763120.640   114365961.590        2626.184          51.000    21763125.860    89116356.109        2046.977          49.750  
G29  20729618.220   108934872.680       -1264.203          51.750    20729619.600    84884336.438        -984.883          47.500  
G31  21475556.700   112854817.875        -207.215          49.750    21475560.660    87938825.297        -161.918          47.000  
G26  21695708.100   114011740.6291       2440.051          37.750    21695720.180    88840343.9451       1901.215          37.250  
G25  22139595.200   116344357.199       -2969.477          45.500    22139600.560    90658000.836       -2313.691          35.000  
G05                                                                  23586271.180    96581869.852        1134.918          35.250  
R22  19209173.480   102539899.285        -851.895          56.500    19209178.240    79753255.348        -662.895          53.750  
R13  20338910.000   108608663.605        2701.008          40.000    20338918.440    84473423.250        2100.340          41.000  
R12  19234694.320   102748330.711        -821.328          55.250    19234702.860    79915374.563        -639.727          51.750  
R23  20710370.880   110786561.605        2983.496          47.250                                                                  
C23  23489474.660   122315848.363       -2694.297          51.500                                                                  
C28  21837106.960   113711554.969        1190.293          48.250                                                                  
C37  22159177.340   115388660.129         229.098          51.500                                                                  
E15  25339967.940   133162435.379       -1953.387          47.750    25339975.960   102033565.043       -1496.996          51.250  
E13  23660626.360   124337433.336         947.016          47.250    23660634.320    95271554.781         724.910          49.000  
E21  23443583.760   123196869.578         300.582          48.250    23443589.600    94397605.703         229.836          51.250  
E26  26245632.780   137921746.313        3040.184          41.750    26245641.500   105680299.500        2325.711          41.250  
> 2024 04 10 10 39 16.0000000  0 18       0.000000000000
G28  21586817.800   113439497.250       -2043.531          47.250    21586822.100    88394430.289       -1594.211          44.000  
G18  21762611.220   114363284.039        2625.898          51.250    21762616.400    89114269.703        2047.137          49.500  
G29  20729848.960   108936085.406       -1263.238          52.000    20729850.560    84885281.414        -984.762          47.750  
G31  21475586.420   112854974.457        -207.293          50.000    21475590.820    87938947.305        -158.852          47.000  
G26  21695235.580   114009249.379        2440.168          38.000    21695245.940    88838402.711        1900.770          37.500  
G25  22140150.840   116347274.984       -2967.785          46.000    22140155.060    90660274.473       -2312.059          34.500  
G05                                                                  23585983.880    96580696.336        1134.027          34.750  
R22  19209323.000   102540699.512        -852.051          56.500    19209328.120    79753877.750        -662.789          54.000  
R13  20338394.480   108605910.574        2699.313          40.000    20338402.900    84471281.980        2100.949          41.250  
R12  19234838.620   102749100.961        -822.035          55.250    19234847.160    79915973.645        -639.898          51.750  
R23  20709803.540   110783527.172        2983.086          46.750                                                                  
C23  23489982.260   122318492.137       -2694.605          51.500                                                                  
C28  21836868.980   113710314.875        1190.832          48.250                                                                  
C37  22159123.540   115388380.543         229.695          51.250                                                                  
E15  25340330.420   133164337.234       -1951.367          48.000    25340337.860   102035022.309       -1495.676          51.000  
E13  23660436.800   124336437.117         944.621          47.500    23660444.760    95270791.445         724.457          49.000  
E21  23443517.100   123196518.094         300.715          48.500    23443522.760    94397336.363         231.734          51.500  
E26  26245044.800   137918657.219        3038.898          42.000    26245053.800   105677932.539        2327.664          41.250  
> 2024 04 10 10 39 17.0000000  0 18       0.000000000000
G28  21587197.480   113441492.801       -2043.055          46.750    21587201.780    88395985.266       -1592.828          43.500  
G18  21762102.220   114360609.809        2626.496          51.000    21762107.240    89112185.898        2047.859          49.500  
G29  20730080.300   108937301.371       -1262.840          51.750    20730081.820    84886228.926        -983.801          47.750  
G31  21475617.100   112855134.602        -208.109          50.000    21475621.440    87939072.098        -162.434          47.250  
G26  21694761.500   114006761.238        2442.648          37.000    21694772.180    88836463.926        1900.438          37.000  
G25  22140707.060   116350195.945       -2966.691          45.250    22140711.320    90662550.500       -2313.844          34.500  
G05                                                                  23585696.960    96579525.488        1134.566          35.750  
R22  19209473.380   102541503.395        -852.414          56.250    19209478.620    79754502.996        -662.332          54.000  
R13  20337880.140   108603161.027        2702.762          39.750    20337888.440    84469143.430        2102.297          41.250  
R12  19234983.620   102749874.879        -822.363          55.250    19234992.020    79916575.578        -639.137          52.000  
R23  20709237.920   110780496.227        2983.734          47.250                                                                  
C23  23490490.340   122321139.078       -2694.711          50.750                                                                  
C28  21836631.420   113709078.047        1191.320          47.500                                                                  
C37  22159070.420   115388104.316         229.832          50.750                                                                  
E15  25340692.680   133166242.301       -1952.344          47.750    25340700.320   102036482.027       -1496.957          51.000  
E13  23660247.980   124335444.234         944.719          47.250    23660255.820    95270030.664         722.992          49.250  
E21  23443450.400   123196169.762         300.465          48.250    23443456.500    94397069.477         231.117          51.500  
E26  26244457.460   137915571.176        3042.324          42.250    26244466.880   105675567.895        2328.016          42.500  
> 2024 04 10 10 39 18.0000000  0 18       0.000000000000
G28  21587577.940   113443492.000       -2042.289          46.250    21587582.060    88397543.074       -1591.605          43.500  
G18  21761593.840   114357939.133        2626.828          50.500    21761598.880    89110104.852        2046.016          49.250  
G29  20730312.480   108938520.801       -1262.719          51.250    20730314.000    84887179.129        -984.996          47.750  
G31  21475648.380   112855298.520        -207.684          49.500    21475652.640    87939199.824        -161.180          47.000  
G26  21694288.400   114004276.512        2440.332          37.250    21694298.280    88834527.766        1901.730          36.750  
G25  22141263.360   116353120.273       -2968.129          44.000    22141268.180    90664829.215       -2312.973          35.250  
G05                                                                  23585411.540    96578357.414        1133.828          35.500  
R22  19209624.340   102542311.168        -853.098          56.000    19209630.060    79755131.258        -662.645          53.750  
R13  20337366.180   108600415.082        2701.715          40.250    20337373.460    84467007.727        2103.824          41.250  
R12  19235129.400   102750652.711        -822.867          55.250    19235137.520    79917180.551        -640.172          51.750  
R23  20708672.140   110777468.977        2982.684          47.750                                                                  
C23  23490998.740   122323789.426       -2693.664          50.500                                                                  
C28  21836394.500   113707844.699        1188.555          47.750                                                                  
C37  22159018.160   115387831.668         229.297          51.000                                                                  
E15  25341056.020   133168150.816       -1951.680          48.000    25341063.440   102037944.398       -1496.168          50.750  
E13  23660059.680   124334454.922         945.914          47.250    23660067.700    95269272.617         724.094          49.000  
E21  23443384.940   123195824.801         301.016          48.500    23443390.780    94396805.156         230.813          51.000  
E26  26243871.360   137912488.391        3039.617          42.250    26243880.240   105673205.789        2326.664          42.250  
> 2024 04 10 10 39 19.0000000  0 18       0.000000000000
G28  21587961.920   113445510.254       -2044.426          46.000    21587966.140    88399115.746       -1591.980          44.000  
G18  21761089.480   114355287.398        2625.652          50.750    21761093.980    89108038.574        2047.246          49.000  
G29  20730547.800   108939759.082       -1263.184          50.500    20730549.720    84888144.027        -985.227          47.500  
G31  21475683.260   112855481.609        -207.941          49.250    21475687.300    87939342.469        -162.574          47.000  
G26  21693819.740   114001810.660        2441.488          37.000    21693829.180    88832606.297        1901.867          37.500  
G05  23585133.040   123940699.5043       1455.242          32.500    23585130.800    96577204.227        1132.109          36.000  
G25  22141822.900   116356063.387       -2969.156          44.000    22141828.800    90667122.543       -2313.730          36.000  
R22  19209779.380   102543138.465        -853.223          56.000    19209784.720    79755774.711        -662.820          53.500  
R13  20336855.500   108597688.496        2699.180          40.500    20336863.040    84464887.023        2101.625          40.500  
R12  19235278.860   102751450.121        -823.418          55.250    19235286.500    79917800.758        -640.398          51.500  
R23  20708110.120   110774461.113        2981.238          47.750                                                                  
C23  23491511.160   122326458.410       -2695.168          50.250                                                                  
C28  21836161.360   113706630.082        1190.840          48.000                                                                  
C37  22158969.660   115387577.875         228.535          51.250                                                                  
E15  25341423.140   133170078.160       -1953.172          48.250    25341430.180   102039421.184       -1496.805          50.750  
E13  23659875.160   124333484.555         945.156          47.500    23659882.980    95268529.094         723.379          49.000  
E21  23443322.880   123195498.648         301.223          48.500    23443328.700    94396555.242         230.363          51.000  
E26  26243288.880   137909424.262        3038.313          43.250    26243297.020   105670857.969        2327.688          41.750  
> 2024 04 10 10 39 20.0000000  0 19       0.000000000000
G28  21588345.100   113447524.262       -2043.430          46.000    21588349.420    88400685.094       -1592.910          44.250  
G18  21760584.300   114352631.316        2625.672          51.250    21760588.640    89105968.891        2046.715          49.250  
G29  20730782.820   108940992.922       -1264.168          51.000    20730784.360    84889105.457        -986.020          47.750  
G31  21475717.220   112855660.555        -209.504          49.000    21475721.440    87939481.926        -161.445          47.000  
G26  21693350.320   113999340.270        2440.172          38.000    21693359.080    88830681.297        1902.074          37.500  
G05  23584851.120   123939215.852        1453.234          31.500                                                                  
G25  22142382.140   116359001.992       -2969.754          44.000    22142388.760    90669412.332       -2315.641          36.500  
R22  19209933.540   102543961.602        -854.367          56.000    19209938.600    79756414.926        -664.484          53.500  
R13  20336344.220   108594957.457        2699.395          39.750    20336350.900    84462762.891        2099.172          40.750  
R12  19235427.400   102752243.402        -823.578          55.500    19235434.660    79918417.754        -640.402          51.500  
R11  22747669.200   121556720.9573      -4027.383          31.500                                                                  
R23  20707547.400   110771448.883        2981.586          48.000                                                                  
C23  23492022.780   122329122.949       -2694.602          50.750                                                                  
C28  21835927.620   113705411.121        1189.707          49.000                                                                  
C37  22158920.080   115387319.813         228.879          51.750                                                                  
E15  25341789.160   133172001.035       -1953.824          48.000    25341796.100   102040894.555       -1496.363          50.750  
E13  23659689.840   124332509.840         944.004          47.500    23659697.560    95267782.238         724.910          49.000  
E21  23443259.720   123195167.941         301.840          48.250    23443265.720    94396301.848         230.422          51.000  
E26  26242705.140   137906355.500        3037.520          43.750    26242712.880   105668506.570        2328.414          41.250  
> 2024 04 10 10 39 21.0000000  0 19       0.000000000000
G28  21588727.800   113449536.922       -2044.219          46.000    21588732.480    88402253.410       -1593.387          44.250  
G18  21760078.540   114349973.801        2625.480          51.250    21760082.900    89103898.105        2046.797          49.000  
G29  20731017.260   108942225.238       -1263.859          51.000    20731018.760    84890065.703        -986.000          47.750  
G31  21475751.360   112855838.301        -209.957          49.750    21475755.280    87939620.441        -163.398          47.000  
G26  21692880.940   113996868.273        2440.246          38.500    21692888.840    88828755.121        1901.891          37.750  
G05  23584567.720   123937729.8322       1452.141          29.750    23584560.840    96574843.2071       1131.883          33.500  
G25  22142940.560   116361938.977       -2969.570          43.750    22142947.840    90671700.883       -2312.762          37.250  
R22  19210087.360   102544783.563        -854.453          55.750    19210092.340    79757054.238        -664.027          53.500  
R13  20335831.660   108592225.012        2698.781          39.750    20335840.520    84460637.680        2101.344          40.250  
R12  19235575.860   102753035.504        -824.809          55.250    19235583.100    79919033.832        -641.859          51.500  
R11  22748416.800   121560715.9612      -4027.945          33.750                                                                  
R23  20706984.200   110768435.313        2980.938          47.750                                                                  
C23  23492534.020   122331785.934       -2693.969          50.500                                                                  
C28  21835693.440   113704190.695        1188.676          49.000                                                                  
C37  22158870.140   115387060.387         227.000          51.250                                                                  
E15  25342154.200   133173922.355       -1954.043          48.000    25342161.660   102042366.742       -1496.828          50.500  
E13  23659504.460   124331533.707         943.125          47.750    23659511.960    95267034.297         723.031          49.000  
E21  23443196.840   123194835.641         300.832          48.750    23443202.400    94396047.227         229.871          51.000  
E26  26242120.500   137903284.992        3038.563          43.250    26242128.420   105666153.824        2328.332          41.000  
> 2024 04 10 10 39 22.0000000  0 19       0.000000000000
G28  21589117.100   113451582.676       -2045.434          46.000    21589121.500    88403847.504       -1595.176          44.000  
G18  21759579.080   114347349.266        2625.102          51.000    21759583.440    89101853.012        2045.285          49.000  
G29  20731257.900   108943490.453       -1265.133          50.750    20731259.640    84891051.586        -985.867          48.000  
G31  21475791.860   112856049.250        -211.047          49.750    21475794.880    87939784.797        -165.105          46.750  
G26  21692416.960   113994429.148        2439.723          38.500    21692424.860    88826854.445        1901.109          37.750  
G05  23584290.600   123936280.4923       1452.246          28.500    23584285.420    96573711.434        1130.488          33.750  
G25  22143504.880   116364908.785       -2970.090          43.250    22143513.360    90674015.035       -2312.504          37.500  
R22  19210247.420   102545639.297        -856.199          55.500    19210252.440    79757719.809        -664.824          53.500  
R13  20335326.480   108589526.129        2699.016          39.500    20335333.500    84458538.508        2097.891          40.000  
R12  19235730.520   102753861.414        -825.414          55.000    19235737.640    79919676.199        -642.418          51.750  
R11  22749166.060   121564744.344       -4027.840          31.250                                                                  
R23  20706426.780   110765455.414        2979.723          47.500                                                                  
C23  23493051.420   122334481.477       -2695.969          50.000                                                                  
C28  21835465.440   113703002.918        1187.543          48.250                                                                  
C37  22158826.820   115386833.711         226.184          51.000                                                                  
E15  25342525.460   133175876.559       -1954.066          48.000    25342533.480   102043864.109       -1497.148          50.500  
E13  23659324.920   124330590.551         943.492          47.750    23659332.500    95266311.613         723.352          49.000  
E21  23443139.960   123194536.145         299.180          49.000    23443145.380    94395817.746         230.066          51.000  
E26  26241541.600   137900247.172        3039.727          43.000    26241550.380   105663826.160        2328.770          41.250  
> 2024 04 10 10 39 23.0000000  0 19       0.000000000000
G28  21589502.060   113453604.945       -2049.516          46.250    21589505.800    88405423.281       -1594.801          43.750  
G18  21759075.160   114344701.113        2623.707          51.000    21759079.460    89099789.535        2043.625          49.000  
G29  20731494.000   108944731.988       -1267.398          50.750    20731496.000    84892019.008        -987.430          48.000  
G31  21475827.640   112856236.809        -211.875          49.750    21475830.260    87939930.965        -165.953          46.500  
G26  21691948.180   113991966.277        2437.824          37.750    21691956.380    88824935.328        1900.063          37.750  
G05  23584008.740   123934801.5163       1451.766          29.250    23584004.180    96572561.391        1130.504          33.500  
G25  22144064.980   116367854.836       -2970.551          43.250    22144073.440    90676310.625       -2315.563          36.750  
R22  19210403.240   102546471.320        -857.398          55.250    19210408.400    79758366.934        -666.328          53.500  
R13  20334817.380   108586803.328        2698.250          39.250    20334822.100    84456420.805        2097.102          40.000  
R12  19235880.780   102754663.625        -827.609          55.000    19235888.140    79920300.145        -643.969          51.750  
R11  22749921.080   121568748.441       -4029.953          32.750                                                                  
R23  20705865.220   110762451.602        2978.535          47.500                                                                  
C23  23493564.300   122337153.508       -2697.246          49.750                                                                  
C28  21835233.000   113701791.715        1186.840          48.500                                                                  
C37  22158778.640   115386583.734         224.840          51.000                                                                  
E15  25342893.500   133177807.039       -1954.703          48.250    25342900.820   102045343.313       -1497.820          50.500  
E13  23659141.020   124329623.820         941.438          48.000    23659148.480    95265570.875         721.332          49.000  
E21  23443078.440   123194212.883         298.547          49.000    23443083.940    94395570.043         229.328          51.000  
E26  26240959.280   137897185.449        3036.086          43.500    26240968.200   105661480.176        2325.949          41.750  
> 2024 04 10 10 39 24.0000000  0 19       0.000000000000
G28  21589887.420   113455628.055       -2048.090          47.000    21589890.700    88406999.734       -1594.707          43.750  
G18  21758571.680   114342053.746        2622.863          51.250    21758575.480    89097726.652        2042.598          48.750  
G29  20731730.220   108945974.188       -1267.445          50.750    20731732.500    84892986.953        -987.367          48.000  
G31  21475863.520   112856425.375        -212.641          49.750    21475865.920    87940077.895        -165.559          46.250  
G26  21691479.560   113989504.004        2438.621          38.000    21691488.080    88823016.668        1901.027          36.500  
G25  22144625.700   116370801.465       -2972.066          43.750    22144634.340    90678606.707       -2314.281          37.000  
G05                                                                  23583723.080    96571411.984        1129.133          33.250  
R22  19210559.080   102547304.398        -858.723          55.250    19210564.460    79759014.883        -667.496          53.750  
R13  20334307.220   108584081.359        2697.527          39.750    20334315.020    84454303.715        2097.703          40.250  
R12  19236031.600   102755466.922        -828.715          55.250    19236038.780    79920924.934        -644.066          52.000  
R11  22750670.940   121572753.305       -4030.742          35.250                                                                  
R23  20705304.420   110759448.664        2977.379          48.000                                                                  
C23  23494077.400   122339826.172       -2697.645          49.500                                                                  
C28  21835000.700   113700581.258        1185.996          49.000                                                                  
C37  22158731.080   115386334.551         225.027          51.250                                                                  
E15  25343260.740   133179738.184       -1954.461          48.250    25343268.300   102046823.008       -1498.406          50.500  
E13  23658957.220   124328657.867         940.410          48.250    23658964.580    95264830.730         721.785          49.250  
E21  23443017.380   123193890.219         297.902          49.000    23443022.560    94395322.809         229.039          51.000  
E26  26240377.060   137894124.223        3037.816          43.750    26240385.780   105659134.551        2326.063          41.750  
> 2024 04 10 10 39 25.0000000  0 19       0.000000000000
G28  21590270.400   113457636.723       -2047.359          47.500    21590272.820    88408564.930       -1595.637          43.250  
G18  21758065.160   114339391.805        2622.895          51.250    21758068.600    89095652.422        2042.293          48.750  
G29  20731963.880   108947201.742       -1266.391          50.750    20731965.940    84893943.480        -985.242          47.750  
G31  21475896.620   112856599.586        -213.934          49.750    21475898.660    87940213.656        -165.270          46.000  
G26  21691008.860   113987027.016        2439.359          38.250    21691015.820    88821086.578        1899.941          37.000  
G25  22145183.820   116373733.383       -2971.098          43.750    22145192.260    90680891.348       -2314.453          36.750  
G05                                                                  23583439.280    96570251.391        1129.590          32.750  
R22  19210712.080   102548122.965        -858.973          55.750    19210718.120    79759651.543        -667.563          54.000  
R13  20333793.860   108581344.625        2695.965          40.250    20333801.100    84452175.141        2096.633          39.750  
R12  19236179.120   102756255.723        -829.211          55.750    19236186.600    79921538.445        -645.379          52.000  
R11  22751413.940   121576743.051       -4029.289          32.250                                                                  
R23  20704740.460   110756431.020        2977.262          48.500                                                                  
C23  23494587.780   122342484.277       -2695.859          49.750                                                                  
C28  21834765.380   113699356.281        1185.836          49.250                                                                  
C37  22158680.460   115386071.016         225.230          51.500                                                                  
E15  25343625.540   133181654.648       -1955.801          48.000    25343633.020   102048291.469       -1498.199          50.500  
E13  23658770.760   124327677.336         940.777          48.250    23658778.100    95264079.418         722.375          49.000  
E21  23442953.120   123193552.813         298.176          49.000    23442958.360    94395064.277         227.863          51.000  
E26  26239791.680   137891048.121        3036.699          43.500    26239800.740   105656777.559        2324.680          42.500  
> 2024 04 10 10 39 26.0000000  0 19       0.000000000000
G28  21590652.700   113459643.875       -2048.191          48.000    21590654.420    88410128.953       -1595.434          42.750  
G18  21757558.120   114336728.250        2622.391          51.000    21757561.520    89093576.914        2042.918          48.250  
G29  20732197.080   108948427.566       -1266.922          51.000    20732199.300    84894898.684        -986.910          47.500  
G31  21475929.580   112856772.414        -214.434          50.000    21475931.420    87940348.320        -166.293          45.750  
G26  21690537.920   113984548.324        2437.609          39.000    21690544.340    88819155.094        1896.324          37.000  
G25  22145741.020   116376663.520       -2969.957          43.500    22145750.040    90683174.527       -2315.461          36.500  
G05                                                                  23583155.440    96569089.563        1134.082          32.500  
R22  19210865.220   102548940.148        -859.422          55.750    19210871.700    79760287.137        -668.832          54.000  
R13  20333281.400   108578606.305        2697.707          39.750    20333287.760    84450045.359        2099.582          39.250  
R12  19236326.880   102757043.160        -828.809          55.750    19236334.300    79922150.898        -645.297          52.000  
R11  22752167.480   121580731.004       -4031.184          35.750                                                                  
R23  20704175.500   110753411.809        2977.078          48.500                                                                  
C23  23495098.020   122345140.648       -2696.496          49.750                                                                  
C28  21834530.160   113698129.680        1185.910          49.250                                                                  
C37  22158629.560   115385805.941         225.000          51.250                                                                  
E15  25343990.080   133183569.383       -1955.441          48.000    25343997.380   102049758.598       -1498.695          50.500  
E13  23658583.740   124326695.211         940.648          48.250    23658591.160    95263326.887         721.145          49.000  
E21  23442888.460   123193213.621         297.727          49.000    23442893.820    94394804.379         229.672          51.000  
E26  26239205.860   137887970.125        3036.973          43.250    26239215.160   105654419.098        2327.313          43.000  
> 2024 04 10 10 39 27.0000000  0 18       0.000000000000
G28  21591038.460   113461668.344       -2048.922          48.000    21591039.760    88411706.453       -1597.293          43.000  
G18  21757054.600   114334081.922        2621.586          51.250    21757057.620    89091514.840        2042.844          47.750  
G29  20732433.560   108949670.551       -1267.398          51.000    20732435.900    84895867.215        -986.230          47.500  
G31  21475965.980   112856962.676        -215.102          50.250    21475967.640    87940496.559        -167.191          45.750  
G26  21690069.560   113982086.648        2437.340          38.750    21690075.660    88817236.914        1899.277          36.500  
G25  22146301.960   116379610.672       -2972.969          43.500    22146311.720    90685471.031       -2314.188          36.500  
R22  19211021.520   102549775.102        -860.133          55.500    19211027.920    79760936.539        -669.797          54.000  
R13  20332772.060   108575885.527        2693.621          39.750    20332778.640    84447929.199        2096.324          39.500  
R12  19236477.660   102757848.375        -830.988          56.000    19236484.940    79922777.172        -645.922          52.000  
R11  22752916.860   121584736.254       -4030.371          32.500                                                                  
R23  20703613.860   110750410.234        2977.043          48.000                                                                  
C23  23495611.400   122347813.977       -2697.230          49.750                                                                  
C28  21834298.120   113696920.117        1184.953          49.500                                                                  
C37  22158582.020   115385557.988         223.922          51.250                                                                  
E15  25344356.820   133185501.223       -1957.445          47.750    25344364.960   102051238.832       -1499.965          50.250  
E13  23658400.240   124325730.313         939.879          48.250    23658407.500    95262587.547         719.883          49.000  
E21  23442827.320   123192891.469         297.465          49.250    23442832.500    94394557.535         227.066          51.000  
E26  26238623.540   137884909.070        3037.469          44.000    26238632.920   105652073.609        2327.691          42.750  
> 2024 04 10 10 39 28.0000000  0 18       0.000000000000
G28  21591423.700   113463692.824       -2050.336          47.750    21591425.200    88413283.949       -1597.688          43.000  
G18  21756550.900   114331435.477        2621.070          51.000    21756553.700    89089452.680        2042.660          47.750  
G29  20732670.240   108950913.313       -1267.820          50.750    20732672.280    84896835.613        -987.402          47.500  
G31  21476002.080   112857153.051        -215.605          49.500    21476003.900    87940644.914        -168.234          45.750  
G26  21689600.680   113979624.785        2438.660          37.750    21689607.260    88815318.531        1896.484          36.500  
G25  22146862.420   116382557.578       -2971.133          42.750    22146871.400    90687767.332       -2316.238          36.500  
R22  19211177.520   102550610.219        -860.680          55.250    19211184.240    79761586.082        -669.457          54.000  
R13  20332261.980   108573164.715        2693.781          39.750    20332268.820    84445813.023        2095.777          39.250  
R12  19236628.380   102758653.789        -831.477          55.750    19236635.540    79923403.605        -646.363          52.000  
R11  22753664.140   121588741.352       -4029.332          31.750                                                                  
R23  20703052.880   110747408.645        2976.113          48.250                                                                  
C23  23496124.620   122350487.047       -2697.344          49.500                                                                  
C28  21834065.800   113695710.398        1185.055          49.250                                                                  
C37  22158534.180   115385309.996         223.570          51.250                                                                  
E15  25344724.260   133187432.832       -1958.180          47.500    25344732.540   102052718.906       -1499.203          50.500  
E13  23658216.780   124324765.320         939.297          48.250    23658223.880    95261848.137         719.941          49.250  
E21  23442765.860   123192569.055         297.156          49.250    23442771.200    94394310.484         227.793          51.250  
E26  26238040.160   137881847.598        3036.473          43.250    26238050.140   105649727.777        2327.676          43.000  
> 2024 04 10 10 39 29.0000000  0 18       0.000000000000
G28  21591809.820   113465720.211       -2050.441          48.000    21591811.000    88414863.742       -1597.664          43.500  
G18  21756048.020   114328791.852        2620.504          50.750    21756050.480    89087392.711        2043.523          47.500  
G29  20732907.120   108952158.809       -1269.152          50.250    20732909.160    84897806.125        -990.277          47.500  
G31  21476038.780   112857346.469        -215.211          49.250    21476040.680    87940795.652        -168.082          45.500  
G26  21689132.820   113977165.512        2435.383          36.750    21689138.440    88813402.270        1899.711          36.000  
G25  22147423.540   116385507.129       -2972.938          42.250    22147432.900    90690065.719       -2315.453          36.500  
R22  19211334.840   102551448.477        -861.566          55.500    19211341.420    79762238.063        -669.848          54.000  
R13  20331754.560   108570446.828        2696.176          39.750    20331759.780    84443699.109        2094.242          39.000  
R12  19236779.980   102759462.395        -831.918          55.750    19236787.080    79924032.516        -647.102          52.000  
R11  22754410.820   121592749.063       -4030.313          33.750                                                                  
R23  20702492.840   110744410.016        2975.105          49.000                                                                  
C23  23496638.520   122353162.801       -2698.262          49.500                                                                  
C28  21833834.260   113694503.445        1184.566          49.500                                                                  
C37  22158487.080   115385064.855         222.617          51.000                                                                  
E15  25345092.740   133189367.176       -1956.602          47.500    25345100.640   102054201.059       -1499.816          50.500  
E13  23658033.780   124323803.168         938.969          48.250    23658040.880    95261110.891         719.379          49.250  
E21  23442705.380   123192249.285         298.547          49.250    23442710.320    94394065.465         227.844          51.250  
E26  26237458.180   137878788.660        3038.543          43.250    26237467.920   105647383.926        2326.758          43.000  
> 2024 04 10 10 39 30.0000000  0 18       0.000000000000
G28  21592196.140   113467748.105       -2051.895          48.500    21592197.300    88416443.938       -1596.266          43.250  
G18  21755545.060   114326148.633        2620.281          51.000    21755547.460    89085333.074        2042.488          47.750  
G29  20733144.240   108953404.621       -1269.012          50.500    20733146.180    84898776.887        -988.094          47.500  
G31  21476075.680   112857540.520        -215.633          49.750    21476077.380    87940946.848        -168.809          45.500  
G26  21688663.140   113974706.527        2438.535          36.250    21688670.240    88811486.172        1899.992          36.500  
G25  22147985.300   116388456.918       -2972.961          43.000    22147994.400    90692364.211       -2315.930          36.750  
R22  19211492.160   102552287.398        -863.031          55.500    19211498.580    79762890.559        -671.117          53.750  
R13  20331245.640   108567729.379        2694.281          39.500    20331249.760    84441585.547        2097.383          38.500  
R12  19236931.140   102760271.676        -832.922          55.500    19236938.360    79924661.965        -647.508          51.750  
R11  22755157.580   121596757.012       -4029.230          33.500                                                                  
R23  20701932.600   110741411.875        2974.441          48.500                                                                  
C23  23497152.300   122355838.801       -2697.387          49.500                                                                  
C28  21833602.420   113693296.859        1183.727          49.750                                                                  
C37  22158440.060   115384820.184         221.523          51.250                                                                  
E15  25345460.880   133191301.785       -1957.398          47.500    25345468.700   102055683.422       -1499.625          50.500  
E13  23657851.020   124322841.402         940.551          48.500    23657857.840    95260373.965         720.582          49.250  
E21  23442644.480   123191929.730         296.906          49.250    23442649.560    94393820.625         226.098          51.250  
E26  26236876.540   137875729.809        3036.504          43.500    26236885.860   105645040.148        2326.082          43.000  
> 2024 04 10 10 39 31.0000000  0 18       0.000000000000
G28  21592582.540   113469777.176       -2052.188          48.500    21592583.920    88418025.027       -1597.367          43.000  
G18  21755042.040   114323506.484        2620.684          51.000    21755044.460    89083274.242        2041.527          47.500  
G29  20733381.440   108954651.395       -1267.563          50.500    20733383.460    84899748.395        -987.656          47.500  
G31  21476113.000   112857735.852        -217.848          50.000    21476114.360    87941099.059        -170.230          45.500  
G26  21688193.040   113972248.457        2433.766          35.500    21688202.600    88809570.824        1899.516          36.250  
G25  22148546.360   116391407.598       -2972.215          42.250    22148556.120    90694663.426       -2316.715          37.000  
R22  19211649.600   102553127.680        -862.828          55.500    19211656.140    79763544.113        -670.723          53.750  
R13  20330737.320   108565013.047        2694.758          39.250    20330740.780    84439472.832        2095.637          38.500  
R12  19237082.820   102761082.320        -833.094          55.500    19237090.020    79925292.465        -647.613          51.750  
R11  22755908.400   121600765.824       -4033.719          31.750                                                                  
R23  20701372.640   110738414.910        2974.746          48.750                                                                  
C23  23497666.260   122358515.742       -2697.676          49.500                                                                  
C28  21833371.220   113692091.285        1183.777          50.250                                                                  
C37  22158393.540   115384576.621         221.953          51.500                                                                  
E15  25345829.640   133193237.363       -1957.480          47.500    25345836.980   102057166.520       -1500.098          50.500  
E13  23657668.220   124321880.730         938.441          48.500    23657675.040    95259637.859         719.238          49.500  
E21  23442583.940   123191611.094         297.961          49.250    23442588.840    94393576.469         227.480          51.250  
E26  26236294.960   137872671.785        3037.371          44.000    26236303.880   105642696.988        2327.797          43.000  
> 2024 04 10 10 39 32.0000000  0 19       0.000000000000
G28  21592967.960   113471802.156       -2051.590          49.000    21592969.600    88419602.918       -1598.770          43.250  
G18  21754538.620   114320860.129        2621.188          51.500    21754540.740    89081212.168        2041.168          47.500  
G29  20733617.800   108955893.891       -1267.477          51.000    20733620.220    84900716.574        -987.699          47.500  
G31  21476149.560   112857927.211        -218.352          50.250    21476150.500    87941248.168        -169.449          45.250  
G26  21687725.020   113969786.117        2440.359          36.750    21687733.460    88807652.063        1896.293          36.000  
G25  22149106.320   116394353.906       -2973.922          42.250    22149116.980    90696959.250       -2316.836          37.500  
G05                                                                  23581471.860    96562187.5041       1127.012          30.750  
R22  19211806.480   102553963.988        -863.773          55.500    19211812.720    79764194.570        -671.480          53.500  
R13  20330228.040   108562292.484        2695.211          39.000    20330231.660    84437356.828        2093.211          38.250  
R12  19237233.680   102761888.996        -834.039          55.500    19237240.920    79925919.875        -649.121          51.500  
R11  22756657.240   121604715.2503      -4030.445          29.500                                                                  
R23  20700811.980   110735413.785        2972.676          49.000                                                                  
C23  23498179.540   122361188.398       -2698.859          49.250                                                                  
C28  21833139.160   113690881.508        1183.445          50.250                                                                  
C37  22158346.160   115384328.973         222.160          51.500                                                                  
E15  25346197.100   133195168.617       -1957.738          47.250    25346204.540   102058646.324       -1499.617          50.250  
E13  23657484.580   124320915.871         938.473          48.500    23657491.500    95258898.555         719.336          49.000  
E21  23442522.380   123191288.090         296.215          49.250    23442527.360    94393328.969         227.816          51.000  
E26  26235711.840   137869609.223        3036.664          43.500    26235721.040   105640350.352        2325.992          42.750  
> 2024 04 10 10 39 33.0000000  0 19       0.000000000000
G28  21593358.780   113473854.117       -2051.895          49.250    21593359.820    88421201.840       -1600.035          43.250  
G18  21754039.900   114318240.695        2620.918          51.000    21754042.060    89079171.035        2040.336          47.500  
G29  20733859.300   108957163.195       -1268.809          51.000    20733861.620    84901705.637        -989.762          47.500  
G31  21476190.960   112858145.707        -218.070          50.000    21476192.060    87941418.430        -170.125          45.000  
G26  21687261.840   113967350.465        2434.789          36.750    21687270.420    88805754.176        1898.238          36.000  
G25  22149671.180   116397326.988       -2972.809          42.000    22149682.480    90699275.934       -2317.871          37.500  
G05                                                                  23581196.180    96561060.578        1128.039          30.250  
R22  19211968.600   102554827.898        -864.035          56.000    19211974.320    79764866.496        -671.813          53.500  
R13  20329722.300   108559599.297        2692.223          39.500    20329725.560    84435262.176        2095.313          38.000  
R12  19237390.140   102762723.355        -834.719          55.750    19237397.140    79926568.820        -648.602          51.500  
R11  22757408.860   121608734.8242      -4033.262          29.750                                                                  
R23  20700256.480   110732440.125        2974.078          48.750                                                                  
C23  23498697.540   122363887.590       -2698.938          49.000                                                                  
C28  21832912.080   113689698.359        1182.480          50.500                                                                  
C37  22158303.800   115384108.043         221.426          51.500                                                                  
E15  25346569.240   133197126.676       -1956.336          47.000    25346577.100   102060146.641       -1500.426          50.250  
E13  23657306.440   124319977.914         937.473          48.500    23657313.060    95258179.859         719.277          49.250  
E21  23442466.120   123190991.801         297.586          49.250    23442470.900    94393101.949         227.406          51.000  
E26  26235134.260   137866573.266        3035.777          43.500    26235142.900   105638024.105        2325.559          42.250  
> 2024 04 10 10 39 34.0000000  0 19       0.000000000000
G28  21593744.180   113475878.836       -2053.066          49.500    21593745.340    88422779.547       -1600.066          43.750  
G18  21753536.260   114315593.867        2618.559          51.250    21753538.380    89077108.590        2040.281          47.500  
G29  20734095.740   108958405.039       -1269.879          51.250    20734098.000    84902673.305        -988.977          47.500  
G31  21476227.520   112858337.047        -220.398          50.250    21476228.260    87941567.527        -171.457          45.500  
G26  21686792.140   113964887.297        2433.840          36.250    21686801.780    88803834.852        1897.625          35.250  
G25  22150231.120   116400272.488       -2974.715          42.000    22150242.820    90701571.148       -2315.902          37.500  
G05                                                                  23580915.820    96559912.434        1126.535          31.000  
R22  19212125.340   102555664.258        -865.133          56.000    19212131.320    79765516.992        -673.547          53.500  
R13  20329211.840   108556878.363        2691.492          39.750    20329218.080    84433145.871        2093.320          38.250  
R12  19237541.280   102763530.199        -835.395          55.750    19237548.340    79927196.359        -651.488          51.500  
R11  22758161.060   121612736.4102      -4032.516          29.750                                                                  
R23  20699696.240   110729438.695        2972.020          49.250                                                                  
C23  23499210.180   122366559.527       -2700.176          48.250                                                                  
C28  21832679.640   113688488.043        1181.543          50.000                                                                  
C37  22158256.080   115383860.059         219.734          51.000                                                                  
E15  25346936.480   133199057.238       -1957.961          46.750    25346944.540   102061625.902       -1499.594          50.250  
E13  23657122.820   124319012.602         937.324          48.250    23657129.320    95257440.207         717.734          49.250  
E21  23442404.320   123190667.980         295.496          49.000    23442409.220    94392853.824         226.434          51.000  
E26  26234551.420   137863509.664        3036.219          43.250    26234559.760   105635676.672        2324.113          42.250  
> 2024 04 10 10 39 35.0000000  0 17       0.000000000000
G28  21594129.200   113477901.355       -2053.781          49.500    21594130.320    88424355.531       -1599.602          43.750  
G18  21753032.040   114312944.770        2618.504          51.250    21753034.400    89075044.359        2040.426          47.250  
G29  20734331.500   108959644.512       -1269.277          51.000    20734333.940    84903639.129        -989.539          47.250  
G31  21476263.480   112858526.340        -218.832          50.500    21476264.400    87941715.016        -171.672          45.500  
G26  21686322.940   113962421.738        2435.539          36.500    21686331.480    88801913.602        1898.680          35.000  
G25  22150791.080   116403215.555       -2972.758          41.250    22150802.760    90703864.445       -2318.582          37.750  
R22  19212281.680   102556498.570        -865.441          56.000    19212287.100    79766165.902        -673.094          53.500  
R13  20328701.720   108554155.168        2693.809          39.500    20328708.020    84431027.824        2093.641          38.000  
R12  19237691.580   102764335.008        -835.746          55.750    19237698.960    79927822.320        -649.824          51.500  
R23  20699134.900   110726435.059        2972.863          50.000                                                                  
C23  23499723.160   122369229.063       -2700.008          48.750                                                                  
C28  21832446.780   113687275.441        1181.938          49.750                                                                  
C37  22158208.140   115383609.871         219.723          51.000                                                                  
E15  25347303.120   133200985.402       -1960.035          46.750    25347311.380   102063103.324       -1500.695          50.500  
E13  23656938.880   124318045.012         936.234          48.500    23656945.200    95256698.805         719.539          49.500  
E21  23442342.360   123190341.707         295.477          49.000    23442347.120    94392603.813         226.574          51.250  
E26  26233967.680   137860443.465        3036.434          43.250    26233976.580   105633327.250        2326.977          42.500  
> 2024 04 10 10 39 36.0000000  0 18       0.000000000000
G28  21594515.600   113479931.789       -2053.246          49.250    21594516.700    88425937.688       -1599.500          43.500  
G18  21752529.400   114310303.461        2619.125          51.250    21752531.680    89072986.203        2041.297          47.000  
G29  20734568.840   108960891.684       -1269.945          51.000    20734571.200    84904610.949        -988.574          47.250  
G31  21476301.160   112858723.637        -220.109          50.500    21476302.240    87941868.754        -171.172          45.250  
G26  21685855.420   113959963.824        2436.605          36.250    21685864.500    88799998.340        1897.750          34.750  
G25  22151352.240   116406166.258       -2972.906          41.250    22151364.400    90706163.680       -2317.145          37.500  
R22  19212439.480   102557341.082        -865.344          56.000    19212444.760    79766821.188        -672.695          53.750  
R13  20328193.980   108551439.949        2693.461          39.500    20328199.960    84428915.969        2091.996          37.750  
R12  19237843.540   102765148.004        -836.203          55.250    19237851.160    79928454.648        -650.734          51.750  
R23  20698575.480   110723439.441        2972.973          50.250                                                                  
R21  22205513.240   118826175.707       -3871.539          35.000                                                                  
C23  23500237.360   122371906.207       -2700.309          48.500                                                                  
C28  21832215.520   113686070.508        1182.777          50.000                                                                  
C37  22158161.580   115383367.477         220.285          51.000                                                                  
E15  25347671.740   133202921.262       -1957.898          46.750    25347679.740   102064586.641       -1501.203          50.500  
E13  23656756.260   124317085.230         938.027          48.500    23656762.640    95255963.387         718.734          49.500  
E21  23442281.780   123190023.051         296.746          49.000    23442286.440    94392359.648         226.965          51.250  
E26  26233385.380   137857384.797        3036.754          42.750    26233394.620   105630983.609        2325.738          42.500  
> 2024 04 10 10 39 37.0000000  0 19       0.000000000000
G28  21594901.960   113481961.688       -2053.879          49.500    21594902.960    88427519.426       -1599.523          43.250  
G18  21752026.820   114307661.535        2618.484          51.250    21752028.760    89070927.555        2040.777          47.000  
G29  20734805.980   108962138.141       -1270.801          51.250    20734808.280    84905582.215        -989.164          47.250  
G31  21476338.640   112858920.527        -219.859          50.750    21476339.440    87942022.184        -169.914          44.750  
G26  21685387.880   113957505.125        2436.195          35.750    21685396.940    88798082.480        1899.391          33.750  
G25  22151913.840   116409116.137       -2973.109          41.750    22151926.140    90708462.316       -2317.801          38.250  
R22  19212597.220   102558183.230        -866.156          56.000    19212602.500    79767476.191        -673.594          53.750  
R13  20327685.780   108548724.152        2692.621          39.500    20327690.420    84426803.715        2095.223          37.500  
R12  19237995.420   102765960.664        -836.844          55.500    19238003.460    79929086.711        -650.422          51.750  
R11  22760406.280   121624743.7072      -4032.262          33.250                                                                  
R23  20698015.400   110720443.281        2972.855          50.000                                                                  
R21  22206231.620   118830021.770       -3866.266          34.000                                                                  
C23  23500751.100   122374582.594       -2698.660          48.500                                                                  
C28  21831984.120   113684864.938        1182.633          50.500                                                                  
C37  22158114.860   115383124.512         219.805          51.250                                                                  
E15  25348040.200   133204856.371       -1959.344          46.750    25348048.080   102066069.387       -1500.660          50.500  
E13  23656573.740   124316124.824         937.117          48.750    23656579.820    95255227.496         716.898          49.250  
E21  23442220.800   123189703.602         296.047          49.250    23442225.600    94392114.875         226.523          51.250  
E26  26232803.360   137854325.203        3035.563          43.250    26232812.220   105628639.266        2325.480          42.000  
> 2024 04 10 10 39 38.0000000  0 18       0.000000000000
G28  21595288.240   113483990.770       -2054.051          50.000    21595289.020    88429100.527       -1600.348          43.500  
G18  21751523.920   114305018.680        2618.371          51.250    21751525.780    89068868.203        2039.578          47.000  
G29  20735043.000   108963383.605       -1269.766          51.250    20735045.100    84906552.691        -989.637          47.000  
G31  21476376.000   112859116.734        -219.883          50.500    21476376.380    87942175.070        -170.910          44.500  
G26  21684918.840   113955045.355        2434.371          36.000    21684929.460    88796165.820        1899.602          34.250  
G25  22152474.760   116412064.977       -2973.656          41.250    22152487.800    90710760.086       -2313.816          38.000  
R22  19212754.880   102559024.723        -866.219          55.750    19212760.080    79768130.684        -673.414          53.500  
R13  20327177.140   108546007.496        2691.469          39.250    20327182.060    84424690.738        2095.305          37.750  
R12  19238147.400   102766772.691        -837.320          55.250    19238155.160    79929718.281        -649.934          51.750  
R11  22761154.100   121628742.7113      -4032.930          30.000                                                                  
R23  20697455.300   110717446.285        2972.066          50.000                                                                  
C23  23501264.700   122377257.953       -2697.164          48.750                                                                  
C28  21831752.480   113683658.398        1182.652          50.750                                                                  
C37  22158068.180   115382880.711         219.352          51.250                                                                  
E15  25348408.040   133206790.465       -1957.512          47.000    25348416.100   102067551.348       -1500.348          50.750  
E13  23656391.100   124315163.512         936.965          49.000    23656396.740    95254490.910         716.590          49.500  
E21  23442159.720   123189383.070         295.711          49.250    23442164.500    94391869.273         227.551          51.500  
E26  26232220.940   137851264.387        3036.613          43.500    26232229.580   105626293.992        2326.703          42.250  
> 2024 04 10 10 39 39.0000000  0 19       0.000000000000
G28  21595673.800   113486017.383       -2053.617          49.500    21595674.620    88430679.684       -1600.109          42.750  
G18  21751020.540   114302373.258        2618.313          51.500    21751022.500    89066806.844        2040.336          47.000  
G29  20735279.360   108964626.387       -1270.500          51.000    20735281.280    84907521.109        -989.984          46.750  
G31  21476412.680   112859310.578        -219.910          50.750    21476413.320    87942326.129        -171.160          44.500  
G26  21684450.560   113952582.891        2435.586          36.000    21684460.620    88794247.000        1894.602          34.000  
G25  22153035.240   116415011.035       -2971.352          41.500    22153049.020    90713055.723       -2315.586          38.750  
G05                                                                  23579514.440    96554171.4381       1126.074          30.750  
R22  19212912.060   102559863.863        -867.066          55.750    19212917.740    79768783.348        -673.730          54.000  
R13  20326668.920   108543288.246        2691.438          39.250    20326672.380    84422575.805        2093.641          37.250  
R12  19238298.680   102767582.422        -837.414          55.000    19238306.660    79930348.070        -651.359          51.750  
R11  22761903.600   121632755.6992      -4031.637          30.000                                                                  
R23  20696894.240   110714446.758        2971.582          50.250                                                                  
C23  23501777.860   122379930.629       -2699.938          48.500                                                                  
C28  21831520.040   113682449.289        1183.035          51.000                                                                  
C37  22158020.740   115382634.438         219.254          51.750                                                                  
E15  25348775.840   133208721.855       -1958.547          47.500    25348783.560   102069031.246       -1500.594          50.750  
E13  23656207.560   124314199.648         936.375          49.000    23656213.300    95253752.355         717.840          49.250  
E21  23442098.120   123189059.789         296.168          49.500    23442102.940    94391621.570         227.168          51.500  
E26  26231637.820   137848200.727        3035.680          44.250    26231646.480   105623946.496        2327.266          42.750  
> 2024 04 10 10 39 40.0000000  0 19       0.000000000000
G28  21596059.020   113488042.117       -2053.168          49.000    21596060.180    88432257.398       -1600.672          43.250  
G18  21750516.680   114299725.852        2618.438          51.000    21750518.900    89064743.945        2040.992          47.250  
G29  20735515.320   108965867.113       -1268.750          51.000    20735517.220    84908487.906        -989.047          46.750  
G31  21476449.360   112859502.664        -221.270          50.750    21476449.700    87942475.809        -174.270          44.500  
G26  21683981.340   113950118.301        2437.164          36.250    21683991.820    88792326.520        1897.801          33.750  
G25  22153594.820   116417954.965       -2971.164          40.500    22153609.080    90715349.680       -2315.785          38.500  
G05                                                                  23579233.920    96553025.3361       1124.219          30.250  
R22  19213068.960   102560701.266        -867.211          55.750    19213075.100    79769434.664        -674.180          54.250  
R13  20326159.540   108540567.059        2690.324          39.000    20326163.360    84420459.313        2092.266          37.750  
R12  19238449.540   102768390.434        -837.625          55.000    19238458.100    79930976.527        -651.652          51.750  
R11  22762649.280   121636750.070       -4032.434          31.000                                                                  
R23  20696333.160   110711445.316        2972.719          50.500                                                                  
C23  23502290.720   122382601.215       -2699.949          48.000                                                                  
C28  21831287.400   113681238.168        1182.727          50.500                                                                  
C37  22157973.140   115382386.250         219.887          51.500                                                                  
E15  25349142.900   133210651.156       -1958.867          47.500    25349150.640   102070509.535       -1500.324          50.500  
E13  23656023.560   124313233.805         937.563          48.750    23656029.620    95253012.293         717.871          49.500  
E21  23442036.200   123188734.363         296.250          49.250    23442041.060    94391372.219         226.977          51.500  
E26  26231054.520   137845134.789        3037.004          44.000    26231063.280   105621597.285        2326.160          43.000  
> 2024 04 10 10 39 41.0000000  0 20       0.000000000000
G28  21596445.000   113490069.801       -2054.254          48.750    21596446.120    88433837.387       -1600.031          43.500  
G18  21750013.220   114297081.301        2618.531          50.500    21750015.620    89062683.242        2041.145          47.250  
G29  20735751.820   108967110.590       -1269.492          50.750    20735753.580    84909456.836        -989.770          46.500  
G31  21476486.540   112859697.824        -221.082          50.750    21476486.800    87942627.875        -172.590          44.500  
G26  21683512.280   113947656.434        2437.633          35.250    21683521.760    88790408.203        1895.211          33.500  
G25  22154155.900   116420901.574       -2973.523          40.500    22154170.720    90717645.730       -2316.625          38.750  
G05                                                                  23578955.840    96551886.5271       1126.324          30.000  
R22  19213226.420   102561541.832        -868.297          56.000    19213232.520    79770088.445        -674.004          54.500  
R13  20325650.080   108537848.777        2691.797          39.250    20325654.140    84418345.102        2093.777          37.250  
R12  19238601.460   102769201.613        -837.953          55.000    19238609.940    79931607.438        -651.133          51.750  
R11  22763399.320   121640754.660       -4029.875          30.750                                                                  
R23  20695772.580   110708446.863        2971.883          50.500                                                                  
R21  22209106.320   118845438.0903      -3869.602          32.000                                                                  
C23  23502803.760   122385274.508       -2699.762          48.000                                                                  
C28  21831054.980   113680029.840        1182.289          50.750                                                                  
C37  22157926.020   115382140.949         220.125          51.750                                                                  
E15  25349510.740   133212583.191       -1958.434          47.500    25349518.260   102071989.930       -1500.137          50.750  
E13  23655839.980   124312270.805         937.277          48.750    23655846.400    95252274.410         717.813          49.500  
E21  23441974.520   123188411.602         296.465          49.500    23441979.620    94391124.906         227.367          51.500  
E26  26230471.360   137842071.406        3037.105          43.750    26230480.260   105619249.988        2324.984          42.750  
> 2024 04 10 10 39 42.0000000  0 19       0.000000000000
G28  21596831.060   113492098.152       -2052.961          49.500    21596832.280    88435417.922       -1598.434          44.000  
G18  21749510.100   114294437.309        2618.918          50.750    21749512.420    89060622.992        2041.082          47.500  
G29  20735988.440   108968354.527       -1268.359          51.000    20735990.100    84910426.148        -988.684          46.500  
G31  21476523.960   112859893.766        -219.988          51.000    21476524.040    87942780.555        -173.387          44.750  
G26  21683044.620   113945194.941        2438.617          35.750    21683053.380    88788490.145        1898.758          33.750  
G25  22154716.760   116423848.578       -2970.297          41.000    22154731.860    90719942.113       -2315.254          39.000  
G05                                                                  23578676.140    96550740.2891       1126.285          30.500  
R22  19213384.200   102562383.246        -867.289          56.250    19213390.680    79770742.863        -674.289          54.500  
R13  20325139.320   108535131.156        2693.727          39.250    20325146.060    84416231.352        2091.688          37.000  
R12  19238753.600   102770013.652        -837.473          55.250    19238761.960    79932239.020        -651.406          51.750  
R23  20695211.860   110705449.070        2972.258          50.250                                                                  
R21  22209821.520   118849280.7542      -3870.012          29.750                                                                  
C23  23503317.040   122387948.203       -2697.977          47.500                                                                  
C28  21830823.140   113678822.023        1182.664          50.500                                                                  
C37  22157879.020   115381896.273         220.770          51.750                                                                  
E15  25349877.840   133214515.672       -1957.414          47.250    25349886.040   102073470.656       -1500.355          50.750  
E13  23655656.940   124311308.391         937.688          48.750    23655663.260    95251536.977         717.914          49.500  
E21  23441913.240   123188089.230         297.805          49.750    23441918.240    94390877.895         228.090          51.250  
E26  26229888.340   137839008.285        3037.621          44.000    26229897.260   105616902.934        2329.418          42.500  
> 2024 04 10 10 39 43.0000000  0 20       0.000000000000
G28  21597211.700   113494097.977       -2054.578          49.500    21597212.640    88436976.230       -1599.891          44.000  
G18  21749001.480   114291764.695        2618.324          51.000    21749003.980    89058540.453        2040.215          47.500  
G29  20736219.600   108969569.762       -1269.297          51.000    20736221.100    84911373.090        -988.957          46.750  
G31  21476555.740   112860061.320        -221.602          50.750    21476555.840    87942911.125        -172.961          44.750  
G26  21682570.380   113942704.738        2435.598          36.750    21682579.540    88786549.734        1898.230          33.500  
G25  22155271.900   116426766.777       -2972.605          41.000    22155287.900    90722216.039       -2315.391          39.750  
G05                                                                  23578390.920    96549572.7811       1126.074          30.250  
R22  19213536.720   102563195.863        -867.793          56.250    19213542.840    79771374.898        -674.793          54.500  
R13  20324625.100   108532384.469        2689.336          39.250    20324629.760    84414095.094        2094.844          36.250  
R12  19238899.920   102770796.914        -838.492          55.250    19238908.840    79932848.230        -652.613          51.750  
R11  22764895.460   121648729.7033      -4029.996          34.500                                                                  
R23  20694646.040   110702422.254        2972.223          50.250                                                                  
R21  22210535.500   118853096.1413      -3866.238          30.750                                                                  
C23  23503825.020   122390593.422       -2698.668          47.500                                                                  
C28  21830585.620   113677585.809        1182.719          50.500                                                                  
C37  22157826.700   115381623.293         219.328          51.750                                                                  
E15  25350239.760   133216419.418       -1957.891          47.250    25350248.200   102074929.371       -1500.234          50.500  
E13  23655468.240   124310317.363         936.398          48.750    23655474.680    95250777.613         718.926          49.500  
E21  23441846.260   123187738.078         298.301          49.500    23441851.360    94390608.832         227.355          51.500  
E26  26229300.260   137835916.250        3038.336          44.250    26229309.020   105614533.738        2329.484          42.500  
> 2024 04 10 10 39 44.0000000  0 20       0.000000000000
G28  21597597.740   113496126.215       -2053.668          49.750    21597598.460    88438556.660       -1601.219          44.000  
G18  21748498.220   114289120.402        2618.668          51.000    21748500.880    89056479.957        2040.051          47.750  
G29  20736455.960   108970813.215       -1269.887          51.000    20736457.520    84912342.004        -987.699          46.750  
G31  21476592.820   112860257.402        -221.000          51.000    21476593.060    87943063.910        -173.926          44.750  
G26  21682101.460   113940242.672        2437.055          36.000    21682110.740    88784631.285        1895.574          33.250  
G25  22155832.300   116429713.125       -2971.703          40.750    22155848.920    90724511.906       -2315.738          40.000  
G05                                                                  23578109.660    96548421.4691       1125.805          31.000  
R22  19213694.520   102564037.500        -867.605          56.250    19213700.620    79772029.504        -675.684          54.750  
R13  20324116.420   108529666.598        2691.688          38.750    20324119.220    84411981.207        2092.918          36.750  
R12  19239051.920   102771609.273        -838.305          55.250    19239060.760    79933480.063        -652.633          52.000  
R11  22765646.980   121652734.508       -4030.871          35.250                                                                  
R23  20694085.420   110699424.352        2972.410          50.000                                                                  
R21  22211256.620   118856938.414       -3865.836          31.250                                                                  
C23  23504338.120   122393266.570       -2698.297          47.500                                                                  
C28  21830353.300   113676377.617        1182.430          50.250                                                                  
C37  22157779.780   115381378.438         219.941          51.750                                                                  
E15  25350607.860   133218351.367       -1958.000          47.000    25350615.780   102076409.699       -1500.824          50.250  
E13  23655285.340   124309354.645         938.770          48.750    23655291.420    95250039.961         718.137          49.250  
E21  23441784.820   123187415.066         296.602          49.500    23441789.920    94390361.328         227.016          51.250  
E26  26228717.040   137832852.246        3036.840          44.000    26228725.900   105612185.984        2326.922          42.250  
> 2024 04 10 10 39 45.0000000  0 20       0.000000000000
G28  21597983.840   113498154.563       -2054.660          49.250    21597984.300    88440137.195       -1601.441          44.000  
G18  21747994.940   114286476.121        2617.781          50.750    21747997.900    89054419.480        2040.184          47.750  
G29  20736692.700   108972056.590       -1269.734          50.750    20736693.900    84913310.875        -990.379          46.500  
G31  21476630.080   112860453.719        -223.141          50.500    21476630.360    87943216.887        -172.086          45.000  
G26  21681633.260   113937780.469        2433.145          35.500    21681642.060    88782712.699        1898.020          33.500  
G25  22156392.560   116432659.313       -2972.426          39.750    22156410.200    90726807.613       -2316.098          40.000  
G05                                                                  23577829.680    96547276.238        1126.281          31.500  
R22  19213852.520   102564879.410        -868.500          56.250    19213858.220    79772684.328        -675.594          54.750  
R13  20323607.640   108526948.797        2692.137          39.000    20323610.600    84409867.344        2091.137          36.500  
R12  19239204.140   102772421.941        -838.961          55.000    19239212.580    79934112.137        -652.578          51.750  
R11  22766398.300   121656738.637       -4030.133          36.500                                                                  
R23  20693524.700   110696426.555        2970.824          49.750                                                                  
R21  22211977.020   118860780.117       -3868.219          31.000                                                                  
C23  23504851.500   122395939.582       -2699.168          47.750                                                                  
C28  21830121.160   113675169.383        1182.695          50.500                                                                  
C37  22157732.800   115381133.645         219.691          52.250                                                                  
E15  25350975.380   133220283.219       -1956.848          47.250    25350983.480   102077889.938       -1500.320          50.500  
E13  23655102.500   124308391.961         935.980          49.000    23655108.080    95249302.316         717.344          49.250  
E21  23441723.480   123187091.895         297.324          49.750    23441728.400    94390113.699         228.266          51.250  
E26  26228134.120   137829787.945        3038.488          44.000    26228142.900   105609838.031        2328.375          42.500  
> 2024 04 10 10 39 46.0000000  0 20       0.000000000000
G28  21598369.320   113500181.133       -2055.480          49.250    21598369.820    88441716.332       -1600.680          43.500  
G18  21747491.440   114283829.941        2618.484          50.750    21747494.640    89052357.523        2039.902          47.750  
G29  20736928.820   108973297.980       -1270.570          50.750    20736930.240    84914278.188        -989.277          46.500  
G31  21476667.000   112860648.375        -222.742          50.500    21476667.900    87943368.570        -174.328          45.000  
G26  21681164.640   113935316.250        2437.285          35.750    21681172.380    88780792.492        1898.914          33.250  
G25  22156952.720   116435603.453       -2970.914          39.750    22156970.620    90729101.727       -2316.504          40.000  
G05                                                                  23577549.220    96546129.566        1125.395          31.250  
R22  19214010.000   102565719.684        -868.543          56.250    19214015.560    79773337.871        -675.578          55.000  
R13  20323100.300   108524229.148        2690.270          39.250    20323103.000    84407752.105        2097.055          36.500  
R12  19239355.940   102773232.961        -839.543          55.000    19239364.340    79934742.926        -652.926          52.000  
R11  22767150.080   121660740.641       -4030.914          37.500    22767157.940    94625066.1092      -3135.449          29.500  
R23  20692963.660   110693426.938        2971.488          49.750                                                                  
R21  22212701.440   118864619.605       -3866.836          30.000                                                                  
C23  23505364.720   122398610.621       -2699.316          47.250                                                                  
C28  21829888.820   113673959.246        1181.840          50.250                                                                  
C37  22157685.500   115380887.051         217.680          52.000                                                                  
E15  25351342.760   133222213.059       -1958.574          47.250    25351350.760   102079368.633       -1500.828          50.500  
E13  23654918.860   124307427.383         936.148          49.250    23654924.540    95248563.215         718.371          49.250  
E21  23441661.340   123186766.652         297.969          50.000    23441666.580    94389864.477         228.473          51.000  
E26  26227550.360   137826721.469        3039.379          44.250    26227559.320   105607488.379        2328.992          42.250  
> 2024 04 10 10 39 47.0000000  0 20       0.000000000000
G28  21598754.840   113502206.195       -2054.891          49.500    21598754.940    88443294.285       -1602.531          43.250  
G18  21746987.540   114281182.176        2617.195          50.750    21746990.980    89050294.332        2040.211          47.750  
G29  20737164.640   108974537.684       -1269.195          50.750    20737166.280    84915244.180        -989.168          46.500  
G31  21476703.660   112860841.652        -222.570          50.250    21476704.680    87943519.164        -174.219          44.750  
G26  21680695.160   113932850.270        2436.844          35.500    21680703.740    88778870.930        1898.180          33.250  
G25  22157512.440   116438545.809       -2970.961          39.750    22157530.880    90731394.484       -2316.512          40.250  
G05                                                                  23577268.960    96544981.699        1124.102          31.000  
R22  19214166.820   102566558.605        -869.832          56.000    19214172.800    79773990.355        -676.785          55.000  
R13  20322589.200   108521507.926        2692.340          38.750    20322593.200    84405635.559        2095.285          36.750  
R12  19239507.500   102774042.629        -840.113          55.000    19239515.920    79935372.676        -653.855          52.000  
R11  22767897.420   121664740.828       -4031.766          38.250    22767907.160    94628166.5122      -3133.105          30.750  
R23  20692402.320   110690425.793        2969.828          49.750                                                                  
R21  22213414.580   118868513.4693      -3868.723          29.500                                                                  
C23  23505876.860   122401279.938       -2698.609          47.000                                                                  
C28  21829656.240   113672747.488        1182.117          50.250                                                                  
C37  22157637.780   115380638.941         218.879          52.000                                                                  
E15  25351709.520   133224141.188       -1956.836          47.250    25351717.680   102080846.023       -1499.988          50.250  
E13  23654735.040   124306461.215         936.082          49.250    23654740.800    95247822.906         717.074          49.250  
E21  23441599.200   123186439.648         296.688          49.750    23441604.380    94389613.914         227.516          51.250  
E26  26226967.160   137823653.102        3038.809          44.750    26226975.260   105605137.297        2328.867          42.000  
> 2024 04 10 10 39 48.0000000  0 20       0.000000000000
G28  21599138.520   113504223.098       -2056.309          49.750    21599138.400    88444865.891       -1601.457          42.750  
G18  21746482.200   114278526.141        2617.852          51.000    21746485.680    89048224.699        2041.199          48.000  
G29  20737398.940   108975769.031       -1268.859          51.000    20737400.520    84916203.672        -989.273          46.250  
G31  21476738.800   112861026.898        -223.707          50.500    21476740.260    87943663.512        -176.059          45.000  
G26  21680224.160   113930375.934        2436.695          35.500                                                                  
G25  22158071.100   116441479.738       -2970.738          39.500    22158089.200    90733680.672       -2316.688          40.500  
G05                                                                  23576988.440    96543827.582        1125.660          31.500  
R22  19214322.320   102567389.387        -870.695          55.750    19214328.500    79774636.527        -676.461          55.000  
R13  20322077.300   108518778.340        2692.539          38.500    20322083.220    84403512.563        2092.203          36.250  
R12  19239657.560   102774844.203        -840.820          54.750    19239665.680    79935996.121        -653.598          52.000  
R11  22768646.740   121668732.477       -4031.082          39.250    22768652.660    94631270.0633      -3134.203          27.750  
R23  20691839.340   110687416.320        2970.137          49.500                                                                  
R21  22214125.880   118872318.3633      -3867.027          28.750                                                                  
C23  23506387.740   122403940.910       -2700.617          47.000                                                                  
C28  21829421.740   113671527.512        1182.723          50.250                                                                  
C37  22157588.540   115380382.699         218.703          51.750                                                                  
E15  25352074.680   133226060.941       -1958.426          47.750    25352083.040   102082317.000       -1499.715          50.500  
E13  23654549.440   124305486.809         935.422          49.500    23654555.360    95247076.281         719.199          49.250  
E21  23441535.380   123186104.215         297.203          50.250    23441540.540    94389356.902         228.340          51.000  
E26  26226381.360   137820576.188        3038.484          44.750    26226389.780   105602779.684        2329.707          42.250  
> 2024 04 10 10 39 49.0000000  0 19       0.000000000000
G28  21599521.740   113506236.949       -2054.500          49.750    21599521.240    88446435.152       -1599.934          42.500  
G18  21745976.020   114275866.961        2618.762          51.000    21745979.840    89046152.605        2041.016          48.000  
G29  20737632.840   108976997.133       -1269.094          51.250    20737634.340    84917160.637        -987.563          46.250  
G31  21476773.300   112861209.199        -223.277          50.500    21476775.220    87943805.555        -174.508          45.000  
G26  21679752.840   113927898.258        2435.656          35.500    21679761.440    88774996.1991       1898.465          32.500  
G25  22158628.100   116444410.344       -2971.301          39.750    22158647.340    90735964.254       -2316.156          40.250  
G05                                                                  23576706.480    96542670.949        1122.336          31.250  
R22  19214477.160   102568217.254        -870.047          55.500    19214483.700    79775280.422        -675.852          55.000  
R13  20321567.860   108516045.633        2689.402          38.250    20321569.160    84401387.125        2094.285          36.500  
R12  19239807.260   102775642.879        -840.113          54.500    19239815.280    79936617.313        -654.371          52.000  
R11  22769395.420   121672720.695       -4031.516          39.000    22769398.220    94634362.0002      -3135.609          30.750  
R23  20691275.780   110684403.730        2970.316          49.000                                                                  
C23  23506898.000   122406598.660       -2700.703          46.500                                                                  
C28  21829186.740   113670304.363        1182.543          50.000                                                                  
C37  22157538.820   115380123.414         218.703          52.000                                                                  
E15  25352439.640   133227977.430       -1957.715          47.750    25352447.720   102083785.477       -1499.395          50.500  
E13  23654363.360   124304509.246         936.215          49.500    23654369.380    95246327.242         716.539          49.250  
E21  23441470.880   123185765.457         298.926          50.250    23441476.000    94389097.332         228.410          51.000  
E26  26225795.080   137817495.824        3038.906          44.500    26225803.680   105600419.398        2330.961          42.000  
> 2024 04 10 10 39 50.0000000  0 19       0.000000000000
G28  21599908.640   113508270.969       -2055.340          49.750    21599907.980    88448020.090       -1601.895          42.500  
G18  21745473.820   114273227.852        2617.855          51.000    21745477.600    89044096.164        2040.461          48.000  
G29  20737870.440   108978245.215       -1269.852          51.500    20737871.900    84918133.168        -988.816          46.500  
G31  21476811.740   112861411.809        -224.883          50.750    21476813.900    87943963.426        -174.379          45.250  
G26  21679284.140   113925440.547        2435.164          35.750    21679293.200    88773081.086        1895.215          32.500  
G25  22159188.740   116447360.863       -2973.391          39.000    22159209.080    90738263.352       -2315.801          40.000  
G05                                                                  23576426.940    96541532.1211       1124.367          31.750  
R22  19214636.180   102569065.766        -870.234          55.250    19214642.420    79775940.383        -677.539          55.000  
R13  20321058.760   108513333.395        2691.125          37.750    20321061.260    84399277.609        2090.938          36.250  
R12  19239960.600   102776462.242        -841.168          54.250    19239968.420    79937254.590        -653.293          52.000  
R11  22770147.500   121676729.207       -4030.250          39.500    22770149.380    94637479.891       -3135.773          31.000  
R23  20690716.420   110681411.648        2971.012          48.750                                                                  
C23  23507411.900   122409276.156       -2700.113          46.500                                                                  
C28  21828955.440   113669101.066        1181.563          50.000                                                                  
C37  22157492.900   115379884.059         217.465          52.250                                                                  
E15  25352808.140   133229913.867       -1956.980          47.500    25352816.140   102085269.238       -1500.844          50.250  
E13  23654181.020   124303551.773         934.289          49.250    23654187.160    95245593.594         715.926          49.250  
E21  23441410.360   123185446.590         298.074          50.000    23441415.360    94388853.012         228.188          51.000  
E26  26225212.700   137814435.262        3038.832          44.250    26225221.280   105598074.289        2329.285          42.000  
> 2024 04 10 10 39 51.0000000  0 19       0.000000000000
G28  21600295.380   113510304.012       -2055.727          49.750    21600294.720    88449604.270       -1602.379          42.500  
G18  21744971.340   114270587.652        2617.715          51.000    21744975.400    89042038.867        2038.918          48.000  
G29  20738107.740   108979492.121       -1270.672          51.500    20738109.240    84919104.773        -988.590          46.500  
G31  21476850.220   112861613.535        -225.395          50.750    21476852.260    87944120.625        -175.379          45.000  
G26  21678816.940   113922981.555        2437.008          36.000    21678825.660    88771165.043        1896.773          32.500  
G25  22159748.900   116450310.148       -2970.242          38.250    22159769.900    90740561.473       -2315.645          39.500  
G05                                                                  23576147.980    96540390.543        1124.023          32.000  
R22  19214794.760   102569913.457        -871.379          55.000    19214801.460    79776599.688        -678.145          55.250  
R13  20320549.960   108510620.109        2689.258          37.500    20320554.440    84397167.289        2094.816          36.250  
R12  19240113.960   102777280.805        -841.801          54.500    19240121.580    79937891.242        -655.148          52.000  
R11  22770898.560   121680736.398       -4031.063          40.250                                                                  
R23  20690156.680   110678418.566        2969.012          48.500                                                                  
C23  23507925.780   122411952.453       -2698.547          46.500                                                                  
C28  21828724.180   113667896.648        1181.570          50.000                                                                  
C37  22157446.900   115379643.703         217.613          52.250                                                                  
E15  25353176.340   133231849.109       -1957.473          47.750    25353184.440   102086752.078       -1501.168          50.250  
E13  23653998.640   124302593.211         935.691          49.500    23654004.740    95244859.109         714.629          49.250  
E21  23441349.300   123185126.473         296.277          50.250    23441354.520    94388607.723         228.141          51.000  
E26  26224630.440   137811373.301        3038.961          44.500    26224638.560   105595728.105        2327.074          41.750  
> 2024 04 10 10 39 52.0000000  0 19       0.000000000000
G28  21600686.700   113512360.848       -2055.855          49.500    21600685.560    88451206.988       -1602.973          42.250  
G18  21744473.380   114267971.160        2616.109          50.750    21744477.960    89040000.043        2039.926          48.250  
G29  20738349.680   108980762.629       -1269.422          51.500    20738351.160    84920094.793        -990.219          46.750  
G31  21476893.180   112861839.180        -225.301          50.500    21476895.200    87944296.469        -175.605          45.250  
G26  21678353.480   113920546.207        2436.336          36.500                                                                  
G25  22160315.060   116453282.914       -2972.527          38.500    22160335.660    90742877.961       -2317.789          39.750  
G05                                                                  23575873.520    96539267.492        1127.031          32.500  
R22  19214957.720   102570785.480        -872.754          55.000    19214964.540    79777277.938        -679.324          55.000  
R13  20320044.640   108507930.953        2690.191          37.750    20320049.900    84395075.770        2088.344          35.750  
R12  19240271.820   102778123.766        -842.473          54.500    19240279.540    79938546.883        -655.270          52.250  
R11  22771652.140   121684767.477       -4031.371          41.000                                                                  
R23  20689601.680   110675449.699        2967.996          48.500                                                                  
C23  23508444.040   122414652.105       -2698.961          46.250                                                                  
C28  21828497.460   113666715.691        1181.871          50.000                                                                  
C37  22157405.460   115379426.871         217.055          52.250                                                                  
E15  25353549.020   133233807.930       -1958.980          47.750    25353557.140   102088252.992       -1501.000          50.500  
E13  23653820.760   124301658.363         934.625          49.500    23653826.840    95244142.805         715.090          49.000  
E21  23441292.960   123184829.883         296.180          50.250    23441297.920    94388380.465         228.004          51.000  
E26  26224052.180   137808334.734        3038.703          44.500    26224060.100   105593399.883        2327.977          41.750  
> 2024 04 10 10 39 53.0000000  0 19       0.000000000000
G28  21601072.620   113514389.492       -2058.375          49.250    21601071.660    88452787.742       -1604.020          42.000  
G18  21743970.020   114265326.367        2615.707          50.250    21743974.860    89037939.176        2037.922          48.500  
G29  20738586.140   108982004.750       -1270.742          51.250    20738587.720    84921062.684        -991.539          46.750  
G31  21476930.660   112862036.762        -226.426          50.250    21476932.780    87944450.406        -176.477          45.500  
G26  21677886.100   113918082.379        2434.770          36.250                                                                  
G25  22160874.820   116456227.254       -2974.273          38.000    22160896.000    90745172.250       -2317.230          39.750  
G05                                                                  23575594.540    96538122.484        1122.582          32.750  
R22  19215115.960   102571629.051        -873.426          55.250    19215122.720    79777934.039        -679.465          54.750  
R13  20319536.000   108505213.074        2688.824          37.750    20319539.440    84392961.828        2092.629          35.250  
R12  19240424.620   102778938.270        -844.875          55.000    19240432.400    79939180.383        -656.398          52.250  
R11  22772403.900   121688769.645       -4033.293          42.500                                                                  
R23  20689040.960   110672452.137        2967.645          48.750                                                                  
C23  23508957.080   122417323.582       -2701.043          46.250                                                                  
C28  21828265.060   113665506.652        1179.988          50.000                                                                  
C37  22157358.600   115379182.094         216.039          52.500                                                                  
E15  25353916.680   133235738.348       -1959.867          47.750    25353924.540   102089732.148       -1501.340          50.500  
E13  23653637.540   124300695.230         933.160          49.500    23653643.480    95243404.816         716.617          49.250  
E21  23441231.180   123184504.820         297.316          50.250    23441236.120    94388131.395         227.668          51.250  
E26  26223468.420   137805267.605        3037.707          44.250    26223476.520   105591049.758        2328.379          42.250  
> 2024 04 10 10 39 54.0000000  0 19       0.000000000000
G28  21601457.200   113516410.242       -2057.809          48.750    21601456.420    88454362.344       -1603.289          42.500  
G18  21743465.260   114262673.598        2615.641          49.750    21743470.160    89035872.070        2037.617          48.500  
G29  20738821.000   108983238.801       -1271.680          50.750    20738822.640    84922024.273        -989.586          47.000  
G31  21476966.600   112862226.586        -227.262          49.500    21476968.880    87944598.328        -177.688          45.500  
G26  21677414.900   113915610.363        2433.594          35.250                                                                  
G25  22161433.380   116459163.391       -2972.793          37.500    22161455.180    90747460.168       -2316.664          39.750  
G05                                                                  23575312.460    96536971.266        1119.691          33.750  
R22  19215272.420   102572464.762        -873.414          55.500    19215278.900    79778584.039        -679.777          54.750  
R13  20319025.940   108502487.102        2685.270          37.750    20319028.700    84390841.652        2091.402          35.000  
R12  19240575.540   102779744.930        -844.590          55.500    19240583.500    79939807.781        -656.840          52.250  
R11  22773153.080   121692763.512       -4029.598          42.750                                                                  
R23  20688479.340   110669446.555        2967.340          49.250                                                                  
C23  23509468.320   122419987.008       -2701.754          45.750                                                                  
C28  21828031.160   113664289.645        1180.602          50.000                                                                  
C37  22157310.200   115378929.461         215.402          52.500                                                                  
E15  25354282.060   133237660.676       -1960.906          47.500    25354290.440   102091205.090       -1501.402          50.250  
E13  23653452.500   124299724.109         933.641          49.750    23653458.700    95242660.719         715.531          49.250  
E21  23441167.880   123184171.617         296.676          50.500    23441172.660    94387876.070         227.523          51.000  
E26  26222883.820   137802192.207        3038.809          44.500    26222891.160   105588693.262        2327.613          42.000  
> 2024 04 10 10 39 55.0000000  0 19       0.000000000000
G28  21601840.560   113518425.176       -2057.813          48.750    21601839.300    88455932.418       -1606.203          42.000  
G18  21742959.300   114260014.906        2615.375          49.750    21742964.440    89033800.371        2037.777          48.750  
G29  20739054.660   108984466.840       -1271.133          50.500    20739056.140    84922981.195        -990.145          46.750  
G31  21477001.580   112862410.699        -226.879          49.500    21477004.000    87944741.801        -176.293          45.250  
G26  21676943.800   113913132.352        2436.297          35.500                                                                  
G25  22161991.420   116462093.453       -2975.023          37.250    22162012.240    90749743.332       -2317.535          39.500  
G05                                                                  23575030.240    96535815.531        1123.094          35.000  
R22  19215427.780   102573294.742        -874.660          55.500    19215434.540    79779229.574        -679.723          54.750  
R13  20318513.820   108499755.164        2686.793          37.750    20318516.720    84388716.863        2092.453          35.000  
R12  19240725.800   102780545.828        -845.137          55.500    19240733.220    79940430.707        -657.316          52.500  
R11  22773899.560   121696751.156       -4030.668          43.000                                                                  
R23  20687916.140   110666435.051        2967.465          49.000                                                                  
C23  23509978.660   122422644.453       -2699.922          46.000                                                                  
C28  21827796.020   113663066.758        1178.867          50.000                                                                  
C37  22157260.580   115378671.020         214.574          52.750                                                                  
E15  25354646.640   133239576.938       -1958.707          47.750    25354655.180   102092673.414       -1501.180          50.500  
E13  23653266.740   124298747.090         934.035          50.000    23653272.720    95241912.113         715.930          49.000  
E21  23441103.380   123183832.305         296.621          50.750    23441107.980    94387616.098         227.090          51.000  
E26  26222297.060   137799110.563        3038.418          44.750    26222304.720   105586332.039        2328.527          42.000  
> 2024 04 10 10 39 56.0000000  0 20       0.000000000000
G28  21602223.700   113520438.660       -2058.348          49.000    21602221.820    88457501.379       -1603.488          42.500  
G18  21742452.900   114257354.645        2616.488          49.750    21742458.140    89031727.453        2039.602          48.750  
G29  20739287.980   108985693.215       -1270.621          50.750    20739289.600    84923936.801        -988.496          47.250  
G31  21477036.300   112862593.484        -227.762          49.500    21477038.340    87944884.219        -177.945          45.500  
G26  21676472.560   113910652.598        2435.773          36.500                                                                  
G25  22162549.300   116465021.855       -2973.969          38.000    22162569.820    90752025.172       -2316.004          40.000  
G05                                                                  23574748.960    96534658.719        1123.406          35.500  
R22  19215582.780   102574123.395        -874.406          55.250    19215589.780    79779874.074        -680.309          55.000  
R13  20318001.380   108497021.719        2687.941          37.500    20318004.380    84386590.813        2089.566          34.750  
R12  19240875.520   102781345.453        -844.727          55.500    19240883.100    79941052.637        -658.137          52.250  
R11  22774646.140   121700737.027       -4030.867          42.750    22774639.260    94656162.328       -3135.820          30.750  
R23  20687352.500   110663422.078        2967.137          49.000                                                                  
R21  22219852.320   118902962.1952      -3867.934          29.250                                                                  
C23  23510488.260   122425300.219       -2699.023          46.000                                                                  
C28  21827560.740   113661842.273        1180.309          49.500                                                                  
C37  22157210.520   115378411.094         216.770          52.750                                                                  
E15  25355011.120   133241491.543       -1960.340          48.000    25355019.480   102094140.445       -1502.434          50.500  
E13  23653080.640   124297768.508         935.273          50.250    23653086.400    95241162.293         716.336          49.500  
E21  23441038.440   123183491.277         295.414          51.000    23441043.040    94387354.793         227.395          51.250  
E26  26221710.900   137796027.098        3039.535          44.750    26221717.740   105583969.375        2330.984          42.250  
> 2024 04 10 10 39 57.0000000  0 20       0.000000000000
G28  21602607.120   113522454.516       -2058.809          49.000    21602605.420    88459072.176       -1603.422          42.500  
G18  21741947.020   114254696.688        2616.676          49.500    21741952.240    89029656.305        2038.910          48.750  
G29  20739521.580   108986921.793       -1271.141          50.500    20739523.640    84924894.148        -988.973          47.500  
G31  21477071.520   112862778.773        -227.676          49.250    21477073.740    87945028.605        -176.480          46.000  
G26  21676001.400   113908175.012        2434.367          36.750                                                                  
G25  22163107.380   116467952.320       -2972.160          38.000    22163127.560    90754308.652       -2316.438          40.000  
G05                                                                  23574466.200    96533503.707        1122.762          35.250  
R22  19215738.240   102574954.656        -873.863          54.750    19215745.620    79780520.609        -680.293          55.000  
R13  20317490.780   108494290.703        2689.750          37.250    20317494.000    84384466.621        2087.777          35.250  
R12  19241025.940   102782147.719        -845.184          55.250    19241033.180    79941676.621        -657.777          52.250  
R11  22775392.100   121704725.047       -4030.621          42.750    22775389.460    94659251.6053      -3132.406          33.250  
R23  20686789.620   110660411.520        2967.879          48.500                                                                  
R21  22220572.600   118906819.7622      -3866.363          30.750                                                                  
C23  23510998.980   122427958.129       -2700.223          46.000                                                                  
C28  21827325.800   113660620.008        1180.605          49.250                                                                  
C37  22157161.160   115378153.504         216.438          52.500                                                                  
E15  25355375.740   133243408.305       -1958.035          47.750    25355384.120   102095609.141       -1501.535          50.500  
E13  23652894.560   124296792.246         935.004          50.000    23652900.660    95240414.238         716.398          49.500  
E21  23440974.000   123183152.363         297.734          51.000    23440978.580    94387095.102         226.801          51.250  
E26  26221124.160   137792945.605        3041.664          44.500    26221131.400   105581608.273        2328.336          41.750  
